{"directed": false, "graph": [["DateObtained", "5/07/11"], ["GeoLocation", "Serbia"], ["GeoExtent", "Country"], ["DateModifier", "="], ["Customer", 0], ["Network", "AMRES"], ["IX", 0], ["Provenance", "Primary"], ["Note", "External node names from http://netiis.rcub.bg.ac.rs/netiis/NetIIS?service=main&ID=group.21361"], ["Source", "http://www.amres.ac.rs/index.php?option=com_content&task=view&id=25&Itemid=56&lang=ser"], ["Version", "1.0"], ["DateMonth", "07"], ["DateYear", "2011"], ["DateType", "Current"], ["LastAccess", "5/07/11"], ["Access", 0], ["Layer", "IP"], ["Creator", "Topology Zoo Toolset"], ["Type", "REN"], ["SourceGitVersion", "e278b1b"], ["Backbone", 0], ["Commercial", 0], ["NetworkDate", "2011_07"], ["label", "Amres"], ["LastProcessed", "2011_09_01"], ["Testbed", 0], ["Developed", 0], ["ToolsetVersion", "0.3.34dev-20120328"], ["Transit", 0]], "nodes": [{"Internal": 1, "Latitude": 44.07833, "Country": "Serbia", "type": "Small Node", "id": 0, "Longitude": 22.09528, "label": "Bor"}, {"Internal": 1, "type": "Small Node", "id": 1, "label": "Kosovska Mitrovica"}, {"Internal": 1, "Latitude": 43.13667, "Country": "Serbia", "type": "Small Node", "id": 2, "Longitude": 20.51222, "label": "Novi Pazar"}, {"Internal": 1, "Latitude": 43.58, "Country": "Serbia", "type": "Small Node", "id": 3, "Longitude": 21.33389, "label": "Krustevac"}, {"Internal": 1, "Latitude": 42.55139, "Country": "Serbia", "type": "Small Node", "id": 4, "Longitude": 21.90028, "label": "Vranje"}, {"Internal": 1, "Latitude": 43.32472, "Country": "Serbia", "type": "Medium Node", "id": 5, "Longitude": 21.90333, "label": "Nis"}, {"Internal": 1, "Latitude": 43.15306, "Country": "Serbia", "type": "Small Node", "id": 6, "Longitude": 22.58611, "label": "Pirot"}, {"Internal": 1, "Latitude": 42.99806, "Country": "Serbia", "type": "Small Node", "id": 7, "Longitude": 21.94611, "label": "Leskovac"}, {"Internal": 1, "Latitude": 44.01667, "Country": "Serbia", "type": "Medium Node", "id": 8, "Longitude": 20.91667, "label": "Kragujevac"}, {"Internal": 1, "Latitude": 45.25167, "Country": "Serbia", "type": "Medium Node", "id": 9, "Longitude": 19.83694, "label": "Novi Sad"}, {"Internal": 0, "id": 10, "label": "Bosnia and Herzegovina"}, {"Internal": 0, "id": 11, "label": "HUNGARNET"}, {"Internal": 1, "Latitude": 44.80401, "Country": "Serbia", "type": "Large Node", "id": 12, "Longitude": 20.46513, "label": "Beograd"}, {"Internal": 1, "Latitude": 44.87083, "Country": "Serbia", "type": "Small Node", "id": 13, "Longitude": 20.64028, "label": "Pancevo"}, {"Internal": 0, "id": 14, "label": "Telekom Serbia"}, {"Internal": 1, "Latitude": 43.72583, "Country": "Serbia", "type": "Small Node", "id": 15, "Longitude": 20.68944, "label": "Kraljevo"}, {"Internal": 1, "Latitude": 43.28722, "Country": "Serbia", "type": "Small Node", "id": 16, "Longitude": 20.61528, "label": "Raska"}, {"Internal": 1, "Latitude": 46.1, "Country": "Serbia", "type": "Small Node", "id": 17, "Longitude": 19.66667, "label": "Subotica"}, {"Internal": 1, "Latitude": 45.77417, "Country": "Serbia", "type": "Small Node", "id": 18, "Longitude": 19.11222, "label": "Sombor"}, {"Internal": 1, "Latitude": 45.38361, "Country": "Serbia", "type": "Small Node", "id": 19, "Longitude": 20.38194, "label": "Zrenjanin"}, {"Internal": 1, "Latitude": 44.74667, "Country": "Serbia", "type": "Small Node", "id": 20, "Longitude": 19.69, "label": "Sabac"}, {"Internal": 1, "Latitude": 44.27513, "Country": "Serbia", "type": "Small Node", "id": 21, "Longitude": 19.89821, "label": "Valjevo"}, {"Internal": 1, "Latitude": 43.85861, "Country": "Serbia", "type": "Small Node", "id": 22, "Longitude": 19.84878, "label": "Uzice"}, {"Internal": 1, "Latitude": 43.89139, "Country": "Serbia", "type": "Small Node", "id": 23, "Longitude": 20.34972, "label": "Cacak"}, {"Internal": 1, "Latitude": 44.33778, "Country": "Serbia", "type": "Small Node", "id": 24, "Longitude": 21.04556, "label": "Velika Plana"}], "links": [{"LinkType": "Fibre", "LinkSpeed": "1", "target": 5, "LinkNote": "dark   ", "LinkSpeedUnits": "G", "source": 0, "LinkLabel": "dark fibre 1 Gb/s", "LinkSpeedRaw": 1000000000.0}, {"LinkSpeed": "2", "source": 1, "LinkLabel": "2 Mb/s SHDSL", "target": 12, "LinkNote": "  SHDSL", "LinkSpeedUnits": "M", "LinkSpeedRaw": 2000000.0}, {"LinkType": "Fibre", "LinkSpeed": "1", "target": 16, "LinkNote": "dark   ", "LinkSpeedUnits": "G", "source": 2, "LinkLabel": "dark fibre 1 Gb/s", "LinkSpeedRaw": 1000000000.0}, {"LinkType": "Fibre", "LinkSpeed": "1", "target": 5, "LinkNote": "dark   ", "LinkSpeedUnits": "G", "source": 3, "LinkLabel": "dark fibre 1 Gb/s", "LinkSpeedRaw": 1000000000.0}, {"LinkType": "Fibre", "LinkSpeed": "1", "target": 15, "LinkNote": "dark   ", "LinkSpeedUnits": "G", "source": 3, "LinkLabel": "dark fibre 1 Gb/s", "LinkSpeedRaw": 1000000000.0}, {"LinkType": "Fibre", "LinkSpeed": "1", "target": 7, "LinkNote": "dark   ", "LinkSpeedUnits": "G", "source": 4, "LinkLabel": "dark fibre 1 Gb/s", "LinkSpeedRaw": 1000000000.0}, {"LinkType": "Fibre", "LinkSpeed": "1", "target": 6, "LinkNote": "dark   ", "LinkSpeedUnits": "G", "source": 5, "LinkLabel": "dark fibre 1 Gb/s", "LinkSpeedRaw": 1000000000.0}, {"LinkType": "Fibre", "LinkSpeed": "1", "target": 7, "LinkNote": "dark   ", "LinkSpeedUnits": "G", "source": 5, "LinkLabel": "dark fibre 1 Gb/s", "LinkSpeedRaw": 1000000000.0}, {"LinkType": "Fibre", "LinkSpeed": "1", "target": 24, "LinkNote": "dark   ", "LinkSpeedUnits": "G", "source": 8, "LinkLabel": "dark fibre 1 Gb/s", "LinkSpeedRaw": 1000000000.0}, {"LinkType": "Fibre", "LinkSpeed": "1", "target": 15, "LinkNote": "dark   ", "LinkSpeedUnits": "G", "source": 8, "LinkLabel": "dark fibre 1 Gb/s", "LinkSpeedRaw": 1000000000.0}, {"LinkType": "Fibre", "LinkSpeed": "1", "target": 17, "LinkNote": "dark   ", "LinkSpeedUnits": "G", "source": 9, "LinkLabel": "dark fibre 1 Gb/s", "LinkSpeedRaw": 1000000000.0}, {"LinkType": "Fibre", "LinkSpeed": "1", "target": 18, "LinkNote": "dark   ", "LinkSpeedUnits": "G", "source": 9, "LinkLabel": "dark fibre 1 Gb/s", "LinkSpeedRaw": 1000000000.0}, {"LinkType": "Fibre", "LinkSpeed": "1", "target": 19, "LinkNote": "dark   ", "LinkSpeedUnits": "G", "source": 9, "LinkLabel": "dark fibre 1 Gb/s", "LinkSpeedRaw": 1000000000.0}, {"LinkType": "Fibre", "LinkSpeed": "1", "target": 12, "LinkNote": "dark   ", "LinkSpeedUnits": "G", "source": 9, "LinkLabel": "dark fibre 1 Gb/s", "LinkSpeedRaw": 1000000000.0}, {"LinkType": "Fibre", "LinkSpeed": "1", "target": 20, "LinkNote": "dark   ", "LinkSpeedUnits": "G", "source": 10, "LinkLabel": "dark fibre 1 Gb/s", "LinkSpeedRaw": 1000000000.0}, {"LinkType": "Fibre", "LinkSpeed": "1", "target": 17, "LinkNote": "dark   ", "LinkSpeedUnits": "G", "source": 11, "LinkLabel": "dark fibre 1 Gb/s", "LinkSpeedRaw": 1000000000.0}, {"LinkType": "Fibre", "LinkSpeed": "1", "target": 13, "LinkNote": "dark   ", "LinkSpeedUnits": "G", "source": 12, "LinkLabel": "dark fibre 1 Gb/s", "LinkSpeedRaw": 1000000000.0}, {"LinkSpeed": "34", "source": 12, "LinkLabel": "34 Mb/s Internet", "target": 14, "LinkNote": "  Internet", "LinkSpeedUnits": "M", "LinkSpeedRaw": 34000000.0}, {"LinkType": "Fibre", "LinkSpeed": "1", "target": 20, "LinkNote": "dark   ", "LinkSpeedUnits": "G", "source": 12, "LinkLabel": "dark fibre 1 Gb/s", "LinkSpeedRaw": 1000000000.0}, {"LinkType": "Fibre", "LinkSpeed": "1", "target": 21, "LinkNote": "dark   ", "LinkSpeedUnits": "G", "source": 12, "LinkLabel": "dark fibre 1 Gb/s", "LinkSpeedRaw": 1000000000.0}, {"LinkType": "Fibre", "LinkSpeed": "1", "target": 24, "LinkNote": "dark   ", "LinkSpeedUnits": "G", "source": 12, "LinkLabel": "dark fibre 1 Gb/s", "LinkSpeedRaw": 1000000000.0}, {"LinkType": "Fibre", "LinkSpeed": "1", "target": 16, "LinkNote": "dark   ", "LinkSpeedUnits": "G", "source": 15, "LinkLabel": "dark fibre 1 Gb/s", "LinkSpeedRaw": 1000000000.0}, {"LinkType": "Fibre", "LinkSpeed": "1", "target": 22, "LinkNote": "dark   ", "LinkSpeedUnits": "G", "source": 21, "LinkLabel": "dark fibre 1 Gb/s", "LinkSpeedRaw": 1000000000.0}, {"LinkType": "Fibre", "LinkSpeed": "1", "target": 23, "LinkNote": "dark   ", "LinkSpeedUnits": "G", "source": 22, "LinkLabel": "dark fibre 1 Gb/s", "LinkSpeedRaw": 1000000000.0}], "multigraph": true}