{"directed": false, "graph": [["DateObtained", "19/10/10"], ["GeoLocation", "Algeria"], ["GeoExtent", "Country"], ["DateModifier", "="], ["Customer", 0], ["Network", "ARN"], ["IX", 0], ["Provenance", "Primary"], ["Access", 0], ["Source", "http://www.arn.dz/index.php?option=com_content&amp;task=view&amp;id=18&amp;Itemid=33"], ["Version", "1.0"], ["DateMonth", "10"], ["DateYear", "2010"], ["DateType", "Current"], ["LastAccess", "19/10/10"], ["Layer", "IP"], ["Creator", "Topology Zoo Toolset"], ["Type", "REN"], ["SourceGitVersion", "e278b1b"], ["Backbone", 1], ["Commercial", 0], ["NetworkDate", "2010_10"], ["label", "Arn"], ["LastProcessed", "2011_09_01"], ["Testbed", 0], ["Developed", 0], ["ToolsetVersion", "0.3.34dev-20120328"], ["Transit", 0]], "nodes": [{"Internal": 1, "Latitude": 34.67279, "Country": "Algeria", "id": 0, "Longitude": 3.263, "label": "Djelfa"}, {"Internal": 1, "Latitude": 36.26417, "Country": "Algeria", "id": 1, "Longitude": 2.75393, "label": "Medea"}, {"Internal": 0, "id": 2, "label": "Internet"}, {"Internal": 1, "Latitude": 36.47004, "Country": "Algeria", "id": 3, "Longitude": 2.8277, "label": "Blida"}, {"Internal": 1, "Latitude": 33.35608, "Country": "Algeria", "id": 4, "Longitude": 6.86319, "label": "ElOued"}, {"Internal": 1, "Latitude": 36.65944, "Country": "Algeria", "id": 5, "Longitude": 5.67186, "label": "Msila"}, {"Internal": 1, "Latitude": 33.8, "Country": "Algeria", "id": 6, "Longitude": 2.86514, "label": "Laghouat"}, {"Internal": 1, "Latitude": 31.94932, "Country": "Algeria", "id": 7, "Longitude": 5.32502, "label": "Ouargla"}, {"Internal": 1, "Latitude": 36.365, "Country": "Algeria", "id": 8, "Longitude": 6.61472, "label": "Constantine"}, {"Internal": 1, "Latitude": 34.85038, "Country": "Algeria", "id": 9, "Longitude": 5.72805, "label": "Biskra"}, {"Internal": 1, "Latitude": 35.55597, "Country": "Algeria", "id": 10, "Longitude": 6.17414, "label": "Batna"}, {"Internal": 1, "Latitude": 36.71182, "Country": "Algeria", "id": 11, "Longitude": 4.04591, "label": "Tizi Ouzou"}, {"Internal": 1, "Latitude": 36.9, "Country": "Algeria", "id": 12, "Longitude": 7.76667, "label": "Annaba"}, {"Internal": 1, "Latitude": 36.46214, "Country": "Algeria", "id": 13, "Longitude": 7.42608, "label": "Guelma"}, {"Internal": 1, "Latitude": 35.40417, "Country": "Algeria", "id": 14, "Longitude": 8.12417, "label": "Tebessa"}, {"Internal": 1, "Latitude": 35.87541, "Country": "Algeria", "id": 15, "Longitude": 7.11353, "label": "Oum el Bouaghi"}, {"Internal": 1, "Latitude": 36.75587, "Country": "Algeria", "id": 16, "Longitude": 5.08433, "label": "Bejaia"}, {"Internal": 1, "Latitude": 36.19112, "Country": "Algeria", "id": 17, "Longitude": 5.41373, "label": "Setif"}, {"Internal": 1, "Latitude": 36.87617, "Country": "Algeria", "id": 18, "Longitude": 6.90921, "label": "Skikda"}, {"Internal": 1, "Latitude": 36.82055, "Country": "Algeria", "id": 19, "Longitude": 5.76671, "label": "Jijel"}, {"Internal": 1, "Latitude": 35.37103, "Country": "Algeria", "id": 20, "Longitude": 1.31699, "label": "Tiaret"}, {"Internal": 0, "id": 21, "label": "GEANT"}, {"Internal": 1, "Latitude": 36.7525, "Country": "Algeria", "id": 22, "Longitude": 3.04197, "label": "Alger"}, {"Internal": 1, "Latitude": 36.19591, "Country": "Algeria", "id": 23, "Longitude": 1.25538, "label": "Chlef"}, {"Internal": 1, "Latitude": 35.69111, "Country": "Algeria", "id": 24, "Longitude": -0.64167, "label": "Oran"}, {"Internal": 1, "Latitude": 35.93115, "Country": "Algeria", "id": 25, "Longitude": 0.08918, "label": "Mostaganem"}, {"Internal": 1, "Latitude": 34.87833, "Country": "Algeria", "id": 26, "Longitude": -1.315, "label": "Tlemcen"}, {"Internal": 1, "Latitude": 35.18994, "Country": "Algeria", "id": 27, "Longitude": -0.63085, "label": "Sidi Bel Abbes"}, {"Internal": 1, "Latitude": 34.83034, "Country": "Algeria", "id": 28, "Longitude": 0.15171, "label": "Saida"}, {"Internal": 1, "Latitude": 35.31473, "Country": "Algeria", "id": 29, "Longitude": -0.05037, "label": "Mascara"}], "links": [{"source": 0, "id": "e5", "target": 22}, {"source": 1, "id": "e6", "target": 22}, {"LinkSpeed": "60", "source": 2, "LinkLabel": "60Mb/s", "target": 22, "LinkSpeedUnits": "M", "LinkSpeedRaw": 60000000.0}, {"source": 3, "id": "e4", "target": 22}, {"source": 4, "id": "e19", "target": 7}, {"source": 5, "id": "e20", "target": 8}, {"source": 6, "id": "e18", "target": 7}, {"source": 7, "id": "e7", "target": 22}, {"source": 8, "id": "e21", "target": 9}, {"source": 8, "id": "e28", "target": 10}, {"source": 8, "id": "e25", "target": 12}, {"source": 8, "id": "e24", "target": 13}, {"source": 8, "id": "e23", "target": 14}, {"source": 8, "id": "e22", "target": 15}, {"source": 8, "id": "e27", "target": 18}, {"source": 8, "id": "e26", "target": 19}, {"source": 8, "id": "e8", "target": 22}, {"source": 11, "id": "e11", "target": 22}, {"source": 16, "id": "e10", "target": 22}, {"source": 17, "id": "e9", "target": 22}, {"source": 20, "id": "e17", "target": 24}, {"LinkSpeed": "155", "source": 21, "LinkLabel": "155Mb/s", "target": 22, "LinkSpeedUnits": "M", "LinkSpeedRaw": 155000000.0}, {"source": 22, "id": "e0", "target": 23}, {"LinkType": "Satellite", "LinkSpeed": "24", "LinkLabel": "24 Mb/s + Satellite", "target": 24, "source": 22, "LinkSpeedUnits": "M", "LinkSpeedRaw": 24000000.0}, {"source": 24, "id": "e12", "target": 25}, {"source": 24, "id": "e13", "target": 26}, {"source": 24, "id": "e14", "target": 27}, {"source": 24, "id": "e15", "target": 28}, {"source": 24, "id": "e16", "target": 29}], "multigraph": true}