{"directed": false, "graph": [["DateObtained", "12/03/11"], ["GeoLocation", "Belgium"], ["GeoExtent", "Country"], ["DateModifier", "="], ["Customer", 0], ["Network", "BELNET"], ["IX", 0], ["Provenance", "Primary"], ["Access", 0], ["Source", "http://www.belnet.be/sites/www.belnet.be/files/publications/BELNET_annual_report_2007_EN.pdf"], ["Version", "1.0"], ["DateMonth", 0], ["DateYear", "2007"], ["Type", "REN"], ["LastAccess", "12/03/11"], ["Layer", "IP"], ["Creator", "Topology Zoo Toolset"], ["DateType", "Historic"], ["SourceGitVersion", "e278b1b"], ["Backbone", 1], ["Commercial", 0], ["NetworkDate", "2007"], ["label", "Belnet2007"], ["LastProcessed", "2011_09_01"], ["Testbed", 0], ["Developed", 0], ["ToolsetVersion", "0.3.34dev-20120328"], ["Transit", 0]], "nodes": [{"Internal": 1, "Latitude": 50.53474, "Country": "Belgium", "type": "One of two small nodes in same city", "id": 0, "Longitude": 5.27734, "label": "Liege 1 "}, {"Internal": 1, "Latitude": 50.85045, "Country": "Belgium", "type": "Small Node", "id": 1, "Longitude": 4.34878, "label": "Brussels Campus"}, {"Internal": 1, "Latitude": 49.68333, "Country": "Belgium", "type": "Small Node", "id": 2, "Longitude": 5.81667, "label": "Arlon"}, {"Internal": 1, "Latitude": 50.64119, "Country": "Belgium", "type": "One of two small nodes in same city", "id": 3, "Longitude": 5.57178, "label": "Liege 2"}, {"Internal": 1, "Latitude": 50.87959, "Country": "Belgium", "type": "One of two small nodes in same city", "id": 4, "Longitude": 4.70093, "label": "Leuven1"}, {"Internal": 1, "Latitude": 50.87959, "Country": "Belgium", "type": "One of two small nodes in same city", "id": 5, "Longitude": 4.70093, "label": "Leuven2"}, {"Internal": 1, "Latitude": 50.86667, "Country": "Belgium", "type": "Large Node", "id": 6, "Longitude": 4.4, "label": "Evere"}, {"Internal": 1, "Latitude": 50.91823, "Country": "Belgium", "type": "Large Node", "id": 7, "Longitude": 4.40731, "label": "Vilvoorde"}, {"Internal": 1, "Latitude": 50.93333, "Country": "Belgium", "type": "Small Node", "id": 8, "Longitude": 5.33333, "label": "Hasselt"}, {"Internal": 1, "Latitude": 51.16667, "Country": "Belgium", "type": "Small Node", "id": 9, "Longitude": 5.0, "label": "Geel"}, {"Internal": 1, "Latitude": 50.66829, "Country": "Belgium", "type": "Small Node", "id": 10, "Longitude": 4.61443, "label": "Louvain-la-Neuve"}, {"Internal": 1, "Latitude": 50.46992, "Country": "Belgium", "type": "Small Node", "id": 11, "Longitude": 4.82577, "label": "Namur"}, {"Internal": 1, "Latitude": 50.85045, "Country": "Belgium", "type": "Small Node", "id": 12, "Longitude": 4.34878, "label": "Brussels Science"}, {"Internal": 1, "Latitude": 51.20892, "Country": "Belgium", "type": "Small Node", "id": 13, "Longitude": 3.22424, "label": "Brugge"}, {"Internal": 1, "Latitude": 51.05, "Country": "Belgium", "type": "One of two small nodes in same city", "id": 14, "Longitude": 3.71667, "label": "Gent1"}, {"Internal": 1, "Latitude": 51.05, "Country": "Belgium", "type": "One of two small nodes in same city", "id": 15, "Longitude": 3.71667, "label": "Gent2"}, {"Internal": 1, "Latitude": 51.21667, "Country": "Belgium", "type": "One of two small nodes in same city", "id": 16, "Longitude": 4.41667, "label": "Antwerpen1"}, {"Internal": 1, "Latitude": 51.21667, "Country": "Belgium", "type": "One of two small nodes in same city", "id": 17, "Longitude": 4.41667, "label": "Antwerpen 2"}, {"Internal": 1, "Latitude": 50.82803, "Country": "Belgium", "type": "Small Node", "id": 18, "Longitude": 3.26487, "label": "Korthijk"}, {"Internal": 1, "Latitude": 50.45413, "Country": "Belgium", "type": "Small Node", "id": 19, "Longitude": 3.95229, "label": "Mons"}, {"Internal": 1, "Latitude": 50.41667, "Country": "Belgium", "type": "Small Node", "id": 20, "Longitude": 4.43333, "label": "Charleroi"}], "links": [{"source": 0, "LinkLabel": "Green", "target": 3}, {"source": 0, "LinkLabel": "Green", "target": 3}, {"source": 0, "LinkLabel": "Green", "target": 6}, {"source": 1, "LinkLabel": "Red", "target": 12}, {"source": 1, "LinkLabel": "Red", "target": 7}, {"source": 2, "LinkLabel": "Green", "target": 11}, {"source": 2, "LinkLabel": "Green", "target": 3}, {"source": 4, "LinkLabel": "Orange", "target": 5}, {"source": 4, "LinkLabel": "Orange", "target": 5}, {"source": 4, "LinkLabel": "Orange", "target": 6}, {"source": 5, "LinkLabel": "Orange", "target": 8}, {"source": 6, "LinkLabel": "Blue", "target": 17}, {"source": 6, "LinkLabel": "Red", "target": 12}, {"source": 6, "LinkLabel": "Green", "target": 7}, {"source": 6, "LinkLabel": "Red", "target": 7}, {"source": 6, "LinkLabel": "Orange", "target": 7}, {"source": 6, "LinkLabel": "Blue", "target": 7}, {"source": 7, "LinkLabel": "Blue", "target": 18}, {"source": 7, "LinkLabel": "Green", "target": 19}, {"source": 7, "LinkLabel": "Orange", "target": 9}, {"source": 8, "LinkLabel": "Orange", "target": 9}, {"source": 10, "LinkLabel": "Green", "target": 11}, {"source": 10, "LinkLabel": "Green", "target": 20}, {"source": 13, "LinkLabel": "Blue", "target": 18}, {"source": 13, "LinkLabel": "Blue", "target": 14}, {"source": 14, "LinkLabel": "Blue", "target": 15}, {"source": 14, "LinkLabel": "Blue", "target": 15}, {"source": 15, "LinkLabel": "Blue", "target": 16}, {"source": 16, "LinkLabel": "Blue", "target": 17}, {"source": 16, "LinkLabel": "Blue", "target": 17}, {"source": 19, "LinkLabel": "Green", "target": 20}], "multigraph": true}