{"directed": false, "graph": [["DateObtained", "20/10/10"], ["GeoLocation", "Bulgaria"], ["GeoExtent", "Country"], ["DateModifier", "="], ["Customer", 1], ["Network", "BREN"], ["IX", 0], ["Provenance", "Primary"], ["Note", "Names from http://www.bren.bg/index.php?option=com_content&view=article&id=11&Itemid=15&lang=en"], ["Source", "http://www.bren.bg/images/stories/bren_2010_english.png"], ["Version", "1.0"], ["DateMonth", "10"], ["DateYear", "2010"], ["DateType", "Dynamic"], ["LastAccess", "20/10/10"], ["Access", 0], ["Layer", "Layer 1"], ["Creator", "Topology Zoo Toolset"], ["Type", "REN"], ["SourceGitVersion", "e278b1b"], ["Backbone", 1], ["Commercial", 0], ["NetworkDate", "2010_10"], ["label", "Bren"], ["LastProcessed", "2011_09_01"], ["Testbed", 0], ["Developed", 0], ["ToolsetVersion", "0.3.34dev-20120328"], ["Transit", 0]], "nodes": [{"Internal": 1, "Latitude": 42.69751, "Country": "Bulgaria", "type": "Backbone Switch", "id": 0, "Longitude": 23.32415, "label": "Technical Uni"}, {"hyperedge": 1, "Internal": 1, "id": 1, "label": "None"}, {"Internal": 1, "Latitude": 42.69751, "Country": "Bulgaria", "type": "Backbone Switch", "id": 2, "Longitude": 23.32415, "label": "Todos Kableshkov Uni"}, {"Internal": 1, "Latitude": 42.69751, "Country": "Bulgaria", "type": "Backbone Switch", "id": 3, "Longitude": 23.32415, "label": "IPP-BAS"}, {"Internal": 1, "Latitude": 42.69751, "Country": "Bulgaria", "type": "End Customer", "id": 4, "Longitude": 23.32415, "label": "Telecom. and Post"}, {"Internal": 1, "Latitude": 42.01667, "Country": "Bulgaria", "type": "End Customer", "id": 5, "Longitude": 23.1, "label": "South-West Uni"}, {"Internal": 1, "Latitude": 42.69751, "Country": "Bulgaria", "type": "End Customer", "id": 6, "Longitude": 23.32415, "label": "Civil Engineering"}, {"Internal": 1, "Latitude": 42.69751, "Country": "Bulgaria", "type": "End Customer", "id": 7, "Longitude": 23.32415, "label": "Higher Attestation Commission"}, {"Internal": 0, "id": 8, "label": "Academy of Sciences"}, {"Internal": 1, "type": "End Customer", "id": 9, "label": "NMU"}, {"Internal": 1, "Latitude": 43.27064, "Country": "Bulgaria", "type": "Backbone Switch", "id": 10, "Longitude": 26.92286, "label": "Vasil Levski Uni"}, {"Internal": 1, "Latitude": 43.21667, "Country": "Bulgaria", "type": "Backbone Switch", "id": 11, "Longitude": 27.91667, "label": "Uni of Economics"}, {"Internal": 1, "Latitude": 43.21667, "Country": "Bulgaria", "type": "End Customer", "id": 12, "Longitude": 27.91667, "label": "Varna Tech Uni"}, {"Internal": 1, "Latitude": 43.21667, "Country": "Bulgaria", "type": "End Customer", "id": 13, "Longitude": 27.91667, "label": "Naval Academy"}, {"hyperedge": 1, "Internal": 1, "id": 14, "label": "None"}, {"hyperedge": 1, "Internal": 1, "id": 15, "label": "None"}, {"Internal": 1, "Latitude": 43.27064, "Country": "Bulgaria", "type": "End Customer", "id": 16, "Longitude": 26.92286, "label": "Shumen University"}, {"Internal": 1, "Latitude": 43.85639, "Country": "Bulgaria", "type": "Backbone Switch", "id": 17, "Longitude": 25.97083, "label": "Ruse Uni."}, {"Internal": 1, "Latitude": 43.62306, "Country": "Bulgaria", "type": "End Customer", "id": 18, "Longitude": 25.35389, "label": "Academy of Economics"}, {"Internal": 1, "Latitude": 42.15, "Country": "Bulgaria", "type": "End Customer", "id": 19, "Longitude": 24.75, "label": "Technical Uni."}, {"Internal": 1, "Latitude": 42.15, "Country": "Bulgaria", "type": "End Customer", "id": 20, "Longitude": 24.75, "label": "Agriculture"}, {"Internal": 1, "Latitude": 42.15, "Country": "Bulgaria", "type": "Backbone Switch", "id": 21, "Longitude": 24.75, "label": "Plovdiv Uni"}, {"Internal": 1, "Latitude": 43.41667, "Country": "Bulgaria", "type": "Backbone Switch", "id": 22, "Longitude": 24.61667, "label": "Pleven University"}, {"hyperedge": 1, "Internal": 1, "id": 23, "label": "None"}, {"Internal": 1, "Latitude": 43.08124, "Country": "Bulgaria", "type": "End Customer", "id": 24, "Longitude": 25.62904, "label": "Veliko Uni"}, {"Internal": 1, "Latitude": 43.08124, "Country": "Bulgaria", "type": "Backbone Switch", "id": 25, "Longitude": 25.62904, "label": "Military Uni"}, {"Internal": 1, "Latitude": 42.87472, "Country": "Bulgaria", "type": "Backbone Switch", "id": 26, "Longitude": 25.33417, "label": "Gabrovo Uni"}, {"Internal": 1, "Latitude": 42.69751, "Country": "Bulgaria", "type": "Backbone Switch", "id": 27, "Longitude": 23.32415, "label": "Sofia University"}, {"Internal": 1, "Latitude": 42.69751, "Country": "Bulgaria", "type": "Backbone Switch", "id": 28, "Longitude": 23.32415, "label": "Economy Uni."}, {"Internal": 0, "id": 29, "label": "GEANT"}, {"Internal": 0, "id": 30, "label": "BG Internet"}, {"Internal": 1, "Latitude": 42.69751, "Country": "Bulgaria", "type": "End Customer", "id": 31, "Longitude": 23.32415, "label": "Medical Uni. Pharmacy"}, {"Internal": 1, "Latitude": 42.69751, "Country": "Bulgaria", "type": "End Customer", "id": 32, "Longitude": 23.32415, "label": "Medical Uni Public Health"}, {"Internal": 1, "Latitude": 42.69751, "Country": "Bulgaria", "type": "End Customer", "id": 33, "Longitude": 23.32415, "label": "Min. Education"}, {"Internal": 1, "Latitude": 42.69751, "Country": "Bulgaria", "type": "Backbone Switch", "id": 34, "Longitude": 23.32415, "label": "Sofia Uni."}, {"Internal": 1, "Latitude": 42.69751, "Country": "Bulgaria", "type": "Backbone Switch", "id": 35, "Longitude": 23.32415, "label": "Medical Uni Sofia"}, {"Internal": 1, "Latitude": 42.69751, "Country": "Bulgaria", "type": "End Customer", "id": 36, "Longitude": 23.32415, "label": "Medical college of Sofia"}], "links": [{"LinkType": "Ethernet", "source": 0, "LinkLabel": "Ethernet", "target": 3}, {"LinkType": "Ethernet", "source": 0, "LinkLabel": "Ethernet", "target": 28}, {"LinkSpeed": "1", "source": 1, "LinkLabel": "1Gb/s", "target": 3, "LinkSpeedUnits": "G", "LinkSpeedRaw": 1000000000.0}, {"LinkSpeed": "100", "source": 1, "LinkLabel": "100 Mb/s", "target": 4, "LinkSpeedUnits": "M", "LinkSpeedRaw": 100000000.0}, {"LinkSpeed": "1", "source": 1, "LinkLabel": "1Gb/s", "target": 6, "LinkSpeedUnits": "G", "LinkSpeedRaw": 1000000000.0}, {"LinkSpeed": "100", "source": 1, "LinkLabel": "100Mb/s", "target": 7, "LinkSpeedUnits": "M", "LinkSpeedRaw": 100000000.0}, {"LinkType": "Ethernet", "source": 2, "LinkLabel": "Ethernet", "target": 34}, {"LinkType": "Ethernet", "source": 2, "LinkLabel": "Ethernet", "target": 3}, {"LinkType": "Ethernet", "LinkSpeed": "1", "LinkLabel": "1Gb/s Ethernet", "target": 8, "source": 3, "LinkSpeedUnits": "G", "LinkSpeedRaw": 1000000000.0}, {"LinkSpeed": "100", "source": 3, "LinkLabel": "100 Mb/s", "target": 14, "LinkSpeedUnits": "M", "LinkSpeedRaw": 100000000.0}, {"LinkSpeed": "1", "source": 3, "LinkLabel": "1Gb/s ", "target": 21, "LinkSpeedUnits": "G", "LinkSpeedRaw": 1000000000.0}, {"LinkType": "Ethernet", "LinkSpeed": "1", "LinkLabel": "1Gb/s Ethernet", "target": 22, "source": 3, "LinkSpeedUnits": "G", "LinkSpeedRaw": 1000000000.0}, {"LinkType": "Ethernet", "source": 3, "LinkLabel": "Ethernet", "target": 29}, {"LinkType": "Ethernet", "source": 3, "LinkLabel": "Ethernet", "target": 30}, {"LinkSpeed": "100", "source": 5, "LinkLabel": "100 Mb/s", "target": 14, "LinkSpeedUnits": "M", "LinkSpeedRaw": 100000000.0}, {"LinkSpeed": "100", "source": 9, "LinkLabel": "100Mb/s", "target": 15, "LinkSpeedUnits": "M", "LinkSpeedRaw": 100000000.0}, {"LinkSpeed": "1", "source": 10, "LinkLabel": "1Gb/s", "target": 16, "LinkSpeedUnits": "G", "LinkSpeedRaw": 1000000000.0}, {"LinkSpeed": "1", "source": 10, "LinkLabel": "1Gb/s", "target": 17, "LinkSpeedUnits": "G", "LinkSpeedRaw": 1000000000.0}, {"LinkSpeed": "1", "source": 10, "LinkLabel": "1Gb/s", "target": 11, "LinkSpeedUnits": "G", "LinkSpeedRaw": 1000000000.0}, {"LinkSpeed": "1", "source": 11, "LinkLabel": "1Gb/s", "target": 12, "LinkSpeedUnits": "G", "LinkSpeedRaw": 1000000000.0}, {"LinkSpeed": "1", "source": 11, "LinkLabel": "1Gb/s", "target": 13, "LinkSpeedUnits": "G", "LinkSpeedRaw": 1000000000.0}, {"LinkSpeed": "1", "source": 11, "LinkLabel": "1Gb/s", "target": 21, "LinkSpeedUnits": "G", "LinkSpeedRaw": 1000000000.0}, {"LinkSpeed": "100", "source": 15, "LinkLabel": "100Mb/s", "target": 22, "LinkSpeedUnits": "M", "LinkSpeedRaw": 100000000.0}, {"LinkSpeed": "1", "source": 17, "LinkLabel": "1Gb/s", "target": 25, "LinkSpeedUnits": "G", "LinkSpeedRaw": 1000000000.0}, {"LinkSpeed": "100", "source": 18, "LinkLabel": "100Mb/s", "target": 23, "LinkSpeedUnits": "M", "LinkSpeedRaw": 100000000.0}, {"LinkSpeed": "1", "source": 19, "LinkLabel": "1Gb/s", "target": 21, "LinkSpeedUnits": "G", "LinkSpeedRaw": 1000000000.0}, {"LinkSpeed": "1", "source": 20, "LinkLabel": "1Gb/s", "target": 21, "LinkSpeedUnits": "G", "LinkSpeedRaw": 1000000000.0}, {"LinkSpeed": "1", "source": 22, "LinkLabel": "1Gb/s", "target": 25, "LinkSpeedUnits": "G", "LinkSpeedRaw": 1000000000.0}, {"LinkSpeed": "100", "source": 23, "LinkLabel": "100Mb/s", "target": 25, "LinkSpeedUnits": "M", "LinkSpeedRaw": 100000000.0}, {"LinkSpeed": "1", "source": 24, "LinkLabel": "1Gb/s", "target": 25, "LinkSpeedUnits": "G", "LinkSpeedRaw": 1000000000.0}, {"LinkSpeed": "1", "source": 25, "LinkLabel": "1Gb/s", "target": 26, "LinkSpeedUnits": "G", "LinkSpeedRaw": 1000000000.0}, {"LinkType": "Ethernet", "source": 27, "LinkLabel": "Ethernet", "target": 35}, {"LinkType": "Ethernet", "source": 27, "LinkLabel": "Ethernet", "target": 28}, {"LinkType": "Ethernet", "source": 31, "LinkLabel": "Ethernet", "target": 34}, {"LinkType": "Ethernet", "source": 32, "LinkLabel": "Ethernet", "target": 34}, {"LinkType": "Ethernet", "source": 33, "LinkLabel": "Ethernet", "target": 34}, {"LinkType": "Ethernet", "source": 34, "LinkLabel": "Ethernet", "target": 35}, {"LinkType": "Ethernet", "source": 35, "LinkLabel": "Ethernet", "target": 36}], "multigraph": true}