{"directed": false, "graph": [["DateObtained", "16/01/11"], ["GeoLocation", "Europe"], ["GeoExtent", "Continent"], ["DateModifier", "="], ["Customer", 1], ["Network", "BSONetworkSolutions"], ["IX", 0], ["Provenance", "Primary"], ["Note", "Map link dead"], ["Source", "http://en.bsonetwork.com/images/map_reseaux/europe_map.jpg"], ["Version", "1.0"], ["DateMonth", "01"], ["DateYear", "2011"], ["Type", "COM"], ["LastAccess", "16/01/11"], ["Access", 0], ["Layer", "IP"], ["Creator", "Topology Zoo Toolset"], ["DateType", "Current"], ["SourceGitVersion", "e278b1b"], ["Backbone", 1], ["Commercial", 0], ["NetworkDate", "2011_01"], ["label", "BsonetEurope"], ["LastProcessed", "2011_09_01"], ["Testbed", 0], ["Developed", 1], ["ToolsetVersion", "0.3.34dev-20120328"], ["Transit", 1]], "nodes": [{"Internal": 1, "Latitude": 50.08804, "Country": "Czech Republic", "id": 0, "Longitude": 14.42076, "label": "Prague"}, {"Internal": 1, "Latitude": 50.11667, "Country": "Germany", "id": 1, "Longitude": 8.68333, "label": "Frankfurt"}, {"Internal": 1, "Latitude": 53.55, "Country": "Germany", "id": 2, "Longitude": 10.0, "label": "Hamburg"}, {"Internal": 1, "Latitude": 55.67594, "Country": "Denmark", "id": 3, "Longitude": 12.56553, "label": "Copenhagen"}, {"Internal": 0, "id": 4, "label": "Dubai"}, {"Internal": 1, "Latitude": 40.4165, "Country": "Spain", "id": 5, "Longitude": -3.70256, "label": "Madrid"}, {"Internal": 1, "Latitude": 46.20222, "Country": "Switzerland", "id": 6, "Longitude": 6.14569, "label": "Geneva"}, {"Internal": 1, "Latitude": 45.46427, "Country": "Italy", "id": 7, "Longitude": 9.18951, "label": "Milan"}, {"Internal": 1, "Latitude": 50.85045, "Country": "Belgium", "id": 8, "Longitude": 4.34878, "label": "Brussels"}, {"Internal": 1, "Latitude": 52.37403, "Country": "Netherlands", "id": 9, "Longitude": 4.88969, "label": "Amsterdam"}, {"Internal": 1, "Latitude": 60.16952, "Country": "Finland", "id": 10, "Longitude": 24.93545, "label": "Helsinki"}, {"Internal": 1, "Latitude": 59.33258, "Country": "Sweden", "id": 11, "Longitude": 18.0649, "label": "Stockholm"}, {"Internal": 0, "id": 12, "label": "Hong Kong"}, {"Internal": 1, "Latitude": 59.91273, "Country": "Norway", "id": 13, "Longitude": 10.74609, "label": "Oslo"}, {"Internal": 1, "Latitude": 51.50853, "Country": "United Kingdom", "id": 14, "Longitude": -0.12574, "label": "London"}, {"Internal": 0, "id": 15, "label": "New York"}, {"Internal": 0, "id": 16, "label": "New York"}, {"Internal": 1, "Latitude": 48.85341, "Country": "France", "id": 17, "Longitude": 2.3488, "label": "Paris"}], "links": [{"source": 0, "id": "e21", "target": 1}, {"source": 1, "id": "e19", "target": 9}, {"source": 1, "id": "e22", "target": 6}, {"source": 1, "id": "e13", "target": 17}, {"source": 2, "id": "e18", "target": 9}, {"source": 2, "id": "e20", "target": 3}, {"source": 3, "id": "e4", "target": 11}, {"source": 4, "id": "e7", "target": 14}, {"source": 5, "id": "e16", "target": 17}, {"source": 6, "id": "e23", "target": 7}, {"source": 6, "id": "e14", "target": 17}, {"source": 7, "id": "e15", "target": 17}, {"source": 8, "id": "e17", "target": 9}, {"source": 8, "id": "e12", "target": 17}, {"source": 9, "id": "e3", "target": 11}, {"source": 9, "id": "e8", "target": 14}, {"source": 10, "id": "e1", "target": 11}, {"source": 10, "id": "e0", "target": 11}, {"source": 10, "id": "e2", "target": 12}, {"source": 11, "id": "e5", "target": 13}, {"source": 13, "id": "e6", "target": 14}, {"source": 14, "id": "e9", "target": 15}, {"source": 14, "id": "e10", "target": 17}, {"source": 16, "id": "e11", "target": 17}], "multigraph": true}