{"directed": false, "graph": [["DateObtained", "20/10/10"], ["GeoLocation", "Croatia"], ["GeoExtent", "Country"], ["DateModifier", "="], ["Customer", 1], ["Network", "Carnet"], ["IX", 0], ["Provenance", "Primary"], ["Note", "2 Mb/s and 4Mb/s links are indistinguishable"], ["Source", "http://www.carnet.hr/infrastructure"], ["Version", "1.0"], ["DateMonth", "08"], ["DateYear", "2010"], ["DateType", "Historic"], ["LastAccess", "20/10/10"], ["Access", 0], ["Layer", "IP"], ["Creator", "Topology Zoo Toolset"], ["Type", "REN"], ["SourceGitVersion", "e278b1b"], ["Backbone", 1], ["Commercial", 0], ["NetworkDate", "2010_08"], ["label", "Carnet"], ["LastProcessed", "2011_09_01"], ["Testbed", 0], ["Developed", 0], ["ToolsetVersion", "0.3.34dev-20120328"], ["Transit", 0]], "nodes": [{"Internal": 1, "Latitude": 45.14861, "Country": "Croatia", "type": "Smaller Centre", "id": 0, "Longitude": 17.24667, "label": "Stara Gradnifska"}, {"Internal": 1, "Latitude": 45.475, "Country": "Croatia", "type": "Smaller Centre", "id": 1, "Longitude": 16.78194, "label": "Kutina"}, {"Internal": 1, "Latitude": 45.16028, "Country": "Croatia", "type": "Smaller Centre", "id": 2, "Longitude": 18.01556, "label": "Slavonski"}, {"Internal": 1, "Latitude": 45.34028, "Country": "Croatia", "type": "Smaller Centre", "id": 3, "Longitude": 17.68528, "label": "Pozega"}, {"Internal": 1, "Latitude": 45.7125, "Country": "Croatia", "type": "Smaller Centre", "id": 4, "Longitude": 16.07556, "label": "Gorica"}, {"Internal": 1, "Latitude": 45.48722, "Country": "Croatia", "type": "Smaller Centre", "id": 5, "Longitude": 15.54778, "label": "Karlovac"}, {"Internal": 1, "Latitude": 45.46611, "Country": "Croatia", "type": "Smaller Centre", "id": 6, "Longitude": 16.37833, "label": "Sisak"}, {"Internal": 1, "Latitude": 45.4375, "Country": "Croatia", "type": "Smaller Centre", "id": 7, "Longitude": 16.29, "label": "Petrinja"}, {"Internal": 1, "Latitude": 45.66833, "Country": "Croatia", "type": "Smaller Centre", "id": 8, "Longitude": 15.64861, "label": "Jastrebarsko"}, {"Internal": 0, "id": 9, "label": "GEANT"}, {"Internal": 1, "Latitude": 43.1725, "Country": "Croatia", "type": "Smaller Centre", "id": 10, "Longitude": 16.44278, "label": "Hvar"}, {"Internal": 1, "Latitude": 42.64807, "Country": "Croatia", "type": "Larger University Centre", "id": 11, "Longitude": 18.09216, "label": "Dubrovnik"}, {"Internal": 1, "Latitude": 45.08, "Country": "Croatia", "type": "Smaller Centre", "id": 12, "Longitude": 13.64, "label": "Rovinj"}, {"Internal": 1, "Latitude": 45.27639, "Country": "Croatia", "type": "Smaller Centre", "id": 13, "Longitude": 13.72083, "label": "Visnjan"}, {"Internal": 1, "Latitude": 45.33917, "Country": "Croatia", "type": "Smaller Centre", "id": 14, "Longitude": 14.30833, "label": "Opatija"}, {"Internal": 1, "Latitude": 45.22583, "Country": "Croatia", "type": "Smaller Centre", "id": 15, "Longitude": 13.59389, "label": "Porec"}, {"Internal": 1, "Latitude": 45.41, "Country": "Croatia", "type": "Smaller Centre", "id": 16, "Longitude": 13.66194, "label": "Buje"}, {"Internal": 1, "Latitude": 44.11972, "Country": "Croatia", "type": "Larger University Centre", "id": 17, "Longitude": 15.24222, "label": "Zadar"}, {"Internal": 1, "Latitude": 44.10667, "Country": "Croatia", "type": "Smaller Centre", "id": 18, "Longitude": 15.38056, "label": "Zenumik D"}, {"Internal": 1, "Latitude": 44.04389, "Country": "Croatia", "type": "Smaller Centre", "id": 19, "Longitude": 16.2, "label": "Knin"}, {"Internal": 1, "Latitude": 43.5125, "Country": "Croatia", "type": "Smaller Centre", "id": 20, "Longitude": 16.25167, "label": "Trogic"}, {"Internal": 1, "Latitude": 43.34778, "Country": "Croatia", "type": "Smaller Centre", "id": 21, "Longitude": 16.73389, "label": "Pucisca"}, {"Internal": 1, "Latitude": 43.55, "Country": "Croatia", "type": "Smaller Centre", "id": 22, "Longitude": 16.5, "label": "Solin"}, {"Internal": 1, "Latitude": 43.72722, "Country": "Croatia", "type": "Smaller Centre", "id": 23, "Longitude": 15.90583, "label": "Sibenik"}, {"Internal": 1, "Latitude": 44.86833, "Country": "Croatia", "type": "Larger University Centre", "id": 24, "Longitude": 13.84806, "label": "Pula"}, {"Internal": 1, "Latitude": 44.53056, "Country": "Croatia", "type": "Smaller Centre", "id": 25, "Longitude": 14.46861, "label": "M. Losinj"}, {"Internal": 1, "Latitude": 45.34306, "Country": "Croatia", "type": "Larger University Centre", "id": 26, "Longitude": 14.40917, "label": "Rijeka"}, {"Internal": 1, "Latitude": 43.50891, "Country": "Croatia", "type": "Larger University Centre", "id": 27, "Longitude": 16.43915, "label": "Split"}, {"Internal": 1, "Latitude": 46.38444, "Country": "Croatia", "type": "Smaller Centre", "id": 28, "Longitude": 16.43389, "label": "Cakovec"}, {"Internal": 0, "id": 29, "label": "GEANT"}, {"Internal": 1, "Latitude": 44.54611, "Country": "Croatia", "type": "Smaller Centre", "id": 30, "Longitude": 15.37472, "label": "Gospic"}, {"Internal": 1, "Latitude": 44.86944, "Country": "Croatia", "type": "Smaller Centre", "id": 31, "Longitude": 15.2375, "label": "Otocac"}, {"Internal": 1, "Latitude": 45.28833, "Country": "Croatia", "type": "Smaller Centre", "id": 32, "Longitude": 18.80472, "label": "Vinkovci"}, {"Internal": 0, "id": 33, "label": "BIHarnet"}, {"Internal": 1, "Latitude": 45.34333, "Country": "Croatia", "type": "Smaller Centre", "id": 34, "Longitude": 18.99972, "label": "Vukovar"}, {"Internal": 1, "Latitude": 45.30833, "Country": "Croatia", "type": "Smaller Centre", "id": 35, "Longitude": 18.41056, "label": "Dakovo"}, {"Internal": 1, "Latitude": 45.81444, "Country": "Croatia", "type": "Larger University Centre", "id": 36, "Longitude": 15.97798, "label": "Zagreb"}, {"Internal": 1, "Latitude": 45.85639, "Country": "Croatia", "type": "Smaller Centre", "id": 37, "Longitude": 15.80778, "label": "Zabresic"}, {"Internal": 1, "Latitude": 45.80306, "Country": "Croatia", "type": "Smaller Centre", "id": 38, "Longitude": 15.71806, "label": "Samobor"}, {"Internal": 1, "Latitude": 46.30444, "Country": "Croatia", "type": "Smaller Centre", "id": 39, "Longitude": 16.33778, "label": "Varazdin"}, {"Internal": 1, "Latitude": 46.02194, "Country": "Croatia", "type": "Smaller Centre", "id": 40, "Longitude": 16.5425, "label": "Krizevci"}, {"Internal": 1, "Latitude": 45.89861, "Country": "Croatia", "type": "Smaller Centre", "id": 41, "Longitude": 16.84889, "label": "Bjelovar"}, {"Internal": 1, "Latitude": 45.83194, "Country": "Croatia", "type": "Smaller Centre", "id": 42, "Longitude": 17.38389, "label": "Virovitica"}, {"Internal": 1, "Latitude": 45.55111, "Country": "Croatia", "type": "Larger University Centre", "id": 43, "Longitude": 18.69389, "label": "Osijek"}], "links": [{"LinkSpeed": "100", "source": 0, "LinkLabel": "100Mb/s", "target": 36, "LinkSpeedUnits": "M", "LinkSpeedRaw": 100000000.0}, {"LinkSpeed": "10", "source": 1, "LinkLabel": "10Mb/s", "target": 36, "LinkSpeedUnits": "M", "LinkSpeedRaw": 10000000.0}, {"LinkSpeed": "100", "source": 2, "LinkLabel": "100Mb/s", "target": 43, "LinkSpeedUnits": "M", "LinkSpeedRaw": 100000000.0}, {"LinkSpeed": "100", "source": 3, "LinkLabel": "100Mb/s", "target": 43, "LinkSpeedUnits": "M", "LinkSpeedRaw": 100000000.0}, {"LinkSpeed": "1", "source": 4, "LinkLabel": "1Gb/s", "target": 36, "LinkSpeedUnits": "G", "LinkSpeedRaw": 1000000000.0}, {"LinkSpeed": "100", "source": 5, "LinkLabel": "100Mb/s", "target": 36, "LinkSpeedUnits": "M", "LinkSpeedRaw": 100000000.0}, {"LinkSpeed": "100", "source": 6, "LinkLabel": "100Mb/s", "target": 36, "LinkSpeedUnits": "M", "LinkSpeedRaw": 100000000.0}, {"LinkSpeed": "2", "source": 6, "LinkLabel": "2Mb/s", "target": 7, "LinkSpeedUnits": "M", "LinkSpeedRaw": 2000000.0}, {"LinkSpeed": "2", "source": 8, "LinkLabel": "2Mb/s", "target": 36, "LinkSpeedUnits": "M", "LinkSpeedRaw": 2000000.0}, {"LinkSpeed": "10", "source": 9, "LinkLabel": "10Gb/s", "target": 36, "LinkSpeedUnits": "G", "LinkSpeedRaw": 10000000000.0}, {"LinkSpeed": "2", "source": 10, "LinkLabel": "2Mb/s", "target": 27, "LinkSpeedUnits": "M", "LinkSpeedRaw": 2000000.0}, {"LinkSpeed": "200", "source": 11, "LinkLabel": "200Mb/s", "target": 27, "LinkSpeedUnits": "M", "LinkSpeedRaw": 200000000.0}, {"LinkSpeed": "100", "source": 12, "LinkLabel": "100Mb/s", "target": 24, "LinkSpeedUnits": "M", "LinkSpeedRaw": 100000000.0}, {"LinkSpeed": "100", "source": 13, "LinkLabel": "100Mb/s", "target": 26, "LinkSpeedUnits": "M", "LinkSpeedRaw": 100000000.0}, {"LinkSpeed": "100", "source": 14, "LinkLabel": "100Mb/s", "target": 26, "LinkSpeedUnits": "M", "LinkSpeedRaw": 100000000.0}, {"LinkSpeed": "100", "source": 15, "LinkLabel": "100Mb/s", "target": 26, "LinkSpeedUnits": "M", "LinkSpeedRaw": 100000000.0}, {"LinkSpeed": "100", "source": 16, "LinkLabel": "100Mb/s", "target": 26, "LinkSpeedUnits": "M", "LinkSpeedRaw": 100000000.0}, {"LinkSpeed": "4", "source": 17, "LinkLabel": "4Mb/s", "target": 18, "LinkSpeedUnits": "M", "LinkSpeedRaw": 4000000.0}, {"LinkSpeed": "200", "source": 17, "LinkLabel": "200Mb/s", "target": 27, "LinkSpeedUnits": "M", "LinkSpeedRaw": 200000000.0}, {"LinkSpeed": "100", "source": 19, "LinkLabel": "100Mb/s", "target": 27, "LinkSpeedUnits": "M", "LinkSpeedRaw": 100000000.0}, {"LinkSpeed": "4", "source": 20, "LinkLabel": "4Mb/s", "target": 27, "LinkSpeedUnits": "M", "LinkSpeedRaw": 4000000.0}, {"LinkSpeed": "2", "source": 21, "LinkLabel": "2Mb/s", "target": 27, "LinkSpeedUnits": "M", "LinkSpeedRaw": 2000000.0}, {"LinkSpeed": "2", "source": 22, "LinkLabel": "2Mb/s", "target": 27, "LinkSpeedUnits": "M", "LinkSpeedRaw": 2000000.0}, {"LinkSpeed": "100", "source": 23, "LinkLabel": "100 Mb/s", "target": 27, "LinkSpeedUnits": "M", "LinkSpeedRaw": 100000000.0}, {"LinkSpeed": "1", "source": 24, "LinkLabel": "1Gb/s", "target": 26, "LinkSpeedUnits": "G", "LinkSpeedRaw": 1000000000.0}, {"LinkSpeed": "2", "source": 25, "LinkLabel": "2Mb/s", "target": 26, "LinkSpeedUnits": "M", "LinkSpeedRaw": 2000000.0}, {"LinkSpeed": "1", "source": 26, "LinkLabel": "1Gb/s", "target": 36, "LinkSpeedUnits": "G", "LinkSpeedRaw": 1000000000.0}, {"LinkSpeed": "2", "source": 26, "LinkLabel": "2Mb/s", "target": 30, "LinkSpeedUnits": "M", "LinkSpeedRaw": 2000000.0}, {"LinkSpeed": "2", "source": 26, "LinkLabel": "2Mb/s", "target": 31, "LinkSpeedUnits": "M", "LinkSpeedRaw": 2000000.0}, {"LinkSpeed": "1", "source": 27, "LinkLabel": "1Gb/s", "target": 36, "LinkSpeedUnits": "G", "LinkSpeedRaw": 1000000000.0}, {"LinkSpeed": "4", "source": 28, "LinkLabel": "4Mb/s", "target": 39, "LinkSpeedUnits": "M", "LinkSpeedRaw": 4000000.0}, {"LinkSpeed": "10", "source": 29, "LinkLabel": "10Gb/s", "target": 36, "LinkSpeedUnits": "G", "LinkSpeedRaw": 10000000000.0}, {"LinkSpeed": "2", "source": 32, "LinkLabel": "2 Mb/s", "target": 34, "LinkSpeedUnits": "M", "LinkSpeedRaw": 2000000.0}, {"LinkSpeed": "155", "source": 33, "LinkLabel": "155Mb/s", "target": 36, "LinkSpeedUnits": "M", "LinkSpeedRaw": 155000000.0}, {"LinkSpeed": "6", "source": 34, "LinkLabel": "6Mb/s", "target": 43, "LinkSpeedUnits": "M", "LinkSpeedRaw": 6000000.0}, {"LinkSpeed": "2", "source": 35, "LinkLabel": "2Mb/s", "target": 43, "LinkSpeedUnits": "M", "LinkSpeedRaw": 2000000.0}, {"LinkSpeed": "2", "source": 36, "LinkLabel": "2Mb/s", "target": 42, "LinkSpeedUnits": "M", "LinkSpeedRaw": 2000000.0}, {"LinkSpeed": "1", "source": 36, "LinkLabel": "1 Gb/s", "target": 43, "LinkSpeedUnits": "G", "LinkSpeedRaw": 1000000000.0}, {"LinkSpeed": "4", "source": 36, "LinkLabel": "4Mb/s", "target": 38, "LinkSpeedUnits": "M", "LinkSpeedRaw": 4000000.0}, {"LinkSpeed": "4", "source": 36, "LinkLabel": "4Mb/s", "target": 40, "LinkSpeedUnits": "M", "LinkSpeedRaw": 4000000.0}, {"LinkSpeed": "100", "source": 36, "LinkLabel": "100Mb/s", "target": 41, "LinkSpeedUnits": "M", "LinkSpeedRaw": 100000000.0}, {"LinkSpeed": "1", "source": 36, "LinkLabel": "1Gb/s", "target": 39, "LinkSpeedUnits": "G", "LinkSpeedRaw": 1000000000.0}, {"LinkSpeed": "4", "source": 36, "LinkLabel": "4Mb/s", "target": 37, "LinkSpeedUnits": "M", "LinkSpeedRaw": 4000000.0}], "multigraph": true}