{"directed": false, "graph": [["DateObtained", "20/01/11"], ["GeoLocation", "Czech Republic"], ["GeoExtent", "Country"], ["DateModifier", "="], ["Customer", 0], ["Network", "CESNET"], ["IX", 0], ["Provenance", "Secondary"], ["Note", "Praha to Rez assumed as 10M also."], ["Source", "http://replay.waybackmachine.org/20030407110554/http://www.cesnet.cz/provoz/img/cesnet2-topo.gif"], ["Version", "1.0"], ["DateMonth", "04"], ["DateYear", "2003"], ["DateType", "Historic"], ["LastAccess", "20/01/11"], ["Access", 0], ["Layer", "IP"], ["Creator", "Topology Zoo Toolset"], ["Type", "REN"], ["SourceGitVersion", "e278b1b"], ["Backbone", 1], ["Commercial", 0], ["NetworkDate", "2003_04"], ["label", "Cesnet200304"], ["LastProcessed", "2011_09_01"], ["Testbed", 1], ["Developed", 1], ["ToolsetVersion", "0.3.34dev-20120328"], ["Transit", 1]], "nodes": [{"Internal": 1, "Latitude": 50.20923, "Country": "Czech Republic", "id": 0, "Longitude": 15.83277, "label": "Hradec Kralove"}, {"Internal": 1, "Latitude": 49.90436, "Country": "Czech Republic", "id": 1, "Longitude": 16.44413, "label": "Ceska Trebova"}, {"Internal": 1, "Latitude": 49.14404, "Country": "Czech Republic", "id": 2, "Longitude": 15.00301, "label": "Jindrichuv Hradec"}, {"Internal": 1, "Latitude": 50.04075, "Country": "Czech Republic", "id": 3, "Longitude": 15.77659, "label": "Pardubice"}, {"Internal": 1, "Latitude": 49.27747, "Country": "Czech Republic", "id": 4, "Longitude": 16.99897, "label": "Vyskov"}, {"Internal": 1, "Latitude": 49.21667, "Country": "Czech Republic", "id": 5, "Longitude": 17.66667, "label": "Zlin"}, {"Internal": 1, "Latitude": 49.59552, "Country": "Czech Republic", "id": 6, "Longitude": 17.25175, "label": "Olomouc"}, {"Internal": 1, "Latitude": 49.19522, "Country": "Czech Republic", "id": 7, "Longitude": 16.60796, "label": "Brno"}, {"Internal": 1, "Latitude": 48.75897, "Country": "Czech Republic", "id": 8, "Longitude": 16.88203, "label": "Breclav,Lednice"}, {"Internal": 1, "Latitude": 49.83465, "Country": "Czech Republic", "id": 9, "Longitude": 18.28204, "label": "Ostrava"}, {"Internal": 1, "Latitude": 49.99403, "Country": "Czech Republic", "id": 10, "Longitude": 14.85922, "label": "Kostelec n C.L"}, {"Internal": 1, "Latitude": 49.00364, "Country": "Czech Republic", "id": 11, "Longitude": 14.77065, "label": "Trebon"}, {"Internal": 0, "id": 12, "label": "GEANT"}, {"Internal": 1, "Latitude": 49.93866, "Country": "Czech Republic", "id": 13, "Longitude": 17.90257, "label": "Opava"}, {"Internal": 1, "Latitude": 49.84452, "Country": "Czech Republic", "id": 14, "Longitude": 18.49166, "label": "Karvina"}, {"Internal": 1, "Latitude": 49.94839, "Country": "Czech Republic", "id": 15, "Longitude": 15.26816, "label": "Kutna Hora"}, {"Internal": 1, "Latitude": 50.17734, "Country": "Czech Republic", "id": 16, "Longitude": 14.35733, "label": "Rez"}, {"Internal": 1, "Latitude": 49.41441, "Country": "Czech Republic", "id": 17, "Longitude": 14.6578, "label": "Tabor"}, {"Internal": 1, "Latitude": 49.3088, "Country": "Czech Republic", "id": 18, "Longitude": 14.1475, "label": "Pisek"}, {"Internal": 0, "id": 19, "label": "NIX"}, {"Internal": 0, "id": 20, "label": "USA"}, {"Internal": 1, "Latitude": 50.07963, "Country": "Czech Republic", "id": 21, "Longitude": 12.37392, "label": "Cheb"}, {"Internal": 1, "Latitude": 49.74747, "Country": "Czech Republic", "id": 22, "Longitude": 13.37759, "label": "Plzen"}, {"Internal": 1, "Latitude": 50.78215, "Country": "Czech Republic", "id": 23, "Longitude": 14.21478, "label": "Decin"}, {"Internal": 1, "Latitude": 50.6607, "Country": "Czech Republic", "id": 24, "Longitude": 14.03227, "label": "Usti nad Labem"}, {"Internal": 1, "Latitude": 50.08804, "Country": "Czech Republic", "id": 25, "Longitude": 14.42076, "label": "Praha"}, {"Internal": 1, "Latitude": 50.76711, "Country": "Czech Republic", "id": 26, "Longitude": 15.05619, "label": "Liberec"}, {"Internal": 1, "Latitude": 50.14242, "Country": "Czech Republic", "id": 27, "Longitude": 15.11881, "label": "Podebrady"}, {"Internal": 1, "Latitude": 48.97447, "Country": "Czech Republic", "id": 28, "Longitude": 14.47434, "label": "Ceske Budejovice"}], "links": [{"source": 0, "id": "e24", "target": 1}, {"LinkSpeed": "2.5", "source": 0, "LinkLabel": "2.5G", "target": 26, "LinkSpeedUnits": "G", "LinkSpeedRaw": 2500000000.0}, {"source": 0, "id": "e21", "target": 3}, {"LinkSpeed": "2.5", "source": 0, "LinkLabel": "2.5G", "target": 9, "LinkSpeedUnits": "G", "LinkSpeedRaw": 2500000000.0}, {"LinkSpeed": "34", "source": 2, "LinkLabel": "34M", "target": 28, "LinkSpeedUnits": "M", "LinkSpeedRaw": 34000000.0}, {"LinkSpeed": "1", "source": 3, "LinkLabel": "1G", "target": 25, "LinkSpeedUnits": "G", "LinkSpeedRaw": 1000000000.0}, {"LinkSpeed": "10", "source": 3, "LinkLabel": "10M", "target": 15, "LinkSpeedUnits": "M", "LinkSpeedRaw": 10000000.0}, {"LinkSpeed": "34", "source": 4, "LinkLabel": "34M", "target": 7, "LinkSpeedUnits": "M", "LinkSpeedRaw": 34000000.0}, {"LinkSpeed": "1", "source": 5, "LinkLabel": "1G", "target": 6, "LinkSpeedUnits": "G", "LinkSpeedRaw": 1000000000.0}, {"LinkSpeed": "34", "source": 5, "LinkLabel": "34M", "target": 7, "LinkSpeedUnits": "M", "LinkSpeedRaw": 34000000.0}, {"LinkSpeed": "1", "source": 6, "LinkLabel": "1G", "target": 9, "LinkSpeedUnits": "G", "LinkSpeedRaw": 1000000000.0}, {"LinkSpeed": "2.5", "source": 6, "LinkLabel": "2.5G", "target": 7, "LinkSpeedUnits": "G", "LinkSpeedRaw": 2500000000.0}, {"LinkSpeed": "10", "source": 7, "LinkLabel": "10M", "target": 8, "LinkSpeedUnits": "M", "LinkSpeedRaw": 10000000.0}, {"LinkSpeed": "2.5", "source": 7, "LinkLabel": "2.5G", "target": 25, "LinkSpeedUnits": "G", "LinkSpeedRaw": 2500000000.0}, {"LinkSpeed": "2.5", "source": 7, "LinkLabel": "2.5G", "target": 28, "LinkSpeedUnits": "G", "LinkSpeedRaw": 2500000000.0}, {"LinkSpeed": "34", "source": 9, "LinkLabel": "34M", "target": 14, "LinkSpeedUnits": "M", "LinkSpeedRaw": 34000000.0}, {"LinkSpeed": "34", "source": 9, "LinkLabel": "34M", "target": 13, "LinkSpeedUnits": "M", "LinkSpeedRaw": 34000000.0}, {"LinkSpeed": "10", "source": 10, "LinkLabel": "10M", "target": 27, "LinkSpeedUnits": "M", "LinkSpeedRaw": 10000000.0}, {"source": 11, "id": "e20", "target": 28}, {"LinkSpeed": "12", "source": 12, "LinkLabel": "12G", "target": 25, "LinkSpeedUnits": "G", "LinkSpeedRaw": 12000000000.0}, {"source": 16, "id": "e14", "target": 25}, {"LinkSpeed": "10", "source": 17, "LinkLabel": "10M", "target": 25, "LinkSpeedUnits": "M", "LinkSpeedRaw": 10000000.0}, {"LinkSpeed": "10", "source": 18, "LinkLabel": "10M", "target": 28, "LinkSpeedUnits": "M", "LinkSpeedRaw": 10000000.0}, {"LinkSpeed": "1", "source": 19, "LinkLabel": "1G", "target": 25, "LinkSpeedUnits": "G", "LinkSpeedRaw": 1000000000.0}, {"LinkSpeed": "622", "source": 20, "LinkLabel": "622M", "target": 25, "LinkSpeedUnits": "M", "LinkSpeedRaw": 622000000.0}, {"LinkSpeed": "34", "source": 21, "LinkLabel": "34M", "target": 22, "LinkSpeedUnits": "M", "LinkSpeedRaw": 34000000.0}, {"LinkSpeed": "34", "source": 22, "LinkLabel": "34M", "target": 24, "LinkSpeedUnits": "M", "LinkSpeedRaw": 34000000.0}, {"LinkSpeed": "2.5", "source": 22, "LinkLabel": "2.5G", "target": 25, "LinkSpeedUnits": "G", "LinkSpeedRaw": 2500000000.0}, {"LinkSpeed": "34", "source": 23, "LinkLabel": "34M", "target": 24, "LinkSpeedUnits": "M", "LinkSpeedRaw": 34000000.0}, {"LinkSpeed": "1", "source": 24, "LinkLabel": "1G", "target": 25, "LinkSpeedUnits": "G", "LinkSpeedRaw": 1000000000.0}, {"LinkSpeed": "2.5", "source": 25, "LinkLabel": "2.5G", "target": 26, "LinkSpeedUnits": "G", "LinkSpeedRaw": 2500000000.0}, {"LinkSpeed": "10", "source": 25, "LinkLabel": "10M", "target": 27, "LinkSpeedUnits": "M", "LinkSpeedRaw": 10000000.0}, {"LinkSpeed": "2.5", "source": 25, "LinkLabel": "2.5G", "target": 28, "LinkSpeedUnits": "G", "LinkSpeedRaw": 2500000000.0}], "multigraph": true}