{"directed": false, "graph": [["DateObtained", "14/02/11"], ["GeoLocation", "Czech Republic"], ["GeoExtent", "Country"], ["DateModifier", "="], ["Customer", 0], ["Network", "CESNET"], ["IX", 0], ["Provenance", "Primary"], ["Note", "Letohrad found using http://czechlight.cesnet.cz/export/sites/default/publications/network-architecture/2009/sima.pdf"], ["Source", "http://www.cesnet.cz/provoz/img/cesnet2-topo.pdf"], ["Version", "1.0"], ["DateMonth", "06"], ["DateYear", "2010"], ["DateType", "Historic"], ["LastAccess", "14/02/11"], ["Access", 0], ["Layer", "IP"], ["Creator", "Topology Zoo Toolset"], ["Type", "REN"], ["SourceGitVersion", "e278b1b"], ["Backbone", 1], ["Commercial", 0], ["NetworkDate", "2010_06"], ["label", "Cesnet201006"], ["LastProcessed", "2011_09_01"], ["Testbed", 1], ["Developed", 1], ["ToolsetVersion", "0.3.34dev-20120328"], ["Transit", 1]], "nodes": [{"Internal": 1, "Latitude": 50.20923, "Country": "Czech Republic", "type": "Orange Node", "id": 0, "Longitude": 15.83277, "label": "Hradec Kralove"}, {"Internal": 1, "Latitude": 49.90436, "Country": "Czech Republic", "type": "Dark Blue Node", "id": 1, "Longitude": 16.44413, "label": "Ceska Trebova"}, {"Internal": 1, "Latitude": 49.14404, "Country": "Czech Republic", "type": "Orange Node", "id": 2, "Longitude": 15.00301, "label": "Jindrichuv Hradec"}, {"Internal": 1, "Latitude": 50.04075, "Country": "Czech Republic", "type": "Orange Node", "id": 3, "Longitude": 15.77659, "label": "Pardubice"}, {"Internal": 1, "Latitude": 49.27747, "Country": "Czech Republic", "type": "Dark Blue Node", "id": 4, "Longitude": 16.99897, "label": "Vyskov"}, {"Internal": 1, "Latitude": 49.21667, "Country": "Czech Republic", "type": "Orange Node", "id": 5, "Longitude": 17.66667, "label": "Zlin"}, {"Internal": 1, "Latitude": 49.59552, "Country": "Czech Republic", "type": "Orange Node", "id": 6, "Longitude": 17.25175, "label": "Olomouc"}, {"Internal": 1, "Latitude": 49.19522, "Country": "Czech Republic", "type": "Orange Node", "id": 7, "Longitude": 16.60796, "label": "Brno"}, {"Internal": 1, "Latitude": 48.75897, "Country": "Czech Republic", "type": "Light Blue Node", "id": 8, "Longitude": 16.88203, "label": "Breclav,Lednice"}, {"Internal": 1, "Latitude": 49.83465, "Country": "Czech Republic", "type": "Orange Node", "id": 9, "Longitude": 18.28204, "label": "Ostrava"}, {"Internal": 1, "Latitude": 50.58356, "Country": "Czech Republic", "type": "Black Node", "id": 10, "Longitude": 15.15186, "label": "Turnov"}, {"Internal": 1, "Latitude": 50.0358, "Country": "Czech Republic", "type": "Orange Node", "id": 11, "Longitude": 16.49879, "label": "Letohrad"}, {"Internal": 0, "id": 12, "label": "PIONIER"}, {"Internal": 0, "id": 13, "label": "ACONET"}, {"Internal": 1, "Latitude": 49.96382, "Country": "Czech Republic", "type": "Black Node", "id": 14, "Longitude": 14.072, "label": "Beroun"}, {"Internal": 1, "Latitude": 49.96459, "Country": "Czech Republic", "type": "Black Node", "id": 15, "Longitude": 12.70118, "label": "Marlanske Lazne"}, {"Internal": 1, "Latitude": 50.50301, "Country": "Czech Republic", "type": "Orange Node", "id": 16, "Longitude": 13.63617, "label": "Most"}, {"Internal": 1, "Latitude": 50.43172, "Country": "Czech Republic", "type": "Black Node", "id": 17, "Longitude": 15.81402, "label": "Dvur Kralove"}, {"Internal": 1, "Latitude": 50.08967, "Country": "Czech Republic", "type": "Black Node", "id": 18, "Longitude": 17.70385, "label": "Krnov"}, {"Internal": 1, "Latitude": 49.01018, "Country": "Czech Republic", "type": "Orange Node", "id": 19, "Longitude": 17.12253, "label": "Kyjov"}, {"Internal": 1, "Latitude": 49.3961, "Country": "Czech Republic", "type": "Orange Node", "id": 20, "Longitude": 15.59124, "label": "Jihlava"}, {"Internal": 0, "id": 21, "label": "SANET"}, {"Internal": 1, "Latitude": 48.86667, "Country": "Czech Republic", "type": "Dark Blue Node", "id": 22, "Longitude": 14.0889, "label": "Ondrejov"}, {"Internal": 1, "Latitude": 49.54152, "Country": "Czech Republic", "type": "Light Blue Node", "id": 23, "Longitude": 15.35932, "label": "Humpolec"}, {"Internal": 1, "Latitude": 50.72431, "Country": "Czech Republic", "type": "Light Blue Node", "id": 24, "Longitude": 15.17108, "label": "Jablonec n N"}, {"Internal": 1, "Latitude": 49.86809, "Country": "Czech Republic", "type": "Black Node", "id": 25, "Longitude": 16.31298, "label": "Litomysl"}, {"Internal": 1, "Latitude": 49.06975, "Country": "Czech Republic", "type": "Dark Blue Node", "id": 26, "Longitude": 17.45969, "label": "Uherske Hradiste"}, {"Internal": 1, "Latitude": 49.47188, "Country": "Czech Republic", "type": "Light Blue Node", "id": 27, "Longitude": 17.11184, "label": "Prostejov"}, {"Internal": 1, "Latitude": 49.14789, "Country": "Czech Republic", "type": "Black Node", "id": 28, "Longitude": 14.17513, "label": "Vodnany"}, {"Internal": 0, "id": 29, "label": "AMS-IX"}, {"Internal": 1, "Latitude": 48.8555, "Country": "Czech Republic", "type": "Dark Blue Node", "id": 30, "Longitude": 16.0488, "label": "Znojmo"}, {"Internal": 1, "Latitude": 48.78963, "Country": "Czech Republic", "type": "Light Blue Node", "id": 31, "Longitude": 14.77839, "label": "Nove Hrady"}, {"Internal": 1, "Latitude": 49.18418, "Country": "Czech Republic", "type": "Light Blue Node", "id": 32, "Longitude": 15.45275, "label": "Telc"}, {"Internal": 1, "Latitude": 49.99403, "Country": "Czech Republic", "type": "Black Node", "id": 33, "Longitude": 14.85922, "label": "Kostelec n C.L"}, {"Internal": 1, "Latitude": 49.00364, "Country": "Czech Republic", "type": "Black Node", "id": 34, "Longitude": 14.77065, "label": "Trebon"}, {"Internal": 0, "id": 35, "label": "GEANT"}, {"Internal": 1, "Latitude": 49.93866, "Country": "Czech Republic", "type": "Orange Node", "id": 36, "Longitude": 17.90257, "label": "Opava"}, {"Internal": 1, "Latitude": 49.84452, "Country": "Czech Republic", "type": "Orange Node", "id": 37, "Longitude": 18.49166, "label": "Karvina"}, {"Internal": 1, "Latitude": 49.94839, "Country": "Czech Republic", "type": "Light Blue Node", "id": 38, "Longitude": 15.26816, "label": "Kutna Hora"}, {"Internal": 1, "Latitude": 50.17734, "Country": "Czech Republic", "type": "Dark Blue Node", "id": 39, "Longitude": 14.35733, "label": "Rez"}, {"Internal": 1, "Latitude": 49.41441, "Country": "Czech Republic", "type": "Black Node", "id": 40, "Longitude": 14.6578, "label": "Tabor"}, {"Internal": 1, "Latitude": 49.3088, "Country": "Czech Republic", "type": "Light Blue Node", "id": 41, "Longitude": 14.1475, "label": "Pisek"}, {"Internal": 0, "id": 42, "label": "NIX"}, {"Internal": 0, "id": 43, "label": "Internet"}, {"Internal": 1, "Latitude": 50.07963, "Country": "Czech Republic", "type": "Orange Node", "id": 44, "Longitude": 12.37392, "label": "Cheb"}, {"Internal": 1, "Latitude": 49.74747, "Country": "Czech Republic", "type": "Orange Node", "id": 45, "Longitude": 13.37759, "label": "Plzen"}, {"Internal": 1, "Latitude": 50.78215, "Country": "Czech Republic", "type": "Orange Node", "id": 46, "Longitude": 14.21478, "label": "Decin"}, {"Internal": 1, "Latitude": 50.6607, "Country": "Czech Republic", "type": "Orange Node", "id": 47, "Longitude": 14.03227, "label": "Usti nad Labem"}, {"Internal": 1, "Latitude": 50.08804, "Country": "Czech Republic", "type": "Orange Node", "id": 48, "Longitude": 14.42076, "label": "Praha"}, {"Internal": 1, "Latitude": 50.76711, "Country": "Czech Republic", "type": "Orange Node", "id": 49, "Longitude": 15.05619, "label": "Liberec"}, {"Internal": 1, "Latitude": 50.14242, "Country": "Czech Republic", "type": "Light Blue Node", "id": 50, "Longitude": 15.11881, "label": "Podebrady"}, {"Internal": 1, "Latitude": 48.97447, "Country": "Czech Republic", "type": "Orange Node", "id": 51, "Longitude": 14.47434, "label": "Ceske Budejovice"}], "links": [{"source": 0, "LinkLabel": "DWDM", "target": 48}, {"source": 0, "LinkLabel": "< 100 Mb/s", "target": 17}, {"source": 0, "LinkLabel": "DWDM", "target": 3}, {"source": 0, "LinkLabel": "DWDM", "target": 11}, {"source": 0, "LinkLabel": "DWDM", "target": 49}, {"source": 1, "LinkLabel": "1-2.5 Gb/s", "target": 11}, {"source": 2, "LinkLabel": "DWDM", "target": 51}, {"source": 2, "LinkLabel": "DWDM", "target": 20}, {"source": 3, "LinkLabel": "< 100 Mb/s", "target": 25}, {"LinkSpeed": "100", "source": 3, "LinkLabel": "100 Mb/s", "target": 38, "LinkSpeedUnits": "M", "LinkSpeedRaw": 100000000.0}, {"source": 3, "LinkLabel": "DWDM", "target": 48}, {"source": 4, "LinkLabel": "1-2.5 Gb/s", "target": 7}, {"source": 5, "LinkLabel": "1-2.5 Gb/s", "target": 26}, {"source": 5, "LinkLabel": "DWDM", "target": 6}, {"source": 5, "LinkLabel": "DWDM", "target": 7}, {"source": 6, "LinkLabel": "DWDM", "target": 9}, {"source": 6, "LinkLabel": "DWDM", "target": 11}, {"source": 6, "LinkLabel": "DWDM", "target": 7}, {"LinkSpeed": "100", "source": 7, "LinkLabel": "100 Mb/s", "target": 32, "LinkSpeedUnits": "M", "LinkSpeedRaw": 100000000.0}, {"LinkSpeed": "100", "source": 7, "LinkLabel": "100 Mb/s", "target": 8, "LinkSpeedUnits": "M", "LinkSpeedRaw": 100000000.0}, {"source": 7, "LinkLabel": "DWDM", "target": 9}, {"source": 7, "LinkLabel": "DWDM", "target": 13}, {"source": 7, "LinkLabel": "DWDM", "target": 48}, {"source": 7, "LinkLabel": "DWDM", "target": 19}, {"source": 7, "LinkLabel": "DWDM", "target": 20}, {"source": 7, "LinkLabel": "DWDM", "target": 21}, {"LinkSpeed": "100", "source": 7, "LinkLabel": "100 Mb/s", "target": 23, "LinkSpeedUnits": "M", "LinkSpeedRaw": 100000000.0}, {"source": 7, "LinkLabel": "< 100 Mb/s", "target": 27}, {"source": 9, "LinkLabel": "DWDM", "target": 36}, {"source": 9, "LinkLabel": "DWDM", "target": 12}, {"source": 9, "LinkLabel": "DWDM", "target": 37}, {"source": 10, "LinkLabel": "< 100 Mb/s", "target": 49}, {"source": 11, "LinkLabel": "DWDM", "target": 36}, {"source": 14, "LinkLabel": "< 100 Mb/s", "target": 48}, {"source": 15, "LinkLabel": "< 100 Mb/s", "target": 48}, {"source": 15, "LinkLabel": "DWDM", "target": 44}, {"source": 15, "LinkLabel": "DWDM", "target": 45}, {"source": 16, "LinkLabel": "DWDM", "target": 44}, {"source": 16, "LinkLabel": "DWDM", "target": 46}, {"source": 16, "LinkLabel": "DWDM", "target": 47}, {"source": 18, "LinkLabel": "< 100 Mb/s", "target": 36}, {"source": 20, "LinkLabel": "1-2.5 Gb/s", "target": 30}, {"LinkSpeed": "10", "source": 22, "LinkLabel": "10 Gb/s", "target": 48, "LinkSpeedUnits": "G", "LinkSpeedRaw": 10000000000.0}, {"LinkSpeed": "100", "source": 24, "LinkLabel": "100 Mb/s", "target": 49, "LinkSpeedUnits": "M", "LinkSpeedRaw": 100000000.0}, {"source": 28, "LinkLabel": "< 100 Mb/s", "target": 51}, {"source": 29, "LinkLabel": "1-2.5 Gb/s", "target": 48}, {"LinkSpeed": "100", "source": 31, "LinkLabel": "100 Mb/s", "target": 51, "LinkSpeedUnits": "M", "LinkSpeedRaw": 100000000.0}, {"source": 33, "LinkLabel": "< 100 Mb/s", "target": 48}, {"source": 34, "LinkLabel": "< 100 Mb/s", "target": 51}, {"LinkSpeed": "10", "source": 35, "LinkLabel": "10 Gb/s", "target": 48, "LinkSpeedUnits": "G", "LinkSpeedRaw": 10000000000.0}, {"source": 39, "LinkLabel": "1-2.5 Gb/s", "target": 48}, {"source": 40, "LinkLabel": "< 100 Mb/s", "target": 48}, {"LinkSpeed": "100", "source": 41, "LinkLabel": "100 Mb/s", "target": 48, "LinkSpeedUnits": "M", "LinkSpeedRaw": 100000000.0}, {"LinkSpeed": "10", "source": 42, "LinkLabel": "10 Gb/s", "target": 48, "LinkSpeedUnits": "G", "LinkSpeedRaw": 10000000000.0}, {"source": 43, "LinkLabel": "1-2.5 Gb/s", "target": 48}, {"source": 45, "LinkLabel": "DWDM", "target": 48}, {"source": 45, "LinkLabel": "DWDM", "target": 51}, {"source": 46, "LinkLabel": "DWDM", "target": 47}, {"source": 47, "LinkLabel": "DWDM", "target": 48}, {"source": 47, "LinkLabel": "DWDM", "target": 49}, {"source": 48, "LinkLabel": "DWDM", "target": 49}, {"source": 48, "LinkLabel": "DWDM", "target": 51}, {"LinkSpeed": "100", "source": 48, "LinkLabel": "100 Mb/s", "target": 50, "LinkSpeedUnits": "M", "LinkSpeedRaw": 100000000.0}], "multigraph": true}