{"directed": false, "graph": [["DateObtained", "20/01/11"], ["GeoLocation", "Czech Republic"], ["GeoExtent", "Country"], ["DateModifier", "="], ["Customer", 0], ["Network", "CESNET"], ["IX", 0], ["Provenance", "Secondary"], ["Access", 0], ["Source", "http://replay.waybackmachine.org/20060331043450/http://www.cesnet.cz/provoz/img/cesnet2-topo.pdf"], ["Version", "1.0"], ["DateMonth", "03"], ["DateYear", "2006"], ["DateType", "Historic"], ["LastAccess", "20/01/11"], ["Layer", "IP"], ["Creator", "Topology Zoo Toolset"], ["Type", "REN"], ["SourceGitVersion", "e278b1b"], ["Backbone", 1], ["Commercial", 0], ["NetworkDate", "2006_03"], ["label", "Cesnet200603"], ["LastProcessed", "2011_09_01"], ["Testbed", 1], ["Developed", 1], ["ToolsetVersion", "0.3.34dev-20120328"], ["Transit", 1]], "nodes": [{"Internal": 1, "Latitude": 50.20923, "Country": "Czech Republic", "id": 0, "Longitude": 15.83277, "label": "Hradec Kralove"}, {"Internal": 1, "Latitude": 49.90436, "Country": "Czech Republic", "id": 1, "Longitude": 16.44413, "label": "Ceska Trebova"}, {"Internal": 1, "Latitude": 49.14404, "Country": "Czech Republic", "id": 2, "Longitude": 15.00301, "label": "Jindrichuv Hradec"}, {"Internal": 1, "Latitude": 50.04075, "Country": "Czech Republic", "id": 3, "Longitude": 15.77659, "label": "Pardubice"}, {"Internal": 1, "Latitude": 49.27747, "Country": "Czech Republic", "id": 4, "Longitude": 16.99897, "label": "Vyskov"}, {"Internal": 1, "Latitude": 49.21667, "Country": "Czech Republic", "id": 5, "Longitude": 17.66667, "label": "Zlin"}, {"Internal": 1, "Latitude": 49.59552, "Country": "Czech Republic", "id": 6, "Longitude": 17.25175, "label": "Olomouc"}, {"Internal": 1, "Latitude": 49.19522, "Country": "Czech Republic", "id": 7, "Longitude": 16.60796, "label": "Brno"}, {"Internal": 1, "Latitude": 48.75897, "Country": "Czech Republic", "id": 8, "Longitude": 16.88203, "label": "Breclav,Lednice"}, {"Internal": 1, "Latitude": 49.83465, "Country": "Czech Republic", "id": 9, "Longitude": 18.28204, "label": "Ostrava"}, {"Internal": 0, "id": 10, "label": "PIONIER"}, {"Internal": 1, "Latitude": 49.96382, "Country": "Czech Republic", "id": 11, "Longitude": 14.072, "label": "Beroun"}, {"Internal": 1, "Latitude": 49.96459, "Country": "Czech Republic", "id": 12, "Longitude": 12.70118, "label": "Marlanske Lazne"}, {"Internal": 1, "Latitude": 50.50301, "Country": "Czech Republic", "id": 13, "Longitude": 13.63617, "label": "Most"}, {"Internal": 1, "Latitude": 50.43172, "Country": "Czech Republic", "id": 14, "Longitude": 15.81402, "label": "Dvur Kralove"}, {"Internal": 1, "Latitude": 50.08967, "Country": "Czech Republic", "id": 15, "Longitude": 17.70385, "label": "Krnov"}, {"Internal": 1, "Latitude": 49.01018, "Country": "Czech Republic", "id": 16, "Longitude": 17.12253, "label": "Kyjov"}, {"Internal": 1, "Latitude": 49.3961, "Country": "Czech Republic", "id": 17, "Longitude": 15.59124, "label": "Jihlava"}, {"Internal": 0, "id": 18, "label": "SANET"}, {"Internal": 1, "Latitude": 49.18418, "Country": "Czech Republic", "id": 19, "Longitude": 15.45275, "label": "Telc"}, {"Internal": 1, "Latitude": 49.99403, "Country": "Czech Republic", "id": 20, "Longitude": 14.85922, "label": "Kostelec n C.L"}, {"Internal": 1, "Latitude": 49.00364, "Country": "Czech Republic", "id": 21, "Longitude": 14.77065, "label": "Trebon"}, {"Internal": 0, "id": 22, "label": "GEANT"}, {"Internal": 1, "Latitude": 49.93866, "Country": "Czech Republic", "id": 23, "Longitude": 17.90257, "label": "Opava"}, {"Internal": 1, "Latitude": 49.84452, "Country": "Czech Republic", "id": 24, "Longitude": 18.49166, "label": "Karvina"}, {"Internal": 1, "Latitude": 49.94839, "Country": "Czech Republic", "id": 25, "Longitude": 15.26816, "label": "Kutna Hora"}, {"Internal": 1, "Latitude": 50.17734, "Country": "Czech Republic", "id": 26, "Longitude": 14.35733, "label": "Rez"}, {"Internal": 1, "Latitude": 49.41441, "Country": "Czech Republic", "id": 27, "Longitude": 14.6578, "label": "Tabor"}, {"Internal": 1, "Latitude": 49.3088, "Country": "Czech Republic", "id": 28, "Longitude": 14.1475, "label": "Pisek"}, {"Internal": 0, "id": 29, "label": "NIX"}, {"Internal": 0, "id": 30, "label": "Internet"}, {"Internal": 1, "Latitude": 50.07963, "Country": "Czech Republic", "id": 31, "Longitude": 12.37392, "label": "Cheb"}, {"Internal": 1, "Latitude": 49.74747, "Country": "Czech Republic", "id": 32, "Longitude": 13.37759, "label": "Plzen"}, {"Internal": 1, "Latitude": 50.78215, "Country": "Czech Republic", "id": 33, "Longitude": 14.21478, "label": "Decin"}, {"Internal": 1, "Latitude": 50.6607, "Country": "Czech Republic", "id": 34, "Longitude": 14.03227, "label": "Usti nad Labem"}, {"Internal": 1, "Latitude": 50.08804, "Country": "Czech Republic", "id": 35, "Longitude": 14.42076, "label": "Praha"}, {"Internal": 1, "Latitude": 50.76711, "Country": "Czech Republic", "id": 36, "Longitude": 15.05619, "label": "Liberec"}, {"Internal": 1, "Latitude": 50.14242, "Country": "Czech Republic", "id": 37, "Longitude": 15.11881, "label": "Podebrady"}, {"Internal": 1, "Latitude": 48.97447, "Country": "Czech Republic", "id": 38, "Longitude": 14.47434, "label": "Ceske Budejovice"}], "links": [{"source": 0, "LinkLabel": "10-34 Mb/s", "target": 1}, {"source": 0, "LinkLabel": "1-2.5 Gb/s", "target": 3}, {"source": 0, "LinkLabel": "1-2.5 Gb/s", "target": 36}, {"source": 0, "LinkLabel": "1-2.5 Gb/s", "target": 6}, {"source": 0, "LinkLabel": "10-34 Mb/s", "target": 14}, {"source": 0, "LinkLabel": "1-2.5 Gb/s", "target": 35}, {"LinkSpeed": "100", "source": 2, "LinkLabel": "100 Mb/s", "target": 38, "LinkSpeedUnits": "M", "LinkSpeedRaw": 100000000.0}, {"source": 3, "LinkLabel": "10-34 Mb/s", "target": 25}, {"source": 3, "LinkLabel": "1-2.5 Gb/s", "target": 35}, {"source": 3, "LinkLabel": "1-2.5 Gb/s", "target": 17}, {"source": 4, "LinkLabel": "10-34 Mb/s", "target": 7}, {"source": 5, "LinkLabel": "1-2.5 Gb/s", "target": 6}, {"source": 5, "LinkLabel": "1-2.5 Gb/s", "target": 7}, {"source": 6, "LinkLabel": "1-2.5 Gb/s", "target": 9}, {"source": 6, "LinkLabel": "1-2.5 Gb/s", "target": 7}, {"source": 7, "LinkLabel": "DWDM", "target": 35}, {"source": 7, "LinkLabel": "10-34 Mb/s", "target": 8}, {"source": 7, "LinkLabel": "1-2.5 Gb/s", "target": 9}, {"source": 7, "LinkLabel": "1-2.5 Gb/s", "target": 16}, {"source": 7, "LinkLabel": "1-2.5 Gb/s", "target": 18}, {"source": 7, "LinkLabel": "1-2.5 Gb/s", "target": 38}, {"LinkSpeed": "100", "source": 9, "LinkLabel": "100 Mb/s", "target": 24, "LinkSpeedUnits": "M", "LinkSpeedRaw": 100000000.0}, {"source": 9, "LinkLabel": "1-2.5 Gb/s", "target": 10}, {"LinkSpeed": "100", "source": 9, "LinkLabel": "100 Mb/s", "target": 23, "LinkSpeedUnits": "M", "LinkSpeedRaw": 100000000.0}, {"source": 11, "LinkLabel": "10-34 Mb/s", "target": 35}, {"source": 12, "LinkLabel": "10-34 Mb/s", "target": 35}, {"source": 13, "LinkLabel": "10-34 Mb/s", "target": 34}, {"source": 15, "LinkLabel": "10-34 Mb/s", "target": 23}, {"source": 17, "LinkLabel": "10-34 Mb/s", "target": 19}, {"source": 20, "LinkLabel": "10-34 Mb/s", "target": 37}, {"source": 21, "LinkLabel": "10-34 Mb/s", "target": 38}, {"source": 22, "LinkLabel": "1-2.5 Gb/s", "target": 35}, {"source": 26, "LinkLabel": "10-34 Mb/s", "target": 35}, {"source": 27, "LinkLabel": "10-34 Mb/s", "target": 35}, {"source": 28, "LinkLabel": "10-34 Mb/s", "target": 38}, {"LinkSpeed": "10", "source": 29, "LinkLabel": "10 Gb/s", "target": 35, "LinkSpeedUnits": "G", "LinkSpeedRaw": 10000000000.0}, {"LinkSpeed": "800", "source": 30, "LinkLabel": "800 Mb/s", "target": 35, "LinkSpeedUnits": "M", "LinkSpeedRaw": 800000000.0}, {"LinkSpeed": "100", "source": 31, "LinkLabel": "100 Mb/s", "target": 32, "LinkSpeedUnits": "M", "LinkSpeedRaw": 100000000.0}, {"source": 32, "LinkLabel": "1-2.5 Gb/s", "target": 35}, {"source": 32, "LinkLabel": "1-2.5 Gb/s", "target": 38}, {"LinkSpeed": "100", "source": 33, "LinkLabel": "100 Mb/s", "target": 34, "LinkSpeedUnits": "M", "LinkSpeedRaw": 100000000.0}, {"source": 34, "LinkLabel": "1-2.5 Gb/s", "target": 35}, {"source": 34, "LinkLabel": "1-2.5 Gb/s", "target": 36}, {"source": 35, "LinkLabel": "10-34 Mb/s", "target": 37}], "multigraph": true}