{"directed": false, "graph": [["DateObtained", "19/10/10"], ["GeoLocation", "Europe"], ["GeoExtent", "Continent"], ["DateModifier", "="], ["Customer", 1], ["Network", "Claranet"], ["IX", 0], ["Provenance", "Primary"], ["Note", "Technically, Access is provided by Claranet SOHO, a division of Claranet."], ["Source", "http://noc.eu.clara.net/"], ["Version", "1.0"], ["DateMonth", "08"], ["DateYear", "2010"], ["DateType", "Dynamic"], ["LastAccess", "3/08/10"], ["Access", 1], ["Layer", "IP"], ["Creator", "Topology Zoo Toolset"], ["Type", "COM"], ["SourceGitVersion", "e278b1b"], ["Backbone", 1], ["Commercial", 0], ["NetworkDate", "2010_08"], ["label", "Claranet"], ["LastProcessed", "2011_09_01"], ["Testbed", 0], ["Developed", 0], ["ToolsetVersion", "0.3.34dev-20120328"], ["Transit", 1]], "nodes": [{"Internal": 1, "Latitude": 37.01667, "Country": "Portugal", "id": 0, "Longitude": -7.93333, "label": "Faro"}, {"Internal": 1, "Latitude": 40.4165, "Country": "Spain", "id": 1, "Longitude": -3.70256, "label": "Madrid"}, {"Internal": 1, "Latitude": 41.15, "Country": "Portugal", "id": 2, "Longitude": -8.61667, "label": "Porto"}, {"Internal": 1, "Latitude": 38.71667, "Country": "Portugal", "id": 3, "Longitude": -9.13333, "label": "Lisbon"}, {"Internal": 1, "Latitude": 41.38879, "Country": "Spain", "id": 4, "Longitude": 2.15899, "label": "Barcelona"}, {"Internal": 1, "Latitude": 53.48095, "Country": "United Kingdom", "id": 5, "Longitude": -2.23743, "label": "Manchester"}, {"Internal": 1, "Latitude": 53.07897, "Country": "United Kingdom", "id": 6, "Longitude": -0.14008, "label": "New York"}, {"Internal": 1, "Latitude": 52.37403, "Country": "Netherlands", "id": 7, "Longitude": 4.88969, "label": "Amsterdam"}, {"Internal": 1, "Latitude": 51.44083, "Country": "Netherlands", "id": 8, "Longitude": 5.47778, "label": "Eindhoven"}, {"Internal": 1, "Latitude": 52.52437, "Country": "Germany", "id": 9, "Longitude": 13.41053, "label": "Berlin"}, {"Internal": 1, "Latitude": 50.11667, "Country": "Germany", "id": 10, "Longitude": 8.68333, "label": "Frankfurt"}, {"Internal": 1, "Latitude": 48.13743, "Country": "Germany", "id": 11, "Longitude": 11.57549, "label": "Munich"}, {"Internal": 1, "Latitude": 48.85341, "Country": "France", "id": 12, "Longitude": 2.3488, "label": "Paris"}, {"Internal": 1, "Latitude": 48.08333, "Country": "France", "id": 13, "Longitude": -1.68333, "label": "Rennes"}, {"Internal": 1, "Latitude": 51.50853, "Country": "United Kingdom", "id": 14, "Longitude": -0.12574, "label": "London"}], "links": [{"source": 0, "id": "e15", "target": 3}, {"source": 1, "id": "e16", "target": 3}, {"source": 1, "id": "e17", "target": 4}, {"source": 2, "id": "e14", "target": 3}, {"source": 3, "id": "e13", "target": 14}, {"source": 4, "id": "e8", "target": 12}, {"source": 5, "id": "e11", "target": 14}, {"source": 6, "id": "e12", "target": 14}, {"source": 7, "id": "e0", "target": 8}, {"source": 7, "id": "e1", "target": 10}, {"source": 7, "id": "e2", "target": 14}, {"source": 9, "id": "e3", "target": 10}, {"source": 9, "id": "e4", "target": 11}, {"source": 10, "id": "e5", "target": 11}, {"source": 10, "id": "e6", "target": 12}, {"source": 10, "id": "e7", "target": 14}, {"source": 12, "id": "e9", "target": 13}, {"source": 12, "id": "e10", "target": 14}], "multigraph": true}