{"directed": false, "graph": [["DateObtained", "19/10/10"], ["GeoLocation", "USA, Europe"], ["GeoExtent", "Country+"], ["DateModifier", "="], ["Customer", 1], ["Network", "Cogent "], ["IX", 0], ["Provenance", "Primary"], ["Note", "Contains Aleron"], ["Source", "http://www.cogentco.com/us/network_map.php"], ["Version", "1.0"], ["DateMonth", "08"], ["DateYear", "2010"], ["Type", "COM"], ["LastAccess", "3/08/10"], ["Access", 0], ["Layer", "IP"], ["Creator", "Topology Zoo Toolset"], ["DateType", "Current"], ["SourceGitVersion", "e278b1b"], ["Backbone", 1], ["Commercial", 0], ["NetworkDate", "2010_08"], ["label", "Cogentco"], ["LastProcessed", "2011_09_01"], ["Testbed", 0], ["Developed", 1], ["ToolsetVersion", "0.3.34dev-20120328"], ["Transit", 1]], "nodes": [{"Internal": 1, "Latitude": 45.74944, "Country": "Romania", "type": "On-Net and Off-Net Market", "id": 0, "Longitude": 21.22722, "label": "Timisoara"}, {"Internal": 1, "Latitude": 44.43225, "Country": "Romania", "type": "On-Net and Off-Net Market", "id": 1, "Longitude": 26.10626, "label": "Bucharest"}, {"Internal": 1, "Latitude": 50.0, "Country": "Germany", "type": "On-Net and Off-Net Market", "id": 2, "Longitude": 8.27111, "label": "Mainz-Wiesbaden"}, {"Internal": 1, "Latitude": 49.48833, "Country": "Germany", "type": "On-Net and Off-Net Market", "id": 3, "Longitude": 8.46472, "label": "Mannheim"}, {"Internal": 1, "Latitude": 48.78232, "Country": "Germany", "type": "On-Net and Off-Net Market", "id": 4, "Longitude": 9.17702, "label": "Stuttgart"}, {"Internal": 1, "Latitude": 49.44778, "Country": "Germany", "type": "On-Net and Off-Net Market", "id": 5, "Longitude": 11.06833, "label": "Nuremberg"}, {"Internal": 1, "Latitude": 48.13743, "Country": "Germany", "type": "On-Net and Off-Net Market", "id": 6, "Longitude": 11.57549, "label": "Munich"}, {"Internal": 1, "Latitude": 48.20849, "Country": "Austria", "type": "On-Net and Off-Net Market", "id": 7, "Longitude": 16.37208, "label": "Vienna"}, {"Internal": 1, "Latitude": 48.14816, "Country": "Slovakia", "type": "On-Net and Off-Net Market", "id": 8, "Longitude": 17.10674, "label": "Bratislava"}, {"Internal": 1, "Latitude": 47.49801, "Country": "Hungary", "type": "On-Net and Off-Net Market", "id": 9, "Longitude": 19.03991, "label": "Budapest"}, {"Internal": 1, "Latitude": 43.0389, "Country": "United States", "type": "On-Net and Off-Net Market with Cogent Data Center(s)", "id": 10, "Longitude": -87.90647, "label": "Milwaukee"}, {"Internal": 1, "Latitude": 44.97997, "Country": "United States", "type": "On-Net and Off-Net Market", "id": 11, "Longitude": -93.26384, "label": "Minneapolis"}, {"Internal": 1, "Latitude": 41.68338, "Country": "United States", "type": "On-Net and Off-Net Market", "id": 12, "Longitude": -86.25001, "label": "South Bend"}, {"Internal": 1, "Latitude": 41.85003, "Country": "United States", "type": "On-Net and Off-Net Market with Cogent Data Center(s)", "id": 13, "Longitude": -87.65005, "label": "Chicago"}, {"Internal": 1, "Latitude": 39.11417, "Country": "United States", "type": "On-Net and Off-Net Market", "id": 14, "Longitude": -94.62746, "label": "Kansas City"}, {"Internal": 1, "Latitude": 38.62727, "Country": "United States", "type": "On-Net and Off-Net Market", "id": 15, "Longitude": -90.19789, "label": "St Louis"}, {"Internal": 1, "Latitude": 41.60054, "Country": "United States", "type": "On-Net and Off-Net Market", "id": 16, "Longitude": -93.60911, "label": "Des Moines"}, {"Internal": 1, "Latitude": 41.25861, "Country": "United States", "type": "On-Net and Off-Net Market", "id": 17, "Longitude": -95.93779, "label": "Omaha"}, {"Internal": 1, "Latitude": 38.25424, "Country": "United States", "type": "On-Net and Off-Net Market", "id": 18, "Longitude": -85.75941, "label": "Louisville"}, {"Internal": 1, "Latitude": 36.16589, "Country": "United States", "type": "On-Net and Off-Net Market", "id": 19, "Longitude": -86.78444, "label": "Nashville"}, {"Internal": 1, "Latitude": 43.54111, "Country": "Spain", "type": "On-Net and Off-Net Market", "id": 20, "Longitude": -5.66444, "label": "Gijon"}, {"Internal": 1, "Latitude": 43.46472, "Country": "Spain", "type": "On-Net and Off-Net Market", "id": 21, "Longitude": -3.80444, "label": "Santander"}, {"Internal": 1, "Latitude": 42.23333, "Country": "Spain", "type": "On-Net and Off-Net Market", "id": 22, "Longitude": -8.71667, "label": "Vigo"}, {"Internal": 1, "Latitude": 42.6, "Country": "Spain", "type": "On-Net and Off-Net Market", "id": 23, "Longitude": -5.56667, "label": "Leon"}, {"Internal": 1, "Latitude": 41.65606, "Country": "Spain", "type": "On-Net and Off-Net Market", "id": 24, "Longitude": -0.87734, "label": "Zaragoza"}, {"Internal": 1, "Latitude": 41.38879, "Country": "Spain", "type": "On-Net and Off-Net Market", "id": 25, "Longitude": 2.15899, "label": "Barcelona"}, {"Internal": 1, "Latitude": 43.26271, "Country": "Spain", "type": "On-Net and Off-Net Market", "id": 26, "Longitude": -2.92528, "label": "Bilbao"}, {"Internal": 1, "Latitude": 42.46667, "Country": "Spain", "type": "On-Net and Off-Net Market", "id": 27, "Longitude": -2.45, "label": "Logrono"}, {"Internal": 1, "Latitude": 40.65, "Country": "Spain", "type": "On-Net and Off-Net Market", "id": 28, "Longitude": -4.7, "label": "Avila"}, {"Internal": 1, "Latitude": 43.31283, "Country": "Spain", "type": "On-Net and Off-Net Market", "id": 29, "Longitude": -1.97499, "label": "San Sebastian"}, {"Internal": 1, "Latitude": 39.76838, "Country": "United States", "type": "On-Net and Off-Net Market", "id": 30, "Longitude": -86.15804, "label": "Indianapolis"}, {"Internal": 1, "Latitude": 39.162, "Country": "United States", "type": "Off-Net Market", "id": 31, "Longitude": -84.45689, "label": "Cincinnati"}, {"geocode_append": "US", "Country": "United States", "Longitude": -83.55521, "label": "Toledo", "Internal": 1, "Latitude": 41.66394, "type": "On-Net and Off-Net Market", "id": 32}, {"Internal": 1, "Latitude": 42.33143, "Country": "United States", "type": "On-Net and Off-Net Market", "id": 33, "Longitude": -83.04575, "label": "Detroit"}, {"Internal": 1, "Latitude": 39.75895, "Country": "United States", "type": "Off-Net Market", "id": 34, "Longitude": -84.19161, "label": "Dayton"}, {"Internal": 1, "Latitude": 39.96118, "Country": "United States", "type": "On-Net and Off-Net Market with Cogent Data Center(s)", "id": 35, "Longitude": -82.99879, "label": "Columbus"}, {"Internal": 1, "Latitude": 39.3995, "Country": "United States", "type": "On-Net and Off-Net Market", "id": 36, "Longitude": -84.56134, "label": "Hamilton"}, {"Internal": 1, "Latitude": 41.4995, "Country": "United States", "type": "On-Net and Off-Net Market", "id": 37, "Longitude": -81.69541, "label": "Cleveland"}, {"Internal": 1, "Latitude": 42.88645, "Country": "United States", "type": "On-Net and Off-Net Market", "id": 38, "Longitude": -78.87837, "label": "Buffalo"}, {"Internal": 1, "Latitude": 40.46423, "Country": "United States", "type": "On-Net and Off-Net Market", "id": 39, "Longitude": -80.60091, "label": "Toronto"}, {"Internal": 1, "Latitude": 59.91273, "Country": "Norway", "type": "On-Net and Off-Net Market", "id": 40, "Longitude": 10.74609, "label": "Oslo"}, {"Internal": 1, "Latitude": 59.33258, "Country": "Sweden", "type": "On-Net and Off-Net Market", "id": 41, "Longitude": 18.0649, "label": "Stockholm"}, {"Internal": 1, "Latitude": 55.67594, "Country": "Denmark", "type": "On-Net and Off-Net Market", "id": 42, "Longitude": 12.56553, "label": "Copenhagen"}, {"Internal": 1, "Latitude": 55.60587, "Country": "Sweden", "type": "On-Net and Off-Net Market", "id": 43, "Longitude": 13.00073, "label": "Malmo"}, {"Internal": 1, "Latitude": 54.97328, "Country": "United Kingdom", "type": "On-Net and Off-Net Market", "id": 44, "Longitude": -1.61396, "label": "Newcastle"}, {"Internal": 1, "Latitude": 53.79648, "Country": "United Kingdom", "type": "On-Net and Off-Net Market", "id": 45, "Longitude": -1.54785, "label": "Leeds"}, {"Internal": 1, "Latitude": 55.86515, "Country": "United Kingdom", "type": "On-Net and Off-Net Market", "id": 46, "Longitude": -4.25763, "label": "Glasgow"}, {"Internal": 1, "Latitude": 55.95, "Country": "United Kingdom", "type": "On-Net and Off-Net Market", "id": 47, "Longitude": -3.2, "label": "Edinburgh"}, {"Internal": 1, "Latitude": 53.41058, "Country": "United Kingdom", "type": "On-Net and Off-Net Market", "id": 48, "Longitude": -2.97794, "label": "Liverpool Southport"}, {"Internal": 1, "Latitude": 53.48095, "Country": "United Kingdom", "type": "On-Net and Off-Net Market", "id": 49, "Longitude": -2.23743, "label": "Manchester"}, {"Internal": 1, "Latitude": 38.71667, "Country": "Portugal", "type": "On-Net and Off-Net Market", "id": 50, "Longitude": -9.13333, "label": "Lisbon"}, {"Internal": 1, "Latitude": 40.2, "Country": "Portugal", "type": "On-Net and Off-Net Market", "id": 51, "Longitude": -8.41667, "label": "Coimbra"}, {"Internal": 1, "Latitude": 38.34517, "Country": "Spain", "type": "On-Net and Off-Net Market", "id": 52, "Longitude": -0.48149, "label": "Alicante"}, {"Internal": 1, "Latitude": 37.98333, "Country": "Spain", "type": "On-Net and Off-Net Market", "id": 53, "Longitude": -1.11667, "label": "Murcia"}, {"Internal": 1, "Latitude": 40.4165, "Country": "Spain", "type": "On-Net and Off-Net Market", "id": 54, "Longitude": -3.70256, "label": "Madrid"}, {"Internal": 1, "Latitude": 39.46975, "Country": "Spain", "type": "On-Net and Off-Net Market", "id": 55, "Longitude": -0.37739, "label": "Valencia"}, {"Internal": 1, "Latitude": 37.37722, "Country": "Spain", "type": "On-Net and Off-Net Market", "id": 56, "Longitude": -5.98694, "label": "Sevilla"}, {"Internal": 1, "Latitude": 38.88333, "Country": "Spain", "type": "On-Net and Off-Net Market", "id": 57, "Longitude": -6.96667, "label": "Badajoz"}, {"Internal": 1, "Latitude": 37.18817, "Country": "Spain", "type": "On-Net and Off-Net Market", "id": 58, "Longitude": -3.60667, "label": "Granada"}, {"Internal": 1, "Latitude": 36.72016, "Country": "Spain", "type": "On-Net and Off-Net Market", "id": 59, "Longitude": -4.42034, "label": "Malaga"}, {"Internal": 1, "Latitude": 30.26715, "Country": "United States", "type": "On-Net and Off-Net Market", "id": 60, "Longitude": -97.74306, "label": "Austin"}, {"Internal": 1, "Latitude": 29.42412, "Country": "United States", "type": "On-Net and Off-Net Market", "id": 61, "Longitude": -98.49363, "label": "San Antonio"}, {"Internal": 1, "Latitude": 29.95465, "Country": "United States", "type": "On-Net and Off-Net Market with Cogent Data Center(s)", "id": 62, "Longitude": -90.07507, "label": "New Orleans"}, {"Internal": 1, "Latitude": 32.29876, "Country": "United States", "type": "On-Net and Off-Net Market", "id": 63, "Longitude": -90.18481, "label": "Jackson"}, {"Internal": 1, "Latitude": 36.15398, "Country": "United States", "type": "On-Net and Off-Net Market", "id": 64, "Longitude": -95.99278, "label": "Tulsa"}, {"Internal": 1, "Latitude": 35.46756, "Country": "United States", "type": "On-Net and Off-Net Market", "id": 65, "Longitude": -97.51643, "label": "Oklahoma City"}, {"Internal": 1, "Latitude": 32.72541, "Country": "United States", "type": "On-Net and Off-Net Market", "id": 66, "Longitude": -97.32085, "label": "Fort Worth"}, {"Internal": 1, "Latitude": 32.78306, "Country": "United States", "type": "On-Net and Off-Net Market with Cogent Data Center(s)", "id": 67, "Longitude": -96.80667, "label": "Dallas"}, {"Internal": 1, "Latitude": 35.14953, "Country": "United States", "type": "On-Net and Off-Net Market", "id": 68, "Longitude": -90.04898, "label": "Memphis"}, {"Internal": 1, "Latitude": 29.76328, "Country": "United States", "type": "On-Net and Off-Net Market with Cogent Data Center(s)", "id": 69, "Longitude": -95.36327, "label": "Houston"}, {"Internal": 1, "Latitude": 47.38333, "Country": "France", "type": "On-Net and Off-Net Market with Cogent Data Center(s)", "id": 70, "Longitude": 0.68333, "label": "Tours"}, {"Internal": 1, "Latitude": 47.21725, "Country": "France", "type": "On-Net and Off-Net Market with Cogent Data Center(s)", "id": 71, "Longitude": -1.55336, "label": "Nantes"}, {"Internal": 1, "Latitude": 48.08333, "Country": "France", "type": "On-Net and Off-Net Market with Cogent Data Center(s)", "id": 72, "Longitude": -1.68333, "label": "Rennes"}, {"Internal": 1, "Latitude": 49.18585, "Country": "France", "type": "On-Net and Off-Net Market", "id": 73, "Longitude": -0.35912, "label": "Caen"}, {"Internal": 1, "Latitude": 49.44313, "Country": "France", "type": "On-Net and Off-Net Market with Cogent Data Center(s)", "id": 74, "Longitude": 1.09932, "label": "Rouen"}, {"Internal": 1, "Latitude": 49.25, "Country": "France", "type": "On-Net and Off-Net Market", "id": 75, "Longitude": 4.03333, "label": "Reims"}, {"Internal": 1, "Latitude": 49.61167, "Country": "Luxembourg", "type": "On-Net and Off-Net Market", "id": 76, "Longitude": 6.13, "label": "Luxembourg"}, {"Internal": 1, "Latitude": 50.11667, "Country": "Germany", "type": "On-Net and Off-Net Market with Cogent Data Center(s)", "id": 77, "Longitude": 8.68333, "label": "Frankfurt"}, {"Internal": 1, "Latitude": 44.83333, "Country": "France", "type": "On-Net and Off-Net Market with Cogent Data Center(s)", "id": 78, "Longitude": -0.56667, "label": "Bordeaux"}, {"Internal": 1, "Latitude": 46.58333, "Country": "France", "type": "On-Net and Off-Net Market with Cogent Data Center(s)", "id": 79, "Longitude": 0.33333, "label": "Poiters"}, {"Internal": 1, "Latitude": 25.77427, "Country": "United States", "type": "On-Net and Off-Net Market with Cogent Data Center(s)", "id": 80, "Longitude": -80.19366, "label": "Miami"}, {"Internal": 1, "Latitude": 26.35869, "Country": "United States", "type": "On-Net and Off-Net Market with Cogent Data Center(s)", "id": 81, "Longitude": -80.0831, "label": "Boca Raton"}, {"Internal": 1, "Latitude": 33.749, "Country": "United States", "type": "On-Net and Off-Net Market with Cogent Data Center(s)", "id": 82, "Longitude": -84.38798, "label": "Atlanta"}, {"Internal": 1, "Latitude": 35.22709, "Country": "United States", "type": "On-Net and Off-Net Market", "id": 83, "Longitude": -80.84313, "label": "Charlotte"}, {"Internal": 1, "Latitude": 36.07264, "Country": "United States", "type": "On-Net and Off-Net Market", "id": 84, "Longitude": -79.79198, "label": "Greensboro"}, {"Internal": 1, "Latitude": 35.7721, "Country": "United States", "type": "On-Net and Off-Net Market", "id": 85, "Longitude": -78.63861, "label": "Raleigh"}, {"Internal": 1, "Latitude": 27.94752, "Country": "United States", "type": "On-Net and Off-Net Market", "id": 86, "Longitude": -82.45843, "label": "Tampa"}, {"Internal": 1, "Latitude": 28.53834, "Country": "United States", "type": "On-Net and Off-Net Market", "id": 87, "Longitude": -81.37924, "label": "Orlando"}, {"Internal": 1, "Latitude": 30.33218, "Country": "United States", "type": "On-Net and Off-Net Market", "id": 88, "Longitude": -81.65565, "label": "Jacksonville"}, {"geocode_append": "US", "Country": "United States", "Longitude": -86.80249, "label": "Birmingham", "Internal": 1, "Latitude": 33.52066, "type": "On-Net and Off-Net Market", "id": 89}, {"Internal": 1, "Latitude": 43.70313, "Country": "France", "type": "On-Net and Off-Net Market with Cogent Data Center(s)", "id": 90, "Longitude": 7.26608, "label": "Nice"}, {"Internal": 1, "Latitude": 45.16667, "Country": "France", "type": "On-Net and Off-Net Market with Cogent Data Center(s)", "id": 91, "Longitude": 5.71667, "label": "Grenoble"}, {"Internal": 1, "Latitude": 45.75, "Country": "France", "type": "On-Net and Off-Net Market", "id": 92, "Longitude": 4.85, "label": "Lyon"}, {"Internal": 1, "Latitude": 47.31667, "Country": "France", "type": "On-Net and Off-Net Market with Cogent Data Center(s)", "id": 93, "Longitude": 5.01667, "label": "Dijon"}, {"Internal": 1, "Latitude": 43.60426, "Country": "France", "type": "On-Net and Off-Net Market with Cogent Data Center(s)", "id": 94, "Longitude": 1.44367, "label": "Toulouse"}, {"geocode_append": "France", "Country": "France", "Longitude": 3.88333, "label": "Montpellier", "Internal": 1, "Latitude": 43.6, "type": "On-Net and Off-Net Market with Cogent Data Center(s)", "id": 95}, {"Internal": 1, "Latitude": 43.3, "Country": "France", "type": "On-Net and Off-Net Market", "id": 96, "Longitude": 5.4, "label": "Marseille"}, {"Internal": 1, "Latitude": 42.69751, "Country": "Bulgaria", "type": "On-Net and Off-Net Market with Cogent Data Center(s)", "id": 97, "Longitude": 23.32415, "label": "Sophia"}, {"Internal": 1, "Latitude": 50.08804, "Country": "Czech Republic", "type": "On-Net and Off-Net Market", "id": 98, "Longitude": 14.42076, "label": "Prague"}, {"Internal": 1, "Latitude": 46.20222, "Country": "Switzerland", "type": "On-Net and Off-Net Market", "id": 99, "Longitude": 6.14569, "label": "Geneva"}, {"Internal": 1, "Latitude": 46.94809, "Country": "Switzerland", "type": "On-Net and Off-Net Market", "id": 100, "Longitude": 7.44744, "label": "Bern"}, {"Internal": 1, "Latitude": 34.05223, "Country": "United States", "type": "On-Net and Off-Net Market with Cogent Data Center(s)", "id": 101, "Longitude": -118.24368, "label": "Los Angeles"}, {"Internal": 1, "Latitude": 33.78779, "Country": "United States", "type": "On-Net and Off-Net Market with Cogent Data Center(s)", "id": 102, "Longitude": -117.85311, "label": "Orange County"}, {"Internal": 1, "Latitude": 37.77493, "Country": "United States", "type": "On-Net and Off-Net Market", "id": 103, "Longitude": -122.41942, "label": "San Francisco"}, {"Internal": 1, "Latitude": 37.35411, "Country": "United States", "type": "On-Net and Off-Net Market", "id": 104, "Longitude": -121.95524, "label": "Santa Clara"}, {"Internal": 1, "Latitude": 38.58157, "Country": "United States", "type": "On-Net and Off-Net Market", "id": 105, "Longitude": -121.4944, "label": "Sacramento"}, {"Internal": 1, "Latitude": 37.80437, "Country": "United States", "type": "On-Net and Off-Net Market with Cogent Data Center(s)", "id": 106, "Longitude": -122.2708, "label": "Oakland"}, {"Internal": 1, "Latitude": 40.76078, "Country": "United States", "type": "On-Net and Off-Net Market", "id": 107, "Longitude": -111.89105, "label": "Salt Lake City"}, {"Internal": 1, "Latitude": 43.6135, "Country": "United States", "type": "On-Net and Off-Net Market", "id": 108, "Longitude": -116.20345, "label": "Boise"}, {"Internal": 1, "Latitude": 32.71533, "Country": "United States", "type": "On-Net and Off-Net Market", "id": 109, "Longitude": -117.15726, "label": "San Diego"}, {"Internal": 1, "Latitude": 33.44838, "Country": "United States", "type": "On-Net and Off-Net Market", "id": 110, "Longitude": -112.07404, "label": "Phoenix"}, {"Internal": 1, "Latitude": 43.46139, "Country": "Italy", "type": "On-Net and Off-Net Market", "id": 111, "Longitude": 11.87691, "label": "Arezzo"}, {"Internal": 1, "Latitude": 41.89474, "Country": "Italy", "type": "On-Net and Off-Net Market", "id": 112, "Longitude": 12.4839, "label": "Rome"}, {"Internal": 1, "Latitude": 46.47747, "Country": "Ukraine", "type": "On-Net and Off-Net Market", "id": 113, "Longitude": 30.73262, "label": "Odessa"}, {"Internal": 1, "Latitude": 45.45, "Country": "Romania", "type": "On-Net and Off-Net Market", "id": 114, "Longitude": 28.05, "label": "Galati"}, {"Internal": 1, "Latitude": 43.41667, "Country": "Bulgaria", "type": "On-Net and Off-Net Market", "id": 115, "Longitude": 28.16667, "label": "Balchik"}, {"Internal": 1, "Latitude": 44.18333, "Country": "Romania", "type": "On-Net and Off-Net Market", "id": 116, "Longitude": 28.65, "label": "Constanta"}, {"Internal": 1, "Latitude": 42.50606, "Country": "Bulgaria", "type": "On-Net and Off-Net Market", "id": 117, "Longitude": 27.46781, "label": "Burgas"}, {"Internal": 1, "Latitude": 43.21667, "Country": "Bulgaria", "type": "On-Net and Off-Net Market", "id": 118, "Longitude": 27.91667, "label": "Varna"}, {"Internal": 1, "Latitude": 42.69751, "Country": "Bulgaria", "type": "On-Net and Off-Net Market", "id": 119, "Longitude": 23.32415, "label": "Sofia"}, {"Internal": 1, "Latitude": 41.71667, "Country": "Bulgaria", "type": "On-Net and Off-Net Market", "id": 120, "Longitude": 26.31667, "label": "Kapitan Andreevo"}, {"Internal": 1, "Latitude": 26.20341, "Country": "United States", "type": "On-Net and Off-Net Market", "id": 121, "Longitude": -98.23001, "label": "McAllen"}, {"Internal": 1, "Latitude": 27.50641, "Country": "United States", "type": "On-Net and Off-Net Market", "id": 122, "Longitude": -99.50754, "label": "Laredo"}, {"Internal": 1, "Latitude": 20.6, "Country": "Mexico", "type": "On-Net and Off-Net Market", "id": 123, "Longitude": -100.38333, "label": "Queretaro"}, {"Internal": 1, "Latitude": 25.66667, "Country": "Mexico", "type": "On-Net and Off-Net Market", "id": 124, "Longitude": -100.31667, "label": "Monterrey"}, {"Internal": 1, "Latitude": 19.42847, "Country": "Mexico", "type": "On-Net and Off-Net Market", "id": 125, "Longitude": -99.12766, "label": "Mexico City"}, {"Internal": 1, "Latitude": 20.66667, "Country": "Mexico", "type": "On-Net and Off-Net Market", "id": 126, "Longitude": -103.33333, "label": "Guadalajara"}, {"Internal": 1, "Latitude": 35.08449, "Country": "United States", "type": "On-Net and Off-Net Market", "id": 127, "Longitude": -106.65114, "label": "Albuquerque"}, {"Internal": 1, "Latitude": 31.75872, "Country": "United States", "type": "On-Net and Off-Net Market", "id": 128, "Longitude": -106.48693, "label": "El Paso"}, {"Internal": 1, "Latitude": 39.73915, "Country": "United States", "type": "On-Net and Off-Net Market", "id": 129, "Longitude": -104.9847, "label": "Denver"}, {"Internal": 1, "Latitude": 38.83388, "Country": "United States", "type": "On-Net and Off-Net Market", "id": 130, "Longitude": -104.82136, "label": "Colorado Springs"}, {"Internal": 1, "Latitude": 51.05089, "Country": "Germany", "type": "On-Net and Off-Net Market", "id": 131, "Longitude": 13.73832, "label": "Dresden"}, {"Internal": 1, "Latitude": 47.56667, "Country": "Switzerland", "type": "On-Net and Off-Net Market", "id": 132, "Longitude": 7.6, "label": "Basel"}, {"Internal": 1, "Latitude": 48.58333, "Country": "France", "type": "On-Net and Off-Net Market with Cogent Data Center(s)", "id": 133, "Longitude": 7.75, "label": "Strasbourg"}, {"Internal": 1, "Latitude": 45.46427, "Country": "Italy", "type": "On-Net and Off-Net Market", "id": 134, "Longitude": 9.18951, "label": "Milan"}, {"Internal": 1, "Latitude": 47.36667, "Country": "Switzerland", "type": "On-Net and Off-Net Market", "id": 135, "Longitude": 8.55, "label": "Zurich"}, {"Internal": 1, "Latitude": 45.81444, "Country": "Croatia", "type": "On-Net and Off-Net Market", "id": 136, "Longitude": 15.97798, "label": "Zagreb"}, {"Internal": 1, "Latitude": 44.40632, "Country": "Italy", "type": "On-Net and Off-Net Market", "id": 137, "Longitude": 8.93386, "label": "Genoa"}, {"Internal": 1, "Latitude": 45.43861, "Country": "Italy", "type": "On-Net and Off-Net Market", "id": 138, "Longitude": 12.32667, "label": "Padua-Venice"}, {"Internal": 1, "Latitude": 46.05108, "Country": "Slovenia", "type": "On-Net and Off-Net Market", "id": 139, "Longitude": 14.50513, "label": "Ljubljana"}, {"Internal": 1, "Latitude": 43.76667, "Country": "Italy", "type": "On-Net and Off-Net Market", "id": 140, "Longitude": 11.25, "label": "Florence"}, {"Internal": 1, "Latitude": 44.49381, "Country": "Italy", "type": "On-Net and Off-Net Market", "id": 141, "Longitude": 11.33875, "label": "Bologna"}, {"Internal": 1, "Latitude": 52.52437, "Country": "Germany", "type": "On-Net and Off-Net Market", "id": 142, "Longitude": 13.41053, "label": "Berlin"}, {"Internal": 1, "Latitude": 53.55, "Country": "Germany", "type": "On-Net and Off-Net Market", "id": 143, "Longitude": 10.0, "label": "Hamburg"}, {"hyperedge": 1, "Internal": 1, "id": 144, "label": "None"}, {"Internal": 1, "Latitude": 41.03399, "Country": "United States", "type": "On-Net and Off-Net Market", "id": 145, "Longitude": -73.76291, "label": "White Plains"}, {"Internal": 1, "Latitude": 39.29038, "Country": "United States", "type": "On-Net and Off-Net Market", "id": 146, "Longitude": -76.61219, "label": "Baltimore"}, {"hyperedge": 1, "Internal": 1, "id": 147, "label": "None"}, {"hyperedge": 1, "Internal": 1, "id": 148, "label": "None"}, {"hyperedge": 1, "Internal": 1, "id": 149, "label": "None"}, {"hyperedge": 1, "Internal": 1, "id": 150, "label": "None"}, {"Internal": 1, "Latitude": 40.73566, "Country": "United States", "type": "On-Net and Off-Net Market", "id": 151, "Longitude": -74.17237, "label": "Newark"}, {"Internal": 1, "Latitude": 39.95234, "Country": "United States", "type": "On-Net and Off-Net Market", "id": 152, "Longitude": -75.16379, "label": "Philadelphia"}, {"Internal": 1, "Latitude": 40.2737, "Country": "United States", "type": "On-Net and Off-Net Market", "id": 153, "Longitude": -76.88442, "label": "Harrisburg"}, {"Internal": 1, "Latitude": 38.89511, "Country": "United States", "type": "On-Net and Off-Net Market with Cogent Data Center(s)", "id": 154, "Longitude": -77.03637, "label": "Washington"}, {"Internal": 1, "Latitude": 42.35843, "Country": "United States", "type": "On-Net and Off-Net Market with Cogent Data Center(s)", "id": 155, "Longitude": -71.05977, "label": "Boston"}, {"Internal": 1, "Latitude": 41.82399, "Country": "United States", "type": "On-Net and Off-Net Market", "id": 156, "Longitude": -71.41283, "label": "Providence"}, {"Internal": 1, "Latitude": 41.05343, "Country": "United States", "type": "On-Net and Off-Net Market", "id": 157, "Longitude": -73.53873, "label": "Stamford"}, {"Internal": 1, "Latitude": 40.71427, "Country": "United States", "type": "On-Net and Off-Net Market with Cogent Data Center(s)", "id": 158, "Longitude": -74.00597, "label": "New York"}, {"Internal": 1, "Latitude": 38.96955, "Country": "United States", "type": "On-Net and Off-Net Market with Cogent Data Center(s)", "id": 159, "Longitude": -77.3861, "label": "Herndon"}, {"Internal": 1, "Latitude": 40.44062, "Country": "United States", "type": "On-Net and Off-Net Market with Cogent Data Center(s)", "id": 160, "Longitude": -79.99589, "label": "Pittsburgh"}, {"Internal": 1, "Latitude": 50.93333, "Country": "Germany", "type": "On-Net and Off-Net Market", "id": 161, "Longitude": 6.95, "label": "Cologne"}, {"Internal": 1, "Latitude": 51.22172, "Country": "Germany", "type": "On-Net and Off-Net Market", "id": 162, "Longitude": 6.77616, "label": "Dusseldorf"}, {"Internal": 1, "Latitude": 52.37403, "Country": "Netherlands", "type": "On-Net and Off-Net Market", "id": 163, "Longitude": 4.88969, "label": "Amsterdam"}, {"Internal": 1, "Latitude": 52.2, "Country": "United Kingdom", "type": "On-Net and Off-Net Market", "id": 164, "Longitude": 0.11667, "label": "Cambridge"}, {"Internal": 1, "Latitude": 51.50853, "Country": "United Kingdom", "type": "On-Net and Off-Net Market", "id": 165, "Longitude": -0.12574, "label": "London"}, {"Internal": 1, "Latitude": 51.5, "Country": "United Kingdom", "type": "On-Net and Off-Net Market", "id": 166, "Longitude": -0.58333, "label": "Slough"}, {"Internal": 1, "Latitude": 51.45, "Country": "Germany", "type": "On-Net and Off-Net Market", "id": 167, "Longitude": 7.01667, "label": "Essen"}, {"Internal": 1, "Latitude": 51.51667, "Country": "Germany", "type": "On-Net and Off-Net Market", "id": 168, "Longitude": 7.45, "label": "Dortmund"}, {"Internal": 1, "Latitude": 51.96236, "Country": "Germany", "type": "On-Net and Off-Net Market", "id": 169, "Longitude": 7.62571, "label": "Munster"}, {"Internal": 1, "Latitude": 51.9225, "Country": "Netherlands", "type": "On-Net and Off-Net Market", "id": 170, "Longitude": 4.47917, "label": "Rotterdam"}, {"hyperedge": 1, "Internal": 1, "id": 171, "label": "None"}, {"hyperedge": 1, "Internal": 1, "id": 172, "label": "None"}, {"hyperedge": 1, "Internal": 1, "id": 173, "label": "None"}, {"hyperedge": 1, "Internal": 1, "id": 174, "label": "None"}, {"hyperedge": 1, "Internal": 1, "id": 175, "label": "None"}, {"hyperedge": 1, "Internal": 1, "id": 176, "label": "None"}, {"Internal": 1, "Latitude": 53.34399, "Country": "Ireland", "type": "On-Net and Off-Net Market", "id": 177, "Longitude": -6.26719, "label": "Dublin"}, {"Internal": 1, "Latitude": 47.60621, "Country": "United States", "type": "On-Net and Off-Net Market", "id": 178, "Longitude": -122.33207, "label": "Seattle"}, {"Internal": 1, "Latitude": 45.52345, "Country": "United States", "type": "On-Net and Off-Net Market", "id": 179, "Longitude": -122.67621, "label": "Portland"}, {"Internal": 1, "Latitude": 36.17497, "Country": "United States", "type": "On-Net and Off-Net Market", "id": 180, "Longitude": -115.13722, "label": "Las Vegas"}, {"Internal": 1, "Latitude": 45.50884, "Country": "Canada", "type": "On-Net and Off-Net Market", "id": 181, "Longitude": -73.58781, "label": "Montreal"}, {"Internal": 1, "Latitude": 59.43696, "Country": "Estonia", "type": "On-Net and Off-Net Market", "id": 182, "Longitude": 24.75353, "label": "Tallinn"}, {"Internal": 1, "Latitude": 48.85341, "Country": "France", "type": "On-Net and Off-Net Market", "id": 183, "Longitude": 2.3488, "label": "Paris"}, {"Internal": 1, "Latitude": 50.63333, "Country": "France", "type": "On-Net and Off-Net Market with Cogent Data Center(s)", "id": 184, "Longitude": 3.06667, "label": "Lille"}, {"Internal": 1, "Latitude": 53.07516, "Country": "Germany", "type": "On-Net and Off-Net Market", "id": 185, "Longitude": 8.80777, "label": "Bremen"}, {"Internal": 1, "Latitude": 50.85045, "Country": "Belgium", "type": "On-Net and Off-Net Market", "id": 186, "Longitude": 4.34878, "label": "Brussels"}, {"Internal": 1, "Latitude": 51.21667, "Country": "Belgium", "type": "On-Net and Off-Net Market", "id": 187, "Longitude": 4.41667, "label": "Antwerp"}, {"Internal": 1, "Latitude": 41.15, "Country": "Portugal", "type": "On-Net and Off-Net Market", "id": 188, "Longitude": -8.61667, "label": "Porto"}, {"Internal": 1, "Latitude": 60.16952, "Country": "Finland", "type": "On-Net and Off-Net Market", "id": 189, "Longitude": 24.93545, "label": "Helsinki"}, {"Internal": 1, "Latitude": 50.0, "Country": "Ukraine", "type": "On-Net and Off-Net Market", "id": 190, "Longitude": 36.25, "label": "Kharkiv"}, {"Internal": 1, "Latitude": 50.45466, "Country": "Ukraine", "type": "On-Net and Off-Net Market", "id": 191, "Longitude": 30.5238, "label": "Kiev"}, {"Internal": 1, "Latitude": 52.22977, "Country": "Poland", "type": "On-Net and Off-Net Market", "id": 192, "Longitude": 21.01178, "label": "Warsaw"}, {"Internal": 1, "Latitude": 50.08333, "Country": "Poland", "type": "On-Net and Off-Net Market", "id": 193, "Longitude": 19.91667, "label": "Krakow"}, {"Internal": 1, "Latitude": 49.19522, "Country": "Czech Republic", "type": "On-Net and Off-Net Market", "id": 194, "Longitude": 16.60796, "label": "Brno"}, {"Internal": 1, "Latitude": 52.18935, "Country": "United Kingdom", "type": "On-Net and Off-Net Market", "id": 195, "Longitude": -2.22001, "label": "Worcester"}, {"Internal": 1, "Latitude": 42.65258, "Country": "United States", "type": "On-Net and Off-Net Market", "id": 196, "Longitude": -73.75623, "label": "Albany"}], "links": [{"source": 0, "id": "e62", "target": 176}, {"source": 0, "id": "e61", "target": 9}, {"source": 1, "id": "e59", "target": 8}, {"source": 1, "id": "e64", "target": 176}, {"source": 1, "id": "e63", "target": 114}, {"source": 1, "id": "e65", "target": 116}, {"source": 1, "id": "e66", "target": 175}, {"source": 2, "id": "e50", "target": 76}, {"source": 2, "id": "e49", "target": 77}, {"source": 3, "id": "e51", "target": 4}, {"source": 3, "id": "e52", "target": 77}, {"source": 4, "id": "e54", "target": 6}, {"source": 4, "id": "e53", "target": 135}, {"source": 5, "id": "e11", "target": 131}, {"source": 5, "id": "e55", "target": 6}, {"source": 6, "id": "e56", "target": 7}, {"source": 7, "id": "e57", "target": 8}, {"source": 7, "id": "e58", "target": 174}, {"source": 8, "id": "e7", "target": 194}, {"source": 8, "id": "e3", "target": 191}, {"source": 8, "id": "e60", "target": 9}, {"source": 10, "id": "e180", "target": 11}, {"source": 10, "id": "e178", "target": 13}, {"source": 11, "id": "e181", "target": 16}, {"source": 12, "id": "e172", "target": 32}, {"source": 12, "id": "e176", "target": 13}, {"source": 12, "id": "e174", "target": 30}, {"source": 13, "id": "e179", "target": 16}, {"source": 13, "id": "e177", "target": 15}, {"source": 14, "id": "e183", "target": 64}, {"source": 14, "id": "e185", "target": 129}, {"source": 14, "id": "e184", "target": 15}, {"source": 16, "id": "e182", "target": 17}, {"source": 18, "id": "e186", "target": 19}, {"source": 18, "id": "e175", "target": 30}, {"source": 19, "id": "e187", "target": 89}, {"source": 19, "id": "e188", "target": 68}, {"source": 19, "id": "e189", "target": 82}, {"source": 20, "id": "e124", "target": 21}, {"source": 20, "id": "e125", "target": 23}, {"source": 21, "id": "e123", "target": 26}, {"source": 22, "id": "e127", "target": 188}, {"source": 22, "id": "e126", "target": 23}, {"source": 24, "id": "e119", "target": 27}, {"source": 25, "id": "e118", "target": 171}, {"source": 25, "id": "e117", "target": 55}, {"source": 26, "id": "e120", "target": 27}, {"source": 26, "id": "e122", "target": 28}, {"source": 26, "id": "e121", "target": 29}, {"source": 28, "id": "e128", "target": 51}, {"source": 28, "id": "e129", "target": 54}, {"source": 29, "id": "e103", "target": 78}, {"source": 30, "id": "e173", "target": 35}, {"source": 31, "id": "e164", "target": 37}, {"source": 32, "id": "e171", "target": 33}, {"source": 32, "id": "e166", "target": 37}, {"source": 34, "id": "e168", "target": 37}, {"source": 35, "id": "e167", "target": 37}, {"source": 36, "id": "e170", "target": 38}, {"source": 36, "id": "e169", "target": 39}, {"source": 37, "id": "e163", "target": 160}, {"source": 37, "id": "e165", "target": 38}, {"source": 38, "id": "e147", "target": 196}, {"source": 39, "id": "e145", "target": 181}, {"source": 40, "id": "e19", "target": 41}, {"source": 40, "id": "e17", "target": 42}, {"source": 41, "id": "e18", "target": 43}, {"source": 41, "id": "e1", "target": 189}, {"source": 42, "id": "e16", "target": 43}, {"source": 42, "id": "e13", "target": 143}, {"source": 42, "id": "e14", "target": 143}, {"source": 44, "id": "e23", "target": 45}, {"source": 44, "id": "e22", "target": 47}, {"source": 45, "id": "e24", "target": 48}, {"source": 45, "id": "e25", "target": 164}, {"source": 46, "id": "e20", "target": 49}, {"source": 46, "id": "e21", "target": 47}, {"source": 48, "id": "e27", "target": 155}, {"source": 48, "id": "e26", "target": 181}, {"source": 49, "id": "e28", "target": 177}, {"source": 49, "id": "e29", "target": 147}, {"source": 49, "id": "e30", "target": 165}, {"source": 50, "id": "e137", "target": 57}, {"source": 50, "id": "e138", "target": 51}, {"source": 51, "id": "e139", "target": 188}, {"source": 52, "id": "e132", "target": 53}, {"source": 52, "id": "e131", "target": 55}, {"source": 53, "id": "e133", "target": 58}, {"source": 54, "id": "e130", "target": 55}, {"source": 56, "id": "e136", "target": 57}, {"source": 56, "id": "e135", "target": 59}, {"source": 58, "id": "e134", "target": 59}, {"source": 60, "id": "e216", "target": 61}, {"source": 60, "id": "e215", "target": 69}, {"source": 61, "id": "e218", "target": 128}, {"source": 61, "id": "e217", "target": 122}, {"source": 62, "id": "e204", "target": 144}, {"source": 62, "id": "e201", "target": 86}, {"source": 62, "id": "e205", "target": 63}, {"source": 63, "id": "e207", "target": 68}, {"source": 63, "id": "e206", "target": 149}, {"source": 64, "id": "e208", "target": 65}, {"source": 64, "id": "e209", "target": 67}, {"source": 64, "id": "e210", "target": 68}, {"source": 65, "id": "e211", "target": 66}, {"source": 66, "id": "e212", "target": 67}, {"source": 67, "id": "e213", "target": 69}, {"source": 69, "id": "e214", "target": 144}, {"source": 70, "id": "e100", "target": 183}, {"source": 70, "id": "e101", "target": 79}, {"source": 71, "id": "e98", "target": 72}, {"source": 71, "id": "e99", "target": 79}, {"source": 72, "id": "e97", "target": 73}, {"source": 73, "id": "e95", "target": 74}, {"source": 74, "id": "e96", "target": 183}, {"source": 75, "id": "e94", "target": 173}, {"source": 75, "id": "e93", "target": 183}, {"source": 76, "id": "e92", "target": 173}, {"source": 77, "id": "e91", "target": 152}, {"source": 77, "id": "e47", "target": 162}, {"source": 77, "id": "e90", "target": 133}, {"source": 78, "id": "e104", "target": 94}, {"source": 78, "id": "e102", "target": 79}, {"source": 80, "id": "e203", "target": 81}, {"source": 80, "id": "e202", "target": 81}, {"source": 80, "id": "e200", "target": 86}, {"source": 80, "id": "e199", "target": 87}, {"source": 82, "id": "e194", "target": 88}, {"source": 82, "id": "e192", "target": 83}, {"source": 82, "id": "e195", "target": 150}, {"source": 83, "id": "e193", "target": 148}, {"source": 84, "id": "e191", "target": 148}, {"source": 84, "id": "e190", "target": 85}, {"source": 86, "id": "e198", "target": 87}, {"source": 87, "id": "e197", "target": 88}, {"source": 89, "id": "e196", "target": 150}, {"source": 90, "id": "e111", "target": 172}, {"source": 91, "id": "e113", "target": 99}, {"source": 91, "id": "e112", "target": 92}, {"source": 92, "id": "e109", "target": 96}, {"source": 92, "id": "e115", "target": 93}, {"source": 92, "id": "e114", "target": 183}, {"source": 94, "id": "e105", "target": 171}, {"source": 95, "id": "e106", "target": 96}, {"source": 95, "id": "e107", "target": 171}, {"source": 96, "id": "e108", "target": 97}, {"source": 97, "id": "e110", "target": 172}, {"source": 98, "id": "e8", "target": 194}, {"source": 98, "id": "e9", "target": 131}, {"source": 99, "id": "e116", "target": 100}, {"source": 100, "id": "e88", "target": 132}, {"source": 101, "id": "e236", "target": 104}, {"source": 101, "id": "e238", "target": 180}, {"source": 101, "id": "e237", "target": 102}, {"source": 102, "LinkLabel": "Leased Wavelength/Managed Service", "target": 109}, {"source": 103, "LinkLabel": "Leased Wavelength/Managed Service", "target": 104}, {"source": 103, "LinkLabel": "Leased Wavelength/Managed Service", "target": 106}, {"source": 105, "id": "e232", "target": 106}, {"source": 105, "id": "e230", "target": 107}, {"source": 105, "id": "e233", "target": 179}, {"source": 107, "id": "e229", "target": 108}, {"source": 107, "id": "e228", "target": 129}, {"source": 108, "id": "e231", "target": 179}, {"source": 109, "LinkLabel": "Leased Wavelength/Managed Service", "target": 110}, {"source": 110, "id": "e225", "target": 128}, {"source": 111, "id": "e75", "target": 112}, {"source": 111, "id": "e77", "target": 140}, {"source": 112, "id": "e76", "target": 137}, {"source": 113, "id": "e67", "target": 114}, {"source": 113, "id": "e4", "target": 191}, {"source": 115, "id": "e68", "target": 116}, {"source": 115, "id": "e69", "target": 118}, {"source": 117, "id": "e71", "target": 120}, {"source": 117, "id": "e70", "target": 118}, {"source": 119, "id": "e73", "target": 176}, {"source": 119, "id": "e74", "target": 175}, {"source": 120, "id": "e72", "target": 175}, {"source": 121, "id": "e219", "target": 122}, {"source": 121, "id": "e220", "target": 124}, {"source": 123, "id": "e221", "target": 124}, {"source": 123, "id": "e223", "target": 125}, {"source": 123, "id": "e222", "target": 126}, {"source": 127, "id": "e224", "target": 128}, {"source": 127, "id": "e226", "target": 130}, {"source": 129, "id": "e227", "target": 130}, {"source": 131, "id": "e10", "target": 142}, {"source": 132, "id": "e87", "target": 135}, {"source": 133, "id": "e89", "target": 173}, {"source": 134, "id": "e84", "target": 137}, {"source": 134, "id": "e80", "target": 138}, {"source": 134, "id": "e86", "target": 135}, {"source": 136, "id": "e83", "target": 139}, {"source": 137, "id": "e85", "target": 172}, {"source": 138, "id": "e81", "target": 174}, {"source": 138, "id": "e79", "target": 141}, {"source": 139, "id": "e82", "target": 174}, {"source": 140, "id": "e78", "target": 141}, {"source": 142, "id": "e12", "target": 143}, {"source": 143, "id": "e15", "target": 185}, {"source": 144, "id": "e244", "target": 149}, {"source": 145, "LinkLabel": "Leased Wavelength/Managed Service", "target": 157}, {"source": 146, "id": "e157", "target": 152}, {"source": 146, "id": "e162", "target": 154}, {"source": 147, "id": "e33", "target": 166}, {"source": 147, "id": "e242", "target": 177}, {"source": 148, "id": "e160", "target": 154}, {"source": 149, "id": "e243", "target": 150}, {"source": 151, "id": "e155", "target": 152}, {"source": 152, "id": "e156", "target": 153}, {"source": 153, "id": "e159", "target": 160}, {"source": 153, "id": "e158", "target": 154}, {"source": 154, "id": "e144", "target": 183}, {"source": 154, "id": "e161", "target": 159}, {"source": 155, "id": "e150", "target": 195}, {"source": 155, "id": "e151", "target": 156}, {"source": 155, "id": "e37", "target": 165}, {"source": 156, "id": "e152", "target": 157}, {"source": 157, "LinkLabel": "Leased Wavelength/Managed Service", "target": 158}, {"source": 158, "id": "e38", "target": 165}, {"source": 158, "id": "e148", "target": 196}, {"source": 158, "id": "e143", "target": 183}, {"source": 161, "id": "e48", "target": 162}, {"source": 162, "id": "e41", "target": 163}, {"source": 162, "id": "e46", "target": 167}, {"source": 163, "id": "e42", "target": 187}, {"source": 163, "id": "e40", "target": 164}, {"source": 165, "id": "e39", "target": 177}, {"source": 165, "id": "e36", "target": 181}, {"source": 165, "id": "e35", "target": 184}, {"source": 165, "id": "e34", "target": 186}, {"source": 166, "id": "e31", "target": 170}, {"source": 166, "id": "e32", "target": 183}, {"source": 167, "id": "e45", "target": 168}, {"source": 168, "id": "e43", "target": 169}, {"source": 169, "id": "e44", "target": 185}, {"source": 178, "id": "e241", "target": 179}, {"source": 181, "id": "e146", "target": 196}, {"source": 182, "id": "e0", "target": 189}, {"source": 183, "id": "e142", "target": 184}, {"source": 183, "id": "e141", "target": 186}, {"source": 186, "id": "e140", "target": 187}, {"source": 190, "id": "e2", "target": 191}, {"source": 192, "id": "e5", "target": 193}, {"source": 193, "id": "e6", "target": 194}, {"source": 195, "id": "e149", "target": 196}], "multigraph": true}