{"directed": false, "graph": [["DateObtained", "14/01/11"], ["GeoLocation", "USA"], ["GeoExtent", "Country"], ["DateModifier", "="], ["Customer", 1], ["Network", "CWIX"], ["IX", 0], ["Provenance", "Secondary"], ["Note", "All estimated from http://en.wikipedia.org/wiki/Cable_%26_Wireless_Worldwide"], ["Source", "http://www.nthelp.com/images/cwix.jpg"], ["Version", "1.0"], ["DateMonth", "01"], ["DateYear", "2011"], ["DateType", "Current"], ["LastAccess", "14/01/11"], ["Access", 0], ["Layer", "IP"], ["Creator", "Topology Zoo Toolset"], ["Type", "COM"], ["SourceGitVersion", "e278b1b"], ["Backbone", 1], ["Commercial", 0], ["NetworkDate", "2011_01"], ["label", "Cwix"], ["LastProcessed", "2011_09_01"], ["Testbed", 0], ["Developed", 1], ["ToolsetVersion", "0.3.34dev-20120328"], ["Transit", 0]], "nodes": [{"Internal": 1, "Latitude": 39.95234, "Country": "United States", "id": 0, "Longitude": -75.16379, "label": "Philadelphia"}, {"Internal": 1, "Latitude": 40.44062, "Country": "United States", "id": 1, "Longitude": -79.99589, "label": "Pittsburgh"}, {"Internal": 1, "Latitude": 37.55376, "Country": "United States", "id": 2, "Longitude": -77.46026, "label": "Richmond"}, {"Internal": 1, "Latitude": 39.29038, "Country": "United States", "id": 3, "Longitude": -76.61219, "label": "Baltimore"}, {"Internal": 1, "Latitude": 42.35843, "Country": "United States", "id": 4, "Longitude": -71.05977, "label": "Boston"}, {"Internal": 1, "Latitude": 32.78306, "Country": "United States", "id": 5, "Longitude": -96.80667, "label": "Dallas"}, {"Internal": 1, "Latitude": 40.71427, "Country": "United States", "id": 6, "Longitude": -74.00597, "label": "New York"}, {"Internal": 1, "Latitude": 41.76371, "Country": "United States", "id": 7, "Longitude": -72.68509, "label": "Hartford"}, {"Internal": 1, "Latitude": 29.76328, "Country": "United States", "id": 8, "Longitude": -95.36327, "label": "Houston"}, {"Internal": 1, "Latitude": 33.749, "Country": "United States", "id": 9, "Longitude": -84.38798, "label": "Atlanta"}, {"Internal": 0, "id": 10, "label": "Hong Kong"}, {"Internal": 0, "id": 11, "label": "Barbados"}, {"Internal": 0, "id": 12, "label": "Vienna"}, {"Internal": 0, "id": 13, "label": "London"}, {"Internal": 0, "id": 14, "label": "Sydney"}, {"Internal": 0, "id": 15, "label": "Paris"}, {"Internal": 0, "id": 16, "label": "London"}, {"Internal": 0, "id": 17, "label": "Bahrain"}, {"Internal": 1, "Latitude": 26.12231, "Country": "United States", "id": 18, "Longitude": -80.14338, "label": "Fort Lauderdale"}, {"Internal": 1, "Latitude": 28.53834, "Country": "United States", "id": 19, "Longitude": -81.37924, "label": "Orlando"}, {"Internal": 1, "Latitude": 30.33218, "Country": "United States", "id": 20, "Longitude": -81.65565, "label": "Jacksonville"}, {"Internal": 1, "Latitude": 35.7721, "Country": "United States", "id": 21, "Longitude": -78.63861, "label": "Raleigh"}, {"Internal": 0, "id": 22, "label": "Barbados"}, {"Internal": 0, "id": 23, "label": "Frankfurt"}, {"Internal": 1, "Latitude": 27.94752, "Country": "United States", "id": 24, "Longitude": -82.45843, "label": "Tampa"}, {"Internal": 1, "Latitude": 25.77427, "Country": "United States", "id": 25, "Longitude": -80.19366, "label": "Miami"}, {"Internal": 1, "Latitude": 41.08144, "Country": "United States", "id": 26, "Longitude": -81.51901, "label": "Akron"}, {"Internal": 1, "Latitude": 40.44062, "Country": "United States", "id": 27, "Longitude": -79.99589, "label": "Pittsburgh"}, {"Internal": 0, "id": 28, "label": "Hong Kong"}, {"Internal": 0, "id": 29, "label": "Tokyo"}, {"Internal": 1, "Latitude": 37.77493, "Country": "United States", "id": 30, "Longitude": -122.41942, "label": "San Francisco"}, {"Internal": 1, "Latitude": 34.05223, "Country": "United States", "id": 31, "Longitude": -118.24368, "label": "Los Angeles"}, {"Internal": 1, "Latitude": 39.73915, "Country": "United States", "id": 32, "Longitude": -104.9847, "label": "Denver"}, {"Internal": 1, "Latitude": 39.11417, "Country": "United States", "id": 33, "Longitude": -94.62746, "label": "Kansas City"}, {"Internal": 1, "Latitude": 41.85003, "Country": "United States", "id": 34, "Longitude": -87.65005, "label": "Chicago"}, {"Internal": 1, "Latitude": 41.4995, "Country": "United States", "id": 35, "Longitude": -81.69541, "label": "Cleveland"}], "links": [{"LinkType": "DS-3", "source": 0, "LinkLabel": "45 Mbps DS-3", "LinkNote": "45 Mbps ", "target": 1}, {"LinkType": "DS-3", "source": 0, "LinkLabel": "45 Mbps DS-3", "LinkNote": "45 Mbps ", "target": 3}, {"LinkType": "DS-3", "source": 1, "LinkLabel": "45 Mbps DS-3", "LinkNote": "45 Mbps ", "target": 6}, {"LinkType": "DS-3", "source": 2, "LinkLabel": "45 Mbps DS-3", "LinkNote": "45 Mbps ", "target": 3}, {"LinkType": "DS-3", "source": 2, "LinkLabel": "45 Mbps DS-3", "LinkNote": "45 Mbps ", "target": 21}, {"LinkType": "DS-3", "source": 3, "LinkLabel": "45 Mbps DS-3", "LinkNote": "45 Mbps ", "target": 9}, {"source": 3, "id": "e22", "target": 10}, {"source": 3, "id": "e23", "target": 11}, {"source": 3, "id": "e16", "target": 12}, {"source": 3, "id": "e17", "target": 13}, {"source": 3, "id": "e18", "target": 14}, {"source": 3, "id": "e19", "target": 15}, {"LinkType": "DS-3", "source": 3, "LinkLabel": "45 Mbps DS-3", "LinkNote": "45 Mbps ", "target": 27}, {"LinkType": "DS-3", "source": 4, "LinkLabel": "45 Mbps DS-3", "LinkNote": "45 Mbps ", "target": 6}, {"LinkType": "DS-3", "source": 4, "LinkLabel": "45 Mbps DS-3", "LinkNote": "45 Mbps ", "target": 7}, {"LinkType": "DS-3", "source": 5, "LinkLabel": "45 Mbps DS-3", "LinkNote": "45 Mbps ", "target": 8}, {"LinkType": "DS-3", "source": 5, "LinkLabel": "45 Mbps DS-3", "LinkNote": "45 Mbps ", "target": 9}, {"LinkType": "DS-3", "source": 5, "LinkLabel": "45 Mbps DS-3", "LinkNote": "45 Mbps ", "target": 31}, {"LinkType": "DS-3", "source": 5, "LinkLabel": "45 Mbps DS-3", "LinkNote": "45 Mbps ", "target": 33}, {"LinkType": "DS-3", "source": 6, "LinkLabel": "45 Mbps DS-3", "LinkNote": "45 Mbps ", "target": 34}, {"LinkType": "DS-3", "source": 6, "LinkLabel": "45 Mbps DS-3", "LinkNote": "45 Mbps ", "target": 7}, {"source": 6, "id": "e31", "target": 16}, {"source": 6, "id": "e30", "target": 17}, {"source": 6, "id": "e29", "target": 22}, {"source": 6, "id": "e28", "target": 23}, {"LinkType": "DS-3", "source": 6, "LinkLabel": "45 Mbps DS-3", "LinkNote": "45 Mbps ", "target": 30}, {"LinkType": "DS-3", "source": 9, "LinkLabel": "45 Mbps DS-3", "LinkNote": "45 Mbps ", "target": 24}, {"LinkType": "DS-3", "source": 18, "LinkLabel": "45 Mbps DS-3", "LinkNote": "45 Mbps ", "target": 24}, {"LinkType": "DS-3", "source": 18, "LinkLabel": "45 Mbps DS-3", "LinkNote": "45 Mbps ", "target": 25}, {"LinkType": "DS-3", "source": 18, "LinkLabel": "45 Mbps DS-3", "LinkNote": "45 Mbps ", "target": 19}, {"LinkType": "DS-3", "source": 19, "LinkLabel": "45 Mbps DS-3", "LinkNote": "45 Mbps ", "target": 20}, {"LinkType": "DS-3", "source": 20, "LinkLabel": "45 Mbps DS-3", "LinkNote": "45 Mbps ", "target": 21}, {"LinkType": "DS-3", "source": 26, "LinkLabel": "45 Mbps DS-3", "LinkNote": "45 Mbps ", "target": 35}, {"LinkType": "DS-3", "source": 26, "LinkLabel": "45 Mbps DS-3", "LinkNote": "45 Mbps ", "target": 34}, {"LinkType": "DS-3", "source": 26, "LinkLabel": "45 Mbps DS-3", "LinkNote": "45 Mbps ", "target": 27}, {"source": 28, "id": "e0", "target": 30}, {"source": 29, "id": "e1", "target": 30}, {"LinkType": "DS-3", "source": 30, "LinkLabel": "45 Mbps DS-3", "LinkNote": "45 Mbps ", "target": 32}, {"LinkType": "DS-3", "source": 30, "LinkLabel": "45 Mbps DS-3", "LinkNote": "45 Mbps ", "target": 31}, {"LinkType": "DS-3", "source": 32, "LinkLabel": "45 Mbps DS-3", "LinkNote": "45 Mbps ", "target": 33}, {"LinkType": "DS-3", "source": 33, "LinkLabel": "45 Mbps DS-3", "LinkNote": "45 Mbps ", "target": 34}], "multigraph": true}