{"directed": false, "graph": [["Customer", 1], ["GeoLocation", "Czech Republic"], ["GeoExtent", "Country"], ["DateModifier", "="], ["Network", "Dial Telecom "], ["IX", 0], ["Provenance", "Primary"], ["Note", "Some node junctions unclear"], ["Source", "http://www.dialtelecom.cz/en/map.php"], ["Version", "1.0"], ["DateMonth", "08"], ["DateYear", "2010"], ["DateType", "Current"], ["LastAccess", "3/08/10"], ["Access", 1], ["Layer", "Fibre"], ["Creator", "Topology Zoo Toolset"], ["Type", "COM"], ["SourceGitVersion", "e278b1b"], ["Backbone", 1], ["Commercial", 0], ["NetworkDate", "2010_08"], ["label", "DialtelecomCz"], ["LastProcessed", "2011_09_01"], ["Testbed", 0], ["Developed", 1], ["ToolsetVersion", "0.3.34dev-20120328"], ["Transit", 1]], "nodes": [{"Internal": 1, "Latitude": 49.77984, "Country": "Czech Republic", "id": 0, "Longitude": 18.43688, "label": "Havifov"}, {"Internal": 1, "Latitude": 49.83465, "Country": "Czech Republic", "id": 1, "Longitude": 18.28204, "label": "Ostrava"}, {"Internal": 1, "Latitude": 49.65798, "Country": "Czech Republic", "id": 2, "Longitude": 18.28, "label": "Chlebovice"}, {"Internal": 1, "Latitude": 49.68333, "Country": "Czech Republic", "id": 3, "Longitude": 18.35, "label": "Frydek Mistek"}, {"Internal": 1, "geocode_id": "3074500", "Latitude": 49.62141, "Country": "Czech Republic", "id": 4, "Longitude": 18.40602, "label": "Janovice"}, {"Internal": 1, "Latitude": 49.70238, "Country": "Czech Republic", "id": 5, "Longitude": 18.53846, "label": "Tranovice"}, {"Internal": 1, "Latitude": 49.74613, "Country": "Czech Republic", "id": 6, "Longitude": 18.62613, "label": "Cesky Tusin"}, {"Internal": 1, "id": 7, "label": "Warsaw"}, {"Internal": 1, "Latitude": 49.84452, "Country": "Czech Republic", "id": 8, "Longitude": 18.49166, "label": "Karvina"}, {"Internal": 1, "Latitude": 49.67763, "Country": "Czech Republic", "id": 9, "Longitude": 18.67078, "label": "Trinec"}, {"Internal": 1, "Latitude": 50.68551, "Country": "Czech Republic", "id": 10, "Longitude": 14.53764, "label": "Ceska Lipa"}, {"Internal": 1, "Latitude": 50.6607, "Country": "Czech Republic", "id": 11, "Longitude": 14.03227, "label": "Usti nad Labem"}, {"Internal": 1, "Latitude": 50.95151, "Country": "Czech Republic", "id": 12, "Longitude": 14.55699, "label": "Rumburk"}, {"Internal": 1, "Latitude": 50.78215, "Country": "Czech Republic", "id": 13, "Longitude": 14.21478, "label": "Decin"}, {"Internal": 1, "Latitude": 50.5272, "Country": "Czech Republic", "id": 14, "Longitude": 14.97134, "label": "Mnichovo Hradiste"}, {"Internal": 1, "Latitude": 50.6404, "Country": "Czech Republic", "id": 15, "Longitude": 13.82451, "label": "Teplice"}, {"Internal": 1, "Latitude": 50.3505, "Country": "Czech Republic", "id": 16, "Longitude": 14.47411, "label": "Melnik"}, {"Internal": 1, "Latitude": 50.41135, "Country": "Czech Republic", "id": 17, "Longitude": 14.90318, "label": "Mlada Boleslav"}, {"Internal": 1, "Latitude": 50.6042, "Country": "Czech Republic", "id": 18, "Longitude": 13.61812, "label": "Litvinov"}, {"Internal": 1, "Latitude": 50.5792, "Country": "Czech Republic", "id": 19, "Longitude": 13.41654, "label": "Hora Sv. Kateriny"}, {"Internal": 1, "Latitude": 49.4627, "Country": "Czech Republic", "id": 20, "Longitude": 13.7406, "label": "Kasejovice"}, {"Internal": 1, "Latitude": 49.23106, "Country": "Czech Republic", "id": 21, "Longitude": 13.52018, "label": "Susice"}, {"Internal": 1, "Latitude": 49.68988, "Country": "Czech Republic", "id": 22, "Longitude": 14.01043, "label": "Pribram"}, {"Internal": 1, "geocode_id": "3076031", "Latitude": 49.67263, "Country": "Czech Republic", "id": 23, "Longitude": 14.04735, "label": "Haje"}, {"Internal": 1, "Latitude": 49.39552, "Country": "Czech Republic", "id": 24, "Longitude": 13.29505, "label": "Klatovy"}, {"Internal": 1, "Latitude": 49.6, "Country": "Czech Republic", "id": 25, "Longitude": 12.81667, "label": "Melnice"}, {"Internal": 1, "Latitude": 49.38333, "Country": "Czech Republic", "id": 26, "Longitude": 13.58333, "label": "Strazovice"}, {"Internal": 1, "geocode_id": "3074877", "Latitude": 49.4771, "Country": "Czech Republic", "id": 27, "Longitude": 13.34822, "label": "Hraz"}, {"Internal": 1, "geocode_id": "3077565", "Latitude": 49.33319, "Country": "Czech Republic", "id": 28, "Longitude": 13.89704, "label": "Chrastovice"}, {"Internal": 1, "Latitude": 49.96382, "Country": "Czech Republic", "id": 29, "Longitude": 14.072, "label": "Beroun"}, {"Internal": 1, "geocode_id": "3076124", "Latitude": 50.92139, "Country": "Czech Republic", "id": 30, "Longitude": 15.07974, "label": "Frydlant"}, {"Internal": 1, "Latitude": 50.76711, "Country": "Czech Republic", "id": 31, "Longitude": 15.05619, "label": "Liberec"}, {"Internal": 1, "Latitude": 50.43172, "Country": "Czech Republic", "id": 32, "Longitude": 15.81402, "label": "Dvur Kralove nad Labem"}, {"Internal": 1, "Latitude": 50.43723, "Country": "Czech Republic", "id": 33, "Longitude": 15.35162, "label": "Jicin"}, {"Internal": 1, "Latitude": 50.72431, "Country": "Czech Republic", "id": 34, "Longitude": 15.17108, "label": "Jablonec nad Nisou"}, {"Internal": 1, "Latitude": 50.56101, "Country": "Czech Republic", "id": 35, "Longitude": 15.9127, "label": "Trutnov"}, {"Internal": 1, "id": 36, "label": "Bratislava"}, {"Internal": 1, "Latitude": 48.84893, "Country": "Czech Republic", "id": 37, "Longitude": 17.13244, "label": "Hodonin"}, {"Internal": 1, "Latitude": 50.43333, "Country": "Czech Republic", "id": 38, "Longitude": 15.4, "label": "Robousy"}, {"Internal": 1, "id": 39, "label": "Rajka"}, {"Internal": 1, "Latitude": 49.27747, "Country": "Czech Republic", "id": 40, "Longitude": 16.99897, "label": "Vyskov"}, {"Internal": 1, "Latitude": 49.47188, "Country": "Czech Republic", "id": 41, "Longitude": 17.11184, "label": "Proslejov"}, {"Internal": 1, "Latitude": 49.19522, "Country": "Czech Republic", "id": 42, "Longitude": 16.60796, "label": "Brno3"}, {"Internal": 1, "Latitude": 49.36304, "Country": "Czech Republic", "id": 43, "Longitude": 16.64446, "label": "Blansko"}, {"Internal": 1, "Latitude": 49.3298, "Country": "Czech Republic", "id": 44, "Longitude": 17.33479, "label": "Bezmerov"}, {"Internal": 1, "Latitude": 49.37715, "Country": "Czech Republic", "id": 45, "Longitude": 17.40206, "label": "Kyselovice"}, {"Internal": 1, "Latitude": 49.59552, "Country": "Czech Republic", "id": 46, "Longitude": 17.25175, "label": "Olomouc"}, {"Internal": 1, "Latitude": 49.39546, "Country": "Czech Republic", "id": 47, "Longitude": 17.29192, "label": "Lobodice"}, {"Internal": 1, "Latitude": 49.45511, "Country": "Czech Republic", "id": 48, "Longitude": 17.4509, "label": "Prerov"}, {"Internal": 1, "geocode_id": "3068856", "Latitude": 49.51121, "Country": "Czech Republic", "id": 49, "Longitude": 17.52829, "label": "Osek"}, {"Internal": 1, "Latitude": 49.1843, "Country": "Czech Republic", "id": 50, "Longitude": 14.69734, "label": "Veself nad Luznici"}, {"Internal": 1, "Latitude": 48.97447, "Country": "Czech Republic", "id": 51, "Longitude": 14.47434, "label": "Ceske Budejovice"}, {"Internal": 1, "Latitude": 49.01292, "Country": "Czech Republic", "id": 52, "Longitude": 13.99752, "label": "Prachatice"}, {"Internal": 1, "Latitude": 49.18333, "Country": "Czech Republic", "id": 53, "Longitude": 14.31667, "label": "Horami"}, {"Internal": 1, "Latitude": 49.26141, "Country": "Czech Republic", "id": 54, "Longitude": 13.90237, "label": "Strakonice"}, {"Internal": 1, "Latitude": 49.3088, "Country": "Czech Republic", "id": 55, "Longitude": 14.1475, "label": "Pisek"}, {"Internal": 1, "Latitude": 49.2, "Country": "Czech Republic", "id": 56, "Longitude": 14.46667, "label": "Tritim"}, {"Internal": 1, "Latitude": 49.19283, "Country": "Czech Republic", "id": 57, "Longitude": 14.34874, "label": "Termelin"}, {"Internal": 1, "Latitude": 49.21667, "Country": "Czech Republic", "id": 58, "Longitude": 14.15, "label": "Budicovice"}, {"Internal": 1, "Latitude": 49.19758, "Country": "Czech Republic", "id": 59, "Longitude": 14.40702, "label": "Zverkovice"}, {"Internal": 1, "Latitude": 49.96414, "Country": "Czech Republic", "id": 60, "Longitude": 14.63293, "label": "Jazlovice"}, {"Internal": 1, "geocode_id": "3061976", "Latitude": 49.89651, "Country": "Czech Republic", "id": 61, "Longitude": 14.68237, "label": "Zajecice"}, {"Internal": 1, "Latitude": 50.30688, "Country": "Czech Republic", "id": 62, "Longitude": 14.17176, "label": "Hospozin"}, {"Internal": 1, "Latitude": 50.27795, "Country": "Czech Republic", "id": 63, "Longitude": 14.3686, "label": "Zlosyn"}, {"Internal": 1, "Latitude": 50.30198, "Country": "Czech Republic", "id": 64, "Longitude": 14.31554, "label": "Nove Ouholice"}, {"Internal": 1, "Latitude": 50.24107, "Country": "Czech Republic", "id": 65, "Longitude": 14.31149, "label": "Kralupy n. Vit."}, {"Internal": 1, "Latitude": 50.17485, "Country": "Czech Republic", "id": 66, "Longitude": 13.73158, "label": "Krupa"}, {"Internal": 1, "Latitude": 50.08804, "Country": "Czech Republic", "id": 67, "Longitude": 14.42076, "label": "Praha"}, {"Internal": 1, "Latitude": 50.14734, "Country": "Czech Republic", "id": 68, "Longitude": 14.10285, "label": "Kladno"}, {"Internal": 1, "geocode_id": "3076016", "Latitude": 50.05108, "Country": "Czech Republic", "id": 69, "Longitude": 14.62812, "label": "Hajek"}, {"Internal": 1, "geocode_id": "3067158", "Latitude": 50.14306, "Country": "Czech Republic", "id": 70, "Longitude": 14.61026, "label": "Radonice"}, {"Internal": 1, "Latitude": 50.08478, "Country": "Czech Republic", "id": 71, "Longitude": 14.7695, "label": "Tuklaty"}, {"Internal": 1, "Latitude": 50.05909, "Country": "Czech Republic", "id": 72, "Longitude": 14.79017, "label": "Limuzy"}, {"Internal": 1, "Latitude": 50.00306, "Country": "Czech Republic", "id": 73, "Longitude": 14.97703, "label": "KS Kourim"}, {"Internal": 1, "Latitude": 50.18605, "Country": "Czech Republic", "id": 74, "Longitude": 15.04167, "label": "Nymburk"}, {"Internal": 1, "Latitude": 50.14242, "Country": "Czech Republic", "id": 75, "Longitude": 15.11881, "label": "Podebrady"}, {"Internal": 1, "Latitude": 50.02814, "Country": "Czech Republic", "id": 76, "Longitude": 15.20057, "label": "Kolin"}, {"Internal": 1, "Latitude": 49.91099, "Country": "Czech Republic", "id": 77, "Longitude": 15.38972, "label": "Caslav"}, {"Internal": 1, "id": 78, "label": "Frankfurt"}, {"Internal": 1, "Latitude": 50.19108, "Country": "Czech Republic", "id": 79, "Longitude": 14.59268, "label": "Brazdim"}, {"Internal": 1, "Latitude": 50.24205, "Country": "Czech Republic", "id": 80, "Longitude": 13.94355, "label": "Pozden"}, {"Internal": 1, "Latitude": 50.32717, "Country": "Czech Republic", "id": 81, "Longitude": 13.54577, "label": "Zatec"}, {"Internal": 1, "Latitude": 50.46667, "Country": "Czech Republic", "id": 82, "Longitude": 13.6, "label": "Bylany"}, {"Internal": 1, "Latitude": 50.46048, "Country": "Czech Republic", "id": 83, "Longitude": 13.41779, "label": "Chomutov"}, {"Internal": 1, "Latitude": 50.49979, "Country": "Czech Republic", "id": 84, "Longitude": 13.44769, "label": "Jirkov"}, {"Internal": 1, "Latitude": 50.632, "Country": "Czech Republic", "id": 85, "Longitude": 13.39072, "label": "Brandov"}, {"Internal": 1, "Latitude": 50.35699, "Country": "Czech Republic", "id": 86, "Longitude": 13.79667, "label": "Louny"}, {"Internal": 1, "Latitude": 50.36138, "Country": "Czech Republic", "id": 87, "Longitude": 13.84521, "label": "Cerncice"}, {"Internal": 1, "Latitude": 50.37182, "Country": "Czech Republic", "id": 88, "Longitude": 13.8878, "label": "Pocedelice"}, {"Internal": 1, "Latitude": 50.50301, "Country": "Czech Republic", "id": 89, "Longitude": 13.63617, "label": "Most"}, {"Internal": 1, "Latitude": 49.75294, "Country": "Czech Republic", "id": 90, "Longitude": 13.00409, "label": "Stribro"}, {"Internal": 1, "Latitude": 49.83333, "Country": "Czech Republic", "id": 91, "Longitude": 13.05, "label": "Svinomazy"}, {"Internal": 1, "Latitude": 49.93449, "Country": "Czech Republic", "id": 92, "Longitude": 13.39035, "label": "Plasy"}, {"Internal": 1, "Latitude": 49.74747, "Country": "Czech Republic", "id": 93, "Longitude": 13.37759, "label": "Plzen"}, {"Internal": 1, "Latitude": 49.66817, "Country": "Czech Republic", "id": 94, "Longitude": 12.55188, "label": "Rozvadov"}, {"geocode_append": "Plzensky Kraj", "Internal": 1, "Latitude": 49.71159, "Country": "Czech Republic", "id": 95, "Longitude": 12.77516, "label": "Bor"}, {"Internal": 1, "Latitude": 49.79528, "Country": "Czech Republic", "id": 96, "Longitude": 12.63365, "label": "Tachov"}, {"Internal": 1, "geocode_id": "3068694", "Latitude": 49.76667, "Country": "Czech Republic", "id": 97, "Longitude": 12.95, "label": "Otrocin"}, {"Internal": 1, "geocode_id": "3063924", "Latitude": 48.98676, "Country": "Czech Republic", "id": 98, "Longitude": 16.19542, "label": "Trstenice"}, {"Internal": 1, "Latitude": 49.7427, "Country": "Czech Republic", "id": 99, "Longitude": 13.59459, "label": "Rokycany"}, {"Internal": 1, "Latitude": 49.53403, "Country": "Czech Republic", "id": 100, "Longitude": 13.07458, "label": "Hlohova"}, {"Internal": 1, "geocode_id": "7670509", "Latitude": 48.76524, "Country": "Czech Republic", "id": 101, "Longitude": 16.06682, "label": "Hate"}, {"Internal": 1, "Latitude": 50.1037, "Country": "Czech Republic", "id": 102, "Longitude": 13.7334, "label": "Rakovnik"}, {"Internal": 1, "Latitude": 50.087, "Country": "Czech Republic", "id": 103, "Longitude": 13.53258, "label": "Sosen"}, {"Internal": 1, "Latitude": 50.23271, "Country": "Czech Republic", "id": 104, "Longitude": 12.87117, "label": "Karlovy Vary"}, {"Internal": 1, "Latitude": 50.30592, "Country": "Czech Republic", "id": 105, "Longitude": 12.93907, "label": "Ostrov"}, {"Internal": 1, "Latitude": 49.96459, "Country": "Czech Republic", "id": 106, "Longitude": 12.70118, "label": "Marianske Lazne"}, {"Internal": 1, "Latitude": 50.22387, "Country": "Czech Republic", "id": 107, "Longitude": 12.19499, "label": "As"}, {"Internal": 1, "Latitude": 50.07963, "Country": "Czech Republic", "id": 108, "Longitude": 12.37392, "label": "Cheb"}, {"Internal": 1, "Latitude": 50.1813, "Country": "Czech Republic", "id": 109, "Longitude": 12.6401, "label": "Sokolov"}, {"geocode_append": "Plzensky Kraj", "Internal": 1, "Latitude": 49.98524, "Country": "Czech Republic", "id": 110, "Longitude": 13.36439, "label": "Mladotice"}, {"Internal": 1, "Latitude": 49.29785, "Country": "Czech Republic", "id": 111, "Longitude": 17.39312, "label": "Kromeriz"}, {"Internal": 1, "Latitude": 49.97387, "Country": "Czech Republic", "id": 112, "Longitude": 16.39361, "label": "Ust nad Orlicl"}, {"Internal": 1, "Latitude": 49.86809, "Country": "Czech Republic", "id": 113, "Longitude": 16.31298, "label": "Litomysl"}, {"Internal": 1, "Latitude": 49.89795, "Country": "Czech Republic", "id": 114, "Longitude": 18.19196, "label": "Hlucin"}, {"Internal": 1, "Latitude": 49.93866, "Country": "Czech Republic", "id": 115, "Longitude": 17.90257, "label": "Opava"}, {"Internal": 1, "Latitude": 50.08967, "Country": "Czech Republic", "id": 116, "Longitude": 17.70385, "label": "Krnov"}, {"Internal": 1, "Latitude": 49.98844, "Country": "Czech Republic", "id": 117, "Longitude": 17.4647, "label": "Bruntal"}, {"Internal": 1, "Latitude": 49.77092, "Country": "Czech Republic", "id": 118, "Longitude": 17.12144, "label": "Unicov"}, {"Internal": 1, "Latitude": 50.24161, "Country": "Czech Republic", "id": 119, "Longitude": 17.18811, "label": "Jesenik"}, {"Internal": 1, "Latitude": 49.75594, "Country": "Czech Republic", "id": 120, "Longitude": 16.46829, "label": "Svitavy"}, {"Internal": 1, "Latitude": 49.96528, "Country": "Czech Republic", "id": 121, "Longitude": 16.97061, "label": "Sumperk"}, {"Internal": 1, "Latitude": 49.74323, "Country": "Czech Republic", "id": 122, "Longitude": 14.7901, "label": "Jemniste"}, {"Internal": 1, "Latitude": 49.78162, "Country": "Czech Republic", "id": 123, "Longitude": 14.68697, "label": "Benesov"}, {"Internal": 1, "Latitude": 49.6174, "Country": "Czech Republic", "id": 124, "Longitude": 14.6577, "label": "Hostisov"}, {"Internal": 1, "Latitude": 49.63267, "Country": "Czech Republic", "id": 125, "Longitude": 14.79212, "label": "Zvestov"}, {"Internal": 1, "geocode_id": "3076543", "Latitude": 49.63333, "Country": "Czech Republic", "id": 126, "Longitude": 14.41667, "label": "Doubravice"}, {"Internal": 1, "Latitude": 49.64013, "Country": "Czech Republic", "id": 127, "Longitude": 14.63809, "label": "Votice"}, {"Internal": 1, "geocode_id": "3073881", "Latitude": 49.63902, "Country": "Czech Republic", "id": 128, "Longitude": 14.25344, "label": "Kamyk"}, {"Internal": 1, "geocode_id": "3078529", "Latitude": 49.68333, "Country": "Czech Republic", "id": 129, "Longitude": 14.3, "label": "Brzina"}, {"Internal": 1, "Latitude": 49.41441, "Country": "Czech Republic", "id": 130, "Longitude": 14.6578, "label": "Tabor"}, {"Internal": 1, "geocode_id": "3063277", "Latitude": 49.66102, "Country": "Czech Republic", "id": 131, "Longitude": 14.25116, "label": "Velka"}, {"Internal": 1, "Latitude": 49.91454, "Country": "Czech Republic", "id": 132, "Longitude": 15.08576, "label": "Jindice"}, {"Internal": 1, "Latitude": 49.94839, "Country": "Czech Republic", "id": 133, "Longitude": 15.26816, "label": "Kutna Hora"}, {"Internal": 1, "geocode_id": "3062466", "Latitude": 49.75, "Country": "Czech Republic", "id": 134, "Longitude": 15.38333, "label": "Vrbice"}, {"Internal": 1, "geocode_id": "3062893", "Latitude": 49.85, "Country": "Czech Republic", "id": 135, "Longitude": 15.26667, "label": "Vilemovice"}, {"Internal": 1, "Latitude": 49.95109, "Country": "Czech Republic", "id": 136, "Longitude": 15.79558, "label": "Chrudim"}, {"Internal": 1, "geocode_id": "3069040", "Latitude": 49.68157, "Country": "Czech Republic", "id": 137, "Longitude": 15.54768, "label": "Olesna"}, {"Internal": 1, "Latitude": 50.20923, "Country": "Czech Republic", "id": 138, "Longitude": 15.83277, "label": "Hradec Kralove"}, {"Internal": 1, "Latitude": 50.04075, "Country": "Czech Republic", "id": 139, "Longitude": 15.77659, "label": "Pardubice"}, {"Internal": 1, "Latitude": 50.16284, "Country": "Czech Republic", "id": 140, "Longitude": 16.27488, "label": "Rychnov nad Kneznou"}, {"Internal": 1, "Latitude": 50.4167, "Country": "Czech Republic", "id": 141, "Longitude": 16.16289, "label": "Nachod"}, {"Internal": 1, "Latitude": 48.8555, "Country": "Czech Republic", "id": 142, "Longitude": 16.0488, "label": "Znojmo"}, {"Internal": 1, "geocode_id": "3075064", "Latitude": 49.01859, "Country": "Czech Republic", "id": 143, "Longitude": 15.89489, "label": "KS Hostim"}, {"hyperedge": 1, "Internal": 1, "id": 144, "label": "None"}, {"hyperedge": 1, "Internal": 1, "id": 145, "label": "None"}, {"hyperedge": 1, "Internal": 1, "id": 146, "label": "None"}, {"Internal": 1, "Latitude": 48.90469, "Country": "Czech Republic", "id": 147, "Longitude": 16.81605, "label": "V. Pavlovice"}, {"Internal": 1, "Latitude": 48.94085, "Country": "Czech Republic", "id": 148, "Longitude": 16.73762, "label": "Hustopece"}, {"Internal": 1, "Latitude": 48.75897, "Country": "Czech Republic", "id": 149, "Longitude": 16.88203, "label": "Breclav"}, {"Internal": 1, "Latitude": 48.72443, "Country": "Czech Republic", "id": 150, "Longitude": 16.96695, "label": "Lanzhot"}, {"Internal": 1, "Latitude": 49.10144, "Country": "Czech Republic", "id": 151, "Longitude": 16.37752, "label": "Ivancice"}, {"Internal": 1, "Latitude": 49.02359, "Country": "Czech Republic", "id": 152, "Longitude": 16.50129, "label": "Malesovice"}, {"Internal": 1, "geocode_id": "3063741", "Latitude": 48.9678, "Country": "Czech Republic", "id": 153, "Longitude": 16.65344, "label": "Uhercice - V.Nemcice"}, {"Internal": 1, "Latitude": 48.85447, "Country": "Czech Republic", "id": 154, "Longitude": 16.59283, "label": "Dolni Dunajovice"}, {"Internal": 1, "Latitude": 48.76048, "Country": "Czech Republic", "id": 155, "Longitude": 16.99446, "label": "Tvrdonice"}, {"Internal": 1, "Latitude": 48.90413, "Country": "Czech Republic", "id": 156, "Longitude": 17.02917, "label": "Mutenico"}, {"Internal": 1, "Latitude": 49.59947, "Country": "Czech Republic", "id": 157, "Longitude": 18.1448, "label": "Kopfivnice"}, {"Internal": 1, "id": 158, "label": "None"}, {"Internal": 1, "geocode_id": "3078425", "Latitude": 49.04217, "Country": "Czech Republic", "id": 159, "Longitude": 17.10085, "label": "Bukovany"}, {"geocode_append": "Zlinsky Kraj", "Internal": 1, "Latitude": 49.07515, "Country": "Czech Republic", "id": 160, "Longitude": 17.43338, "label": "Stare Mesto"}, {"Internal": 1, "Latitude": 49.21667, "Country": "Czech Republic", "id": 161, "Longitude": 17.66667, "label": "Zlin"}, {"Internal": 1, "Latitude": 49.54796, "Country": "Czech Republic", "id": 162, "Longitude": 17.73469, "label": "Hranice"}, {"Internal": 1, "Latitude": 49.59438, "Country": "Czech Republic", "id": 163, "Longitude": 18.01028, "label": "Novy Jicin"}, {"Internal": 1, "Latitude": 49.62417, "Country": "Czech Republic", "id": 164, "Longitude": 18.07431, "label": "Libhost"}, {"Internal": 1, "Latitude": 49.47181, "Country": "Czech Republic", "id": 165, "Longitude": 17.97113, "label": "Valasske Mezihcl"}, {"Internal": 1, "Latitude": 49.33871, "Country": "Czech Republic", "id": 166, "Longitude": 17.99619, "label": "Vsetin"}, {"hyperedge": 1, "Internal": 1, "id": 167, "label": "None"}, {"hyperedge": 1, "Internal": 1, "id": 168, "label": "None"}, {"hyperedge": 1, "Internal": 1, "id": 169, "label": "None"}, {"hyperedge": 1, "Internal": 1, "id": 170, "label": "None"}, {"hyperedge": 1, "Internal": 1, "id": 171, "label": "None"}, {"hyperedge": 1, "Internal": 1, "id": 172, "label": "None"}, {"hyperedge": 1, "Internal": 1, "id": 173, "label": "None"}, {"Internal": 1, "Latitude": 48.81091, "Country": "Czech Republic", "id": 174, "Longitude": 14.31521, "label": "Cesky Krumlov"}, {"Internal": 1, "Latitude": 49.44049, "Country": "Czech Republic", "id": 175, "Longitude": 12.92976, "label": "Domazice"}, {"Internal": 1, "Latitude": 49.21492, "Country": "Czech Republic", "id": 176, "Longitude": 15.88166, "label": "Trebic"}, {"Internal": 1, "Latitude": 49.19522, "Country": "Czech Republic", "id": 177, "Longitude": 16.60796, "label": "Brno1"}, {"Internal": 1, "Latitude": 49.19522, "Country": "Czech Republic", "id": 178, "Longitude": 16.60796, "label": "Brno2"}, {"Internal": 1, "Latitude": 49.09401, "Country": "Czech Republic", "id": 179, "Longitude": 15.60405, "label": "Kninice"}, {"Internal": 1, "Latitude": 49.08154, "Country": "Czech Republic", "id": 180, "Longitude": 15.43727, "label": "Dacice"}, {"Internal": 1, "Latitude": 49.26667, "Country": "Czech Republic", "id": 181, "Longitude": 15.28333, "label": "Hefmanec"}, {"Internal": 1, "Latitude": 49.14404, "Country": "Czech Republic", "id": 182, "Longitude": 15.00301, "label": "Jindnchuv Hradec"}, {"Internal": 1, "Latitude": 49.20154, "Country": "Czech Republic", "id": 183, "Longitude": 15.00331, "label": "Dolni Radoun"}, {"Internal": 1, "Latitude": 48.17444, "Country": "Slovakia", "id": 184, "Longitude": 16.98418, "label": "Thebon"}, {"Internal": 1, "Latitude": 49.43134, "Country": "Czech Republic", "id": 185, "Longitude": 15.22336, "label": "Pelhrimov"}, {"Internal": 1, "Latitude": 49.3961, "Country": "Czech Republic", "id": 186, "Longitude": 15.59124, "label": "Jihlava"}, {"Internal": 1, "Latitude": 49.55, "Country": "Czech Republic", "id": 187, "Longitude": 15.68333, "label": "Sachotin"}, {"Internal": 1, "Latitude": 49.60785, "Country": "Czech Republic", "id": 188, "Longitude": 15.58069, "label": "Haclickuv Brod"}, {"Internal": 1, "Latitude": 49.56263, "Country": "Czech Republic", "id": 189, "Longitude": 15.93924, "label": "zdar nad Sazavou"}, {"geocode_append": "Vysocina", "Internal": 1, "Latitude": 49.42608, "Country": "Czech Republic", "id": 190, "Longitude": 15.86383, "label": "Cerna"}, {"Internal": 1, "Latitude": 49.3463, "Country": "Czech Republic", "id": 191, "Longitude": 16.09146, "label": "Brezejc"}, {"Internal": 1, "geocode_id": "3072956", "Latitude": 49.2, "Country": "Czech Republic", "id": 192, "Longitude": 16.2, "label": "Kralice"}], "links": [{"source": 1, "id": "e34", "target": 115}, {"source": 1, "id": "e35", "target": 171}, {"source": 2, "id": "e28", "target": 164}, {"source": 2, "id": "e30", "target": 171}, {"source": 2, "id": "e29", "target": 4}, {"source": 4, "id": "e31", "target": 5}, {"source": 6, "id": "e32", "target": 171}, {"source": 6, "id": "e33", "target": 7}, {"source": 10, "id": "e112", "target": 11}, {"source": 10, "id": "e111", "target": 31}, {"source": 11, "id": "e113", "target": 89}, {"source": 19, "id": "e115", "target": 84}, {"source": 19, "id": "e114", "target": 85}, {"source": 20, "id": "e69", "target": 26}, {"source": 20, "id": "e70", "target": 23}, {"source": 22, "id": "e72", "target": 29}, {"source": 23, "id": "e71", "target": 131}, {"source": 25, "id": "e65", "target": 100}, {"source": 25, "id": "e56", "target": 94}, {"source": 26, "id": "e68", "target": 28}, {"source": 26, "id": "e67", "target": 27}, {"source": 27, "id": "e66", "target": 100}, {"source": 28, "id": "e75", "target": 58}, {"source": 29, "id": "e73", "target": 67}, {"source": 29, "id": "e74", "target": 68}, {"source": 30, "id": "e110", "target": 31}, {"source": 31, "id": "e109", "target": 34}, {"source": 31, "id": "e107", "target": 38}, {"source": 33, "id": "e108", "target": 38}, {"source": 36, "id": "e102", "target": 150}, {"source": 36, "id": "e106", "target": 39}, {"source": 37, "id": "e23", "target": 160}, {"source": 37, "id": "e100", "target": 149}, {"source": 38, "id": "e41", "target": 138}, {"source": 40, "id": "e13", "target": 41}, {"source": 40, "id": "e12", "target": 42}, {"source": 41, "id": "e14", "target": 46}, {"source": 42, "id": "e10", "target": 178}, {"source": 42, "id": "e11", "target": 146}, {"source": 44, "id": "e16", "target": 47}, {"source": 44, "id": "e17", "target": 45}, {"source": 44, "id": "e18", "target": 159}, {"source": 45, "id": "e19", "target": 49}, {"source": 46, "id": "e15", "target": 172}, {"source": 49, "id": "e20", "target": 172}, {"source": 50, "id": "e81", "target": 56}, {"source": 50, "id": "e83", "target": 51}, {"source": 50, "id": "e84", "target": 183}, {"source": 53, "id": "e77", "target": 169}, {"source": 53, "id": "e78", "target": 58}, {"source": 55, "id": "e76", "target": 58}, {"source": 56, "id": "e79", "target": 59}, {"source": 57, "id": "e82", "target": 169}, {"source": 59, "id": "e80", "target": 169}, {"source": 60, "id": "e135", "target": 168}, {"source": 61, "id": "e137", "target": 168}, {"source": 61, "id": "e136", "target": 122}, {"source": 62, "id": "e125", "target": 80}, {"source": 62, "id": "e126", "target": 64}, {"source": 62, "id": "e123", "target": 88}, {"source": 62, "id": "e127", "target": 145}, {"source": 63, "id": "e128", "target": 64}, {"source": 63, "id": "e54", "target": 79}, {"source": 65, "id": "e129", "target": 145}, {"source": 66, "id": "e124", "target": 80}, {"source": 66, "id": "e130", "target": 103}, {"source": 67, "id": "e131", "target": 68}, {"source": 67, "id": "e132", "target": 69}, {"source": 67, "id": "e50", "target": 70}, {"source": 67, "id": "e52", "target": 79}, {"source": 67, "id": "e133", "target": 145}, {"source": 69, "id": "e134", "target": 168}, {"source": 70, "id": "e51", "target": 144}, {"source": 71, "id": "e48", "target": 72}, {"source": 71, "id": "e49", "target": 144}, {"source": 72, "id": "e47", "target": 73}, {"source": 73, "id": "e46", "target": 132}, {"source": 78, "id": "e55", "target": 94}, {"source": 79, "id": "e53", "target": 144}, {"source": 82, "id": "e121", "target": 88}, {"source": 82, "id": "e120", "target": 89}, {"source": 82, "id": "e119", "target": 83}, {"source": 82, "id": "e117", "target": 84}, {"source": 83, "id": "e118", "target": 104}, {"source": 83, "id": "e116", "target": 84}, {"source": 87, "id": "e122", "target": 88}, {"source": 90, "id": "e60", "target": 167}, {"source": 90, "id": "e61", "target": 93}, {"source": 90, "id": "e58", "target": 95}, {"source": 91, "id": "e62", "target": 170}, {"source": 91, "id": "e63", "target": 167}, {"source": 93, "id": "e64", "target": 170}, {"source": 94, "id": "e57", "target": 95}, {"source": 97, "id": "e59", "target": 167}, {"source": 98, "id": "e91", "target": 152}, {"source": 98, "id": "e89", "target": 143}, {"source": 101, "id": "e90", "target": 151}, {"source": 103, "id": "e149", "target": 110}, {"source": 104, "id": "e147", "target": 109}, {"source": 106, "id": "e146", "target": 108}, {"source": 106, "id": "e148", "target": 167}, {"source": 108, "id": "e145", "target": 109}, {"source": 110, "id": "e150", "target": 170}, {"source": 112, "id": "e39", "target": 121}, {"source": 112, "id": "e40", "target": 138}, {"source": 114, "id": "e36", "target": 115}, {"source": 115, "id": "e37", "target": 117}, {"source": 117, "id": "e38", "target": 121}, {"source": 122, "id": "e138", "target": 125}, {"source": 124, "id": "e139", "target": 125}, {"source": 124, "id": "e141", "target": 126}, {"source": 124, "id": "e140", "target": 127}, {"source": 126, "id": "e142", "target": 129}, {"source": 128, "id": "e143", "target": 129}, {"source": 128, "id": "e144", "target": 131}, {"source": 132, "id": "e45", "target": 135}, {"source": 134, "id": "e43", "target": 137}, {"source": 134, "id": "e44", "target": 135}, {"source": 137, "id": "e4", "target": 187}, {"source": 138, "id": "e42", "target": 139}, {"source": 139, "id": "e3", "target": 187}, {"source": 143, "id": "e88", "target": 179}, {"source": 143, "id": "e1", "target": 186}, {"source": 146, "id": "e95", "target": 152}, {"source": 146, "id": "e8", "target": 177}, {"source": 146, "id": "e92", "target": 151}, {"source": 147, "id": "e98", "target": 148}, {"source": 147, "id": "e99", "target": 149}, {"source": 148, "id": "e97", "target": 153}, {"source": 149, "id": "e101", "target": 173}, {"source": 150, "id": "e103", "target": 173}, {"source": 151, "id": "e93", "target": 152}, {"source": 151, "id": "e7", "target": 192}, {"source": 152, "id": "e94", "target": 153}, {"source": 153, "id": "e96", "target": 154}, {"source": 155, "id": "e104", "target": 156}, {"source": 155, "id": "e105", "target": 173}, {"source": 156, "id": "e24", "target": 159}, {"source": 158, "id": "e27", "target": 164}, {"source": 160, "id": "e22", "target": 161}, {"source": 161, "id": "e21", "target": 165}, {"source": 163, "id": "e26", "target": 164}, {"source": 164, "id": "e25", "target": 172}, {"source": 177, "id": "e9", "target": 178}, {"source": 179, "id": "e87", "target": 180}, {"source": 180, "id": "e86", "target": 181}, {"source": 181, "id": "e85", "target": 183}, {"source": 186, "id": "e0", "target": 187}, {"source": 187, "id": "e2", "target": 190}, {"source": 190, "id": "e5", "target": 191}, {"source": 191, "id": "e6", "target": 192}], "multigraph": true}