{"directed": false, "graph": [["DateObtained", "22/10/10"], ["GeoLocation", "Europe"], ["GeoExtent", "Continent"], ["DateModifier", "="], ["Customer", 1], ["Network", "euNetworks "], ["IX", 0], ["Provenance", "Primary"], ["Access", 0], ["Source", "http://www.eunetworks.com/our_network.html"], ["Version", "1.0"], ["DateMonth", "08"], ["DateYear", "2010"], ["Type", "COM"], ["LastAccess", "3/08/10"], ["Layer", "Simplified Fibre"], ["Creator", "Topology Zoo Toolset"], ["DateType", "Dynamic"], ["SourceGitVersion", "e278b1b"], ["Backbone", 1], ["Commercial", 0], ["NetworkDate", "2010_08"], ["label", "Eunetworks"], ["LastProcessed", "2011_09_01"], ["Testbed", 0], ["Developed", 0], ["ToolsetVersion", "0.3.34dev-20120328"], ["Transit", 1]], "nodes": [{"Internal": 1, "Latitude": 53.55, "Country": "Germany", "id": 0, "Longitude": 10.0, "label": "Hamburg"}, {"Internal": 1, "Latitude": 52.37052, "Country": "Germany", "id": 1, "Longitude": 9.73322, "label": "Hannover"}, {"Internal": 1, "Latitude": 48.78232, "Country": "Germany", "id": 2, "Longitude": 9.17702, "label": "Stuttgart"}, {"Internal": 1, "Latitude": 48.13743, "Country": "Germany", "id": 3, "Longitude": 11.57549, "label": "Munich"}, {"Internal": 1, "Latitude": 52.52437, "Country": "Germany", "id": 4, "Longitude": 13.41053, "label": "Berlin"}, {"Internal": 1, "Latitude": 50.93333, "Country": "Germany", "id": 5, "Longitude": 6.95, "label": "Cologne"}, {"Internal": 1, "Latitude": 50.11667, "Country": "Germany", "id": 6, "Longitude": 8.68333, "label": "Frankfurt"}, {"Internal": 1, "Latitude": 53.34399, "Country": "Ireland", "id": 7, "Longitude": -6.26719, "label": "Dublin"}, {"Internal": 1, "Latitude": 51.50853, "Country": "United Kingdom", "id": 8, "Longitude": -0.12574, "label": "London"}, {"Internal": 1, "Latitude": 48.85341, "Country": "France", "id": 9, "Longitude": 2.3488, "label": "Paris"}, {"Internal": 1, "Latitude": 51.9225, "Country": "Netherlands", "id": 10, "Longitude": 4.47917, "label": "Rotterdam"}, {"Internal": 1, "Latitude": 52.07667, "Country": "Netherlands", "id": 11, "Longitude": 4.29861, "label": "The Hague"}, {"Internal": 1, "Latitude": 52.37403, "Country": "Netherlands", "id": 12, "Longitude": 4.88969, "label": "Amsterdam"}, {"Internal": 1, "Latitude": 52.09083, "Country": "Netherlands", "id": 13, "Longitude": 5.12222, "label": "Utrecht"}, {"Internal": 1, "Latitude": 51.22172, "Country": "Germany", "id": 14, "Longitude": 6.77616, "label": "Dusseldorf"}], "links": [{"source": 0, "id": "e18", "target": 4}, {"source": 0, "id": "e12", "target": 14}, {"source": 2, "id": "e16", "target": 3}, {"source": 2, "id": "e15", "target": 6}, {"source": 3, "id": "e17", "target": 4}, {"source": 5, "id": "e13", "target": 6}, {"source": 5, "id": "e14", "target": 6}, {"source": 5, "id": "e11", "target": 14}, {"source": 5, "id": "e10", "target": 14}, {"source": 6, "id": "e5", "target": 9}, {"source": 7, "id": "e1", "target": 8}, {"source": 7, "id": "e0", "target": 8}, {"source": 8, "id": "e2", "target": 9}, {"source": 8, "id": "e3", "target": 12}, {"source": 9, "id": "e4", "target": 10}, {"source": 10, "id": "e6", "target": 11}, {"source": 11, "id": "e7", "target": 12}, {"source": 12, "id": "e8", "target": 13}, {"source": 13, "id": "e9", "target": 14}], "multigraph": true}