{"directed": false, "graph": [["DateObtained", "21/10/10"], ["GeoLocation", "Finland"], ["GeoExtent", "Country+"], ["DateModifier", "="], ["Customer", 1], ["Network", "FUNET"], ["IX", 0], ["Provenance", "Primary"], ["Access", 0], ["Source", "http://www.csc.fi/english/institutions/funet/status/weathermap/index_html"], ["Version", "1.0"], ["DateMonth", "10"], ["DateYear", "2010"], ["Type", "REN"], ["LastAccess", "21/10/10"], ["Layer", "Simplified Fibre"], ["Creator", "Topology Zoo Toolset"], ["DateType", "Current"], ["SourceGitVersion", "e278b1b"], ["Backbone", 1], ["Commercial", 0], ["NetworkDate", "2010_10"], ["label", "Funet"], ["LastProcessed", "2011_09_01"], ["Testbed", 0], ["Developed", 1], ["ToolsetVersion", "0.3.34dev-20120328"], ["Transit", 0]], "nodes": [{"Internal": 1, "Latitude": 60.86667, "Country": "Finland", "type": "Fiber network connection sites", "id": 0, "Longitude": 26.7, "label": "Kouvola"}, {"Internal": 1, "Latitude": 60.98267, "Country": "Finland", "type": "Fiber network connection sites", "id": 1, "Longitude": 25.66151, "label": "Lahti"}, {"Internal": 1, "Latitude": 61.68857, "Country": "Finland", "type": "Fiber network connection sites", "id": 2, "Longitude": 27.27227, "label": "Mikkeli"}, {"Internal": 1, "Latitude": 62.23333, "Country": "Finland", "type": "Fiber network connection sites", "id": 3, "Longitude": 25.73333, "label": "Jyvaskyla"}, {"Internal": 1, "Latitude": 62.8, "Country": "Finland", "type": "Fiber network connection sites", "id": 4, "Longitude": 22.83333, "label": "Seinajoki"}, {"Internal": 1, "Latitude": 61.48333, "Country": "Finland", "type": "Fiber network connection sites", "id": 5, "Longitude": 21.78333, "label": "Pori"}, {"Internal": 1, "Latitude": 61.49911, "Country": "Finland", "type": "Fiber network connection sites", "id": 6, "Longitude": 23.78712, "label": "Tampere"}, {"Internal": 1, "Latitude": 60.99596, "Country": "Finland", "type": "Fiber network connection sites", "id": 7, "Longitude": 24.46434, "label": "Hameenlinna"}, {"Internal": 1, "Latitude": 61.12724, "Country": "Finland", "type": "Fiber network connection sites", "id": 8, "Longitude": 21.51127, "label": "Rauma"}, {"Internal": 1, "Latitude": 60.45148, "Country": "Finland", "type": "IP and fiber network connection sites", "id": 9, "Longitude": 22.26869, "label": "Turku"}, {"Internal": 1, "Latitude": 60.46667, "Country": "Finland", "type": "Fiber network connection sites", "id": 10, "Longitude": 26.91667, "label": "Kotka"}, {"Internal": 1, "Latitude": 60.16952, "Country": "Finland", "type": "IP and fiber network connection sites", "id": 11, "Longitude": 24.93545, "label": "Helsinki"}, {"Internal": 1, "Latitude": 60.2052, "Country": "Finland", "type": "IP and fiber network connection sites", "id": 12, "Longitude": 24.6522, "label": "Espoo"}, {"Internal": 1, "Latitude": 60.38333, "Country": "Finland", "type": "Fiber network connection sites", "id": 13, "Longitude": 23.13333, "label": "Salo"}, {"Internal": 0, "id": 14, "label": "NORDU"}, {"Internal": 0, "id": 15, "label": "NORDU"}, {"Internal": 1, "Latitude": 62.6, "Country": "Finland", "type": "IP and fiber network connection sites", "id": 16, "Longitude": 29.76667, "label": "Joensuu"}, {"Internal": 1, "Latitude": 61.05871, "Country": "Finland", "type": "IP and fiber network connection sites", "id": 17, "Longitude": 28.18871, "label": "Lappeenranta"}, {"Internal": 1, "Latitude": 65.01236, "Country": "Finland", "type": "IP and fiber network connection sites", "id": 18, "Longitude": 25.46816, "label": "Oulu"}, {"Internal": 1, "Latitude": 65.17654, "Country": "Finland", "type": "Fiber network connection sites", "id": 19, "Longitude": 25.35233, "label": "Haukipudas"}, {"Internal": 1, "Latitude": 66.5, "Country": "Finland", "type": "IP and fiber network connection sites", "id": 20, "Longitude": 25.71667, "label": "Rovaniemi"}, {"Internal": 1, "Latitude": 67.41667, "Country": "Finland", "type": "Fiber network connection sites", "id": 21, "Longitude": 26.6, "label": "Sodankyla"}, {"Internal": 1, "Latitude": 64.5, "Country": "Finland", "type": "Fiber network connection sites", "id": 22, "Longitude": 28.21667, "label": "Ristijavi"}, {"Internal": 1, "Latitude": 63.83847, "Country": "Finland", "type": "Fiber network connection sites", "id": 23, "Longitude": 23.13066, "label": "Kokkola"}, {"Internal": 1, "Latitude": 63.096, "Country": "Finland", "type": "IP and fiber network connection sites", "id": 24, "Longitude": 21.61577, "label": "Vaasa"}, {"Internal": 1, "Latitude": 62.89238, "Country": "Finland", "type": "IP and fiber network connection sites", "id": 25, "Longitude": 27.67703, "label": "Koupio"}], "links": [{"LinkType": "Fiber", "source": 0, "LinkLabel": "fiber", "target": 1}, {"LinkType": "Fiber", "source": 0, "LinkLabel": "fiber", "target": 10}, {"LinkType": "Fiber", "source": 0, "LinkLabel": "fiber", "target": 2}, {"LinkType": "Fiber", "source": 0, "LinkLabel": "fiber", "target": 17}, {"LinkType": "Fiber", "source": 1, "LinkLabel": "fiber", "target": 11}, {"LinkType": "Fiber", "source": 2, "LinkLabel": "fiber", "target": 25}, {"LinkType": "Fiber", "source": 2, "LinkLabel": "fiber", "target": 3}, {"LinkType": "Fiber", "source": 3, "LinkLabel": "fiber", "target": 6}, {"LinkType": "Fiber", "source": 4, "LinkLabel": "fiber", "target": 24}, {"LinkType": "Fiber", "source": 4, "LinkLabel": "fiber", "target": 5}, {"source": 5, "id": "e22", "target": 8}, {"LinkType": "Fiber", "source": 6, "LinkLabel": "fiber", "target": 7}, {"LinkType": "Fiber", "source": 7, "LinkLabel": "fiber", "target": 12}, {"LinkType": "Fiber", "source": 8, "LinkLabel": "fiber", "target": 9}, {"LinkType": "Fiber", "source": 9, "LinkLabel": "fiber", "target": 13}, {"LinkType": "Fiber", "source": 11, "LinkLabel": "fiber", "target": 12}, {"LinkType": "Fiber", "source": 11, "LinkLabel": "fiber", "target": 12}, {"source": 11, "id": "e30", "target": 15}, {"source": 12, "id": "e26", "target": 15}, {"LinkType": "Fiber", "source": 12, "LinkLabel": "fiber", "target": 13}, {"source": 12, "id": "e27", "target": 14}, {"source": 16, "LinkLabel": "transmission", "target": 17}, {"LinkType": "Fiber", "source": 16, "LinkLabel": "fiber", "target": 25}, {"LinkType": "Fiber", "source": 18, "LinkLabel": "fiber", "target": 19}, {"LinkType": "Fiber", "source": 18, "LinkLabel": "fiber", "target": 22}, {"LinkType": "Fiber", "source": 18, "LinkLabel": "fiber", "target": 23}, {"LinkType": "Fiber", "source": 19, "LinkLabel": "fiber", "target": 20}, {"LinkType": "Fiber", "source": 20, "LinkLabel": "fiber", "target": 21}, {"source": 20, "LinkLabel": "Transmission", "target": 22}, {"LinkType": "Fiber", "source": 22, "LinkLabel": "fiber", "target": 25}, {"LinkType": "Fiber", "source": 23, "LinkLabel": "fiber", "target": 24}], "multigraph": true}