{"directed": false, "graph": [["DateObtained", "21/10/10"], ["GeoLocation", "Italy"], ["GeoExtent", "Country"], ["DateModifier", "="], ["Customer", 0], ["Network", "GARR"], ["IX", 0], ["Provenance", "Primary"], ["Note", "New GARR-X functionality roll-out, experimental or testbed? Names from http://www.noc.garr.it/mappe/ and http://www.garr.it/stampaGARR/netbul/netbul0710.php CO unclear, appears to be Milan-Colombo PoP"], ["Source", "http://www.garr.it/index.php/rete/infrastruttura-di-rete/mappa-della-rete/48"], ["Version", "1.0"], ["DateMonth", "08"], ["DateYear", "2009"], ["DateType", "Historic"], ["LastAccess", "21/10/10"], ["Access", 0], ["Layer", "IP"], ["Creator", "Topology Zoo Toolset"], ["Type", "REN"], ["SourceGitVersion", "e278b1b"], ["Backbone", 1], ["Commercial", 0], ["NetworkDate", "2009_08"], ["label", "Garr200908"], ["LastProcessed", "2011_09_01"], ["Testbed", 0], ["Developed", 1], ["ToolsetVersion", "0.3.34dev-20120328"], ["Transit", 1]], "nodes": [{"Internal": 0, "id": 0, "label": "Svizzera"}, {"Internal": 1, "Latitude": 39.20738, "Country": "Italy", "id": 1, "Longitude": 9.13462, "label": "CA"}, {"Internal": 0, "id": 2, "label": "Global Crossing"}, {"Internal": 0, "id": 3, "label": "GEANT"}, {"Internal": 1, "Latitude": 39.20738, "Country": "Italy", "id": 4, "Longitude": 9.13462, "label": "CA-1"}, {"Internal": 0, "id": 5, "label": "NAMEX"}, {"Internal": 1, "Latitude": 42.35055, "Country": "Italy", "id": 6, "Longitude": 13.39954, "label": "AQ-1"}, {"Internal": 1, "Latitude": 40.72722, "Country": "Italy", "id": 7, "Longitude": 8.56028, "label": "SS"}, {"Internal": 1, "Latitude": 41.89474, "Country": "Italy", "id": 8, "Longitude": 12.4839, "label": "RM-1"}, {"Internal": 1, "Latitude": 43.09674, "Country": "Italy", "id": 9, "Longitude": 12.38286, "label": "PG"}, {"Internal": 0, "id": 10, "label": "TIX"}, {"Internal": 0, "id": 11, "label": "Level3"}, {"Internal": 1, "Latitude": 45.46427, "Country": "Italy", "id": 12, "Longitude": 9.18951, "label": "MI-3"}, {"Internal": 1, "Latitude": 38.89079, "Country": "Italy", "id": 13, "Longitude": 16.5987, "label": "CZ"}, {"Internal": 1, "Latitude": 45.64861, "Country": "Italy", "id": 14, "Longitude": 13.78, "label": "TS-1"}, {"Internal": 1, "Latitude": 45.41519, "Country": "Italy", "id": 15, "Longitude": 11.88181, "label": "PD"}, {"Internal": 1, "Latitude": 40.83333, "Country": "Italy", "id": 16, "Longitude": 14.25, "label": "NA"}, {"Internal": 1, "Latitude": 38.19327, "Country": "Italy", "id": 17, "Longitude": 15.54969, "label": "ME"}, {"Internal": 1, "Latitude": 39.30999, "Country": "Italy", "id": 18, "Longitude": 16.25019, "label": "CS"}, {"Internal": 1, "Latitude": 37.50213, "Country": "Italy", "id": 19, "Longitude": 15.08719, "label": "CT"}, {"Internal": 1, "Latitude": 38.11582, "Country": "Italy", "id": 20, "Longitude": 13.35976, "label": "PA"}, {"Internal": 0, "id": 21, "label": "EUMED CONNECT"}, {"Internal": 0, "id": 22, "label": "MIX    "}, {"Internal": 0, "id": 23, "label": "TELIA"}, {"Internal": 1, "Latitude": 44.49381, "Country": "Italy", "id": 24, "Longitude": 11.33875, "label": "BO"}, {"Internal": 1, "Latitude": 43.76667, "Country": "Italy", "id": 25, "Longitude": 11.25, "label": "FI"}, {"Internal": 1, "Latitude": 46.06787, "Country": "Italy", "id": 26, "Longitude": 11.12108, "label": "TN"}, {"Internal": 1, "Latitude": 45.43861, "Country": "Italy", "id": 27, "Longitude": 12.32667, "label": "VE"}, {"Internal": 1, "Latitude": 45.46427, "Country": "Italy", "id": 28, "Longitude": 9.18951, "label": "CO"}, {"Internal": 1, "Latitude": 45.46427, "Country": "Italy", "id": 29, "Longitude": 9.18951, "label": "MI-1"}, {"Internal": 1, "Latitude": 45.07049, "Country": "Italy", "id": 30, "Longitude": 7.68682, "label": "TO"}, {"Internal": 1, "Latitude": 45.46427, "Country": "Italy", "id": 31, "Longitude": 9.18951, "label": "MI-2"}, {"Internal": 1, "Latitude": 43.76667, "Country": "Italy", "id": 32, "Longitude": 11.25, "label": "Fi"}, {"Internal": 1, "Latitude": 44.40632, "Country": "Italy", "id": 33, "Longitude": 8.93386, "label": "GE"}, {"Internal": 1, "Latitude": 40.67797, "Country": "Italy", "id": 34, "Longitude": 14.76599, "label": "SA"}, {"Internal": 1, "Latitude": 40.64432, "Country": "Italy", "id": 35, "Longitude": 15.80857, "label": "PZ"}, {"Internal": 1, "Latitude": 41.56003, "Country": "Italy", "id": 36, "Longitude": 14.66753, "label": "CB"}, {"Internal": 1, "Latitude": 41.81632, "Country": "Italy", "id": 37, "Longitude": 12.66868, "label": "FRA"}, {"Internal": 1, "Latitude": 42.35055, "Country": "Italy", "id": 38, "Longitude": 13.39954, "label": "AQ"}, {"Internal": 1, "Latitude": 43.59816, "Country": "Italy", "id": 39, "Longitude": 13.51008, "label": "AN"}, {"Internal": 1, "Latitude": 40.66852, "Country": "Italy", "id": 40, "Longitude": 16.60158, "label": "MT"}, {"Internal": 1, "Latitude": 40.35703, "Country": "Italy", "id": 41, "Longitude": 18.17202, "label": "LE"}, {"Internal": 1, "Latitude": 41.11773, "Country": "Italy", "id": 42, "Longitude": 16.85118, "label": "BA"}, {"Internal": 1, "Latitude": 41.46093, "Country": "Italy", "id": 43, "Longitude": 15.54925, "label": "FG"}, {"Internal": 0, "id": 44, "label": "Google"}, {"Internal": 0, "id": 45, "label": "GEANT"}, {"Internal": 1, "Latitude": 45.46427, "Country": "Italy", "id": 46, "Longitude": 9.18951, "label": "MI-5"}, {"Internal": 0, "id": 47, "label": "TO-PIX"}, {"Internal": 1, "Latitude": 41.89474, "Country": "Italy", "id": 48, "Longitude": 12.4839, "label": "RM-2"}, {"Internal": 1, "Latitude": 45.46427, "Country": "Italy", "id": 49, "Longitude": 9.18951, "label": "Mi-4"}, {"Internal": 1, "Latitude": 44.82678, "Country": "Italy", "id": 50, "Longitude": 11.62071, "label": "Fe"}, {"Internal": 1, "Latitude": 45.18446, "Country": "Italy", "id": 51, "Longitude": 9.16145, "label": "Pv"}, {"Internal": 1, "Latitude": 43.71553, "Country": "Italy", "id": 52, "Longitude": 10.39659, "label": "PI"}, {"Internal": 1, "Latitude": 43.72621, "Country": "Italy", "id": 53, "Longitude": 12.63633, "label": "Ur"}], "links": [{"source": 0, "LinkLabel": "Fibre ottica spenta (Dark Fibre)", "target": 29}, {"source": 1, "LinkLabel": "Fibre ottica spenta (Dark Fibre)", "target": 4}, {"LinkSpeed": "2.5", "source": 2, "LinkLabel": "Peering, 2.5 Gbps", "target": 29, "LinkNote": "Peering,  ", "LinkSpeedUnits": "G", "LinkSpeedRaw": 2500000000.0}, {"LinkSpeed": "2.5", "source": 3, "LinkLabel": "2.5 Gbps", "target": 31, "LinkSpeedUnits": "G", "LinkSpeedRaw": 2500000000.0}, {"LinkSpeed": "2.5", "source": 4, "LinkLabel": "2.5 Gbps", "target": 8, "LinkSpeedUnits": "G", "LinkSpeedRaw": 2500000000.0}, {"LinkSpeed": "622", "source": 4, "LinkLabel": "622 Mbps", "target": 7, "LinkSpeedUnits": "M", "LinkSpeedRaw": 622000000.0}, {"LinkSpeed": "2.5", "source": 4, "LinkLabel": "2.5 Gbps", "target": 48, "LinkSpeedUnits": "G", "LinkSpeedRaw": 2500000000.0}, {"LinkSpeed": "13", "source": 5, "LinkLabel": "Peering, 13 Gbps", "target": 48, "LinkNote": "Peering,  ", "LinkSpeedUnits": "G", "LinkSpeedRaw": 13000000000.0}, {"LinkSpeed": "155", "source": 6, "LinkLabel": "155 Mbps", "target": 48, "LinkSpeedUnits": "M", "LinkSpeedRaw": 155000000.0}, {"LinkSpeed": "34", "source": 6, "LinkLabel": "34 Mbps", "target": 38, "LinkSpeedUnits": "M", "LinkSpeedRaw": 34000000.0}, {"LinkSpeed": "2.5", "source": 8, "LinkLabel": "2.5 Gbps", "target": 37, "LinkSpeedUnits": "G", "LinkSpeedRaw": 2500000000.0}, {"LinkSpeed": "622", "source": 8, "LinkLabel": "622 Mbps", "target": 38, "LinkSpeedUnits": "M", "LinkSpeedRaw": 622000000.0}, {"LinkSpeed": "155", "source": 8, "LinkLabel": "155 Mbps", "target": 39, "LinkSpeedUnits": "M", "LinkSpeedRaw": 155000000.0}, {"LinkSpeed": "155", "source": 8, "LinkLabel": "155 Mbps", "target": 9, "LinkSpeedUnits": "M", "LinkSpeedRaw": 155000000.0}, {"source": 8, "LinkLabel": "Fibre ottica spenta (Dark Fibre)", "target": 48}, {"LinkSpeed": "2.5", "source": 8, "LinkLabel": "2.5 Gbps", "target": 19, "LinkSpeedUnits": "G", "LinkSpeedRaw": 2500000000.0}, {"LinkSpeed": "1", "source": 10, "LinkLabel": "Peering, 1 Gbps", "target": 25, "LinkNote": "Peering,  ", "LinkSpeedUnits": "G", "LinkSpeedRaw": 1000000000.0}, {"LinkSpeed": "2.5", "source": 11, "LinkLabel": "Peering, 2.5 Gbps", "target": 48, "LinkNote": "Peering,  ", "LinkSpeedUnits": "G", "LinkSpeedRaw": 2500000000.0}, {"LinkSpeed": "155", "source": 12, "LinkLabel": "155 Mbps", "target": 26, "LinkSpeedUnits": "M", "LinkSpeedRaw": 155000000.0}, {"LinkSpeed": "1", "source": 12, "LinkLabel": "1 Gbps", "target": 51, "LinkSpeedUnits": "G", "LinkSpeedRaw": 1000000000.0}, {"source": 12, "LinkLabel": "Fibre ottica spenta (Dark Fibre)", "target": 29}, {"LinkSpeed": "1", "source": 12, "LinkLabel": "1 Gbps", "target": 46, "LinkSpeedUnits": "G", "LinkSpeedRaw": 1000000000.0}, {"source": 12, "LinkLabel": "Fibre ottica spenta (Dark Fibre)", "target": 31}, {"LinkSpeed": "100", "source": 13, "LinkLabel": "100 Mbps", "target": 18, "LinkSpeedUnits": "M", "LinkSpeedRaw": 100000000.0}, {"LinkSpeed": "2.5", "source": 14, "LinkLabel": "2.5 Gbps", "target": 49, "LinkSpeedUnits": "G", "LinkSpeedRaw": 2500000000.0}, {"LinkSpeed": "155", "source": 14, "LinkLabel": "155 Mbps", "target": 15, "LinkSpeedUnits": "M", "LinkSpeedRaw": 155000000.0}, {"LinkSpeed": "2.5", "source": 15, "LinkLabel": "2.5 Gbps", "target": 24, "LinkSpeedUnits": "G", "LinkSpeedRaw": 2500000000.0}, {"LinkSpeed": "622", "source": 15, "LinkLabel": "622 Mbps", "target": 27, "LinkSpeedUnits": "M", "LinkSpeedRaw": 622000000.0}, {"LinkSpeed": "2.5", "source": 15, "LinkLabel": "2.5 Gbps", "target": 29, "LinkSpeedUnits": "G", "LinkSpeedRaw": 2500000000.0}, {"LinkSpeed": "2.5", "source": 16, "LinkLabel": "2.5 Gbps", "target": 48, "LinkSpeedUnits": "G", "LinkSpeedRaw": 2500000000.0}, {"LinkSpeed": "155", "source": 16, "LinkLabel": "155 Mbps", "target": 34, "LinkSpeedUnits": "M", "LinkSpeedRaw": 155000000.0}, {"LinkSpeed": "2.5", "source": 16, "LinkLabel": "2.5 Gbps", "target": 19, "LinkSpeedUnits": "G", "LinkSpeedRaw": 2500000000.0}, {"LinkSpeed": "34", "source": 16, "LinkLabel": "34 Mbps", "target": 36, "LinkSpeedUnits": "M", "LinkSpeedRaw": 34000000.0}, {"LinkSpeed": "2.5", "source": 16, "LinkLabel": "2.5 Gbps", "target": 42, "LinkSpeedUnits": "G", "LinkSpeedRaw": 2500000000.0}, {"LinkSpeed": "155", "source": 17, "LinkLabel": "155 Mbps", "target": 19, "LinkSpeedUnits": "M", "LinkSpeedRaw": 155000000.0}, {"LinkSpeed": "155", "source": 18, "LinkLabel": "155 Mbps", "target": 19, "LinkSpeedUnits": "M", "LinkSpeedRaw": 155000000.0}, {"LinkSpeed": "622", "source": 19, "LinkLabel": "622 Mbps", "target": 20, "LinkSpeedUnits": "M", "LinkSpeedRaw": 622000000.0}, {"LinkSpeed": "1", "source": 19, "LinkLabel": "1 Gbps", "target": 21, "LinkSpeedUnits": "G", "LinkSpeedRaw": 1000000000.0}, {"LinkSpeed": "4", "source": 22, "LinkLabel": "Peering, 4Gbps", "target": 31, "LinkNote": "Peering, ", "LinkSpeedUnits": "G", "LinkSpeedRaw": 4000000000.0}, {"LinkSpeed": "2.5", "source": 23, "LinkLabel": "Peering, 2.5 Gbps", "target": 31, "LinkNote": "Peering,  ", "LinkSpeedUnits": "G", "LinkSpeedRaw": 2500000000.0}, {"LinkSpeed": "1", "source": 24, "LinkLabel": "1 Gbps", "target": 39, "LinkSpeedUnits": "G", "LinkSpeedRaw": 1000000000.0}, {"LinkSpeed": "2.5", "source": 24, "LinkLabel": "2.5 Gbps", "target": 42, "LinkSpeedUnits": "G", "LinkSpeedRaw": 2500000000.0}, {"LinkSpeed": "10", "source": 24, "LinkLabel": "10 Gbps", "target": 48, "LinkSpeedUnits": "G", "LinkSpeedRaw": 10000000000.0}, {"LinkSpeed": "155", "source": 24, "LinkLabel": "155 Mbps", "target": 50, "LinkSpeedUnits": "M", "LinkSpeedRaw": 155000000.0}, {"LinkSpeed": "2.5", "source": 24, "LinkLabel": "2.5 Gbps", "target": 25, "LinkSpeedUnits": "G", "LinkSpeedRaw": 2500000000.0}, {"LinkSpeed": "10", "source": 24, "LinkLabel": "10 Gbps", "target": 29, "LinkSpeedUnits": "G", "LinkSpeedRaw": 10000000000.0}, {"LinkSpeed": "34", "source": 25, "LinkLabel": "34 Mbps", "target": 32, "LinkSpeedUnits": "M", "LinkSpeedRaw": 34000000.0}, {"LinkSpeed": "2.5", "source": 25, "LinkLabel": "2.5 Gbps", "target": 52, "LinkSpeedUnits": "G", "LinkSpeedRaw": 2500000000.0}, {"source": 28, "LinkLabel": "Fibre ottica spenta (Dark Fibre)", "target": 49}, {"source": 28, "LinkLabel": "Fibre ottica spenta (Dark Fibre)", "target": 31}, {"LinkSpeed": "10", "source": 29, "LinkLabel": "10 Gbps", "target": 45, "LinkSpeedUnits": "G", "LinkSpeedRaw": 10000000000.0}, {"source": 29, "LinkLabel": "Fibre ottica spenta (Dark Fibre)", "target": 49}, {"LinkSpeed": "10", "source": 29, "LinkLabel": "10 Gbps", "target": 31, "LinkSpeedUnits": "G", "LinkSpeedRaw": 10000000000.0}, {"LinkSpeed": "2.5", "source": 30, "LinkLabel": "2.5 Gbps", "target": 31, "LinkSpeedUnits": "G", "LinkSpeedRaw": 2500000000.0}, {"LinkSpeed": "2.5", "source": 30, "LinkLabel": "2.5 Gbps", "target": 52, "LinkSpeedUnits": "G", "LinkSpeedRaw": 2500000000.0}, {"LinkSpeed": "1", "source": 30, "LinkLabel": "Peering, 1 Gbps", "target": 47, "LinkNote": "Peering,  ", "LinkSpeedUnits": "G", "LinkSpeedRaw": 1000000000.0}, {"LinkSpeed": "155", "source": 31, "LinkLabel": "155 Mbps", "target": 33, "LinkSpeedUnits": "M", "LinkSpeedRaw": 155000000.0}, {"LinkSpeed": "2", "source": 31, "LinkLabel": "Peering, 2 Gbps", "target": 44, "LinkNote": "Peering,  ", "LinkSpeedUnits": "G", "LinkSpeedRaw": 2000000000.0}, {"LinkSpeed": "10", "source": 31, "LinkLabel": "10 Gbps", "target": 48, "LinkSpeedUnits": "G", "LinkSpeedRaw": 10000000000.0}, {"LinkSpeed": "2.5", "source": 31, "LinkLabel": "2.5 Gbps", "target": 49, "LinkSpeedUnits": "G", "LinkSpeedRaw": 2500000000.0}, {"LinkSpeed": "155", "source": 33, "LinkLabel": "155 Mbps", "target": 52, "LinkSpeedUnits": "M", "LinkSpeedRaw": 155000000.0}, {"LinkSpeed": "622", "source": 35, "LinkLabel": "622 Mbps", "target": 42, "LinkSpeedUnits": "M", "LinkSpeedRaw": 622000000.0}, {"LinkSpeed": "2.5", "source": 37, "LinkLabel": "2.5 Gbps", "target": 48, "LinkSpeedUnits": "G", "LinkSpeedRaw": 2500000000.0}, {"LinkSpeed": "622", "source": 39, "LinkLabel": "622 Mbps", "target": 53, "LinkSpeedUnits": "M", "LinkSpeedRaw": 622000000.0}, {"LinkSpeed": "622", "source": 40, "LinkLabel": "622 Mbps", "target": 42, "LinkSpeedUnits": "M", "LinkSpeedRaw": 622000000.0}, {"LinkSpeed": "622", "source": 41, "LinkLabel": "622 Mbps", "target": 42, "LinkSpeedUnits": "M", "LinkSpeedRaw": 622000000.0}, {"LinkSpeed": "155", "source": 42, "LinkLabel": "155 Mbps", "target": 43, "LinkSpeedUnits": "M", "LinkSpeedRaw": 155000000.0}, {"LinkSpeed": "2.5", "source": 48, "LinkLabel": "2.5 Gbps", "target": 52, "LinkSpeedUnits": "G", "LinkSpeedRaw": 2500000000.0}], "multigraph": true}