{"directed": false, "graph": [["DateObtained", "21/10/10"], ["GeoLocation", "Greece"], ["GeoExtent", "Country"], ["DateModifier", "="], ["Customer", 1], ["Network", "GRnet"], ["IX", 0], ["Provenance", "Primary"], ["Note", "Also uses http://mon.grnet.gr/network/maps/"], ["Source", "http://noc.grnet.gr/sites/default/files/images/L2-L3_20100224.jpg"], ["Version", "1.0"], ["DateMonth", "10"], ["DateYear", "2010"], ["Type", "REN"], ["LastAccess", "21/10/10"], ["Access", 0], ["Layer", "IP"], ["Creator", "Topology Zoo Toolset"], ["DateType", "Dynamic"], ["SourceGitVersion", "e278b1b"], ["Backbone", 1], ["Commercial", 0], ["NetworkDate", "2010_10"], ["label", "Grnet"], ["LastProcessed", "2011_09_01"], ["Testbed", 0], ["Developed", 1], ["ToolsetVersion", "0.3.34dev-20120328"], ["Transit", 1]], "nodes": [{"Internal": 1, "Latitude": 39.36556, "Country": "Greece", "type": "PoP", "id": 0, "Longitude": 21.92167, "label": "Karditsa"}, {"Internal": 1, "Latitude": 39.36667, "Country": "Greece", "type": "PoP", "id": 1, "Longitude": 22.94583, "label": "Volos"}, {"Internal": 1, "Latitude": 39.63722, "Country": "Greece", "type": "PoP", "id": 2, "Longitude": 22.42028, "label": "Larissa"}, {"Internal": 1, "Latitude": 39.55528, "Country": "Greece", "type": "PoP", "id": 3, "Longitude": 21.7675, "label": "Trikala"}, {"Internal": 1, "Latitude": 39.11, "Country": "Greece", "type": "PoP", "id": 4, "Longitude": 26.55472, "label": "Mytilini"}, {"Internal": 1, "Latitude": 38.36778, "Country": "Greece", "type": "PoP", "id": 5, "Longitude": 26.13583, "label": "Chios"}, {"Internal": 1, "Latitude": 39.50389, "Country": "Greece", "type": "PoP", "id": 6, "Longitude": 20.26556, "label": "Igoumenitsa"}, {"Internal": 1, "Latitude": 39.62, "Country": "Greece", "type": "PoP", "id": 7, "Longitude": 19.91972, "label": "Kerkira"}, {"Internal": 1, "Latitude": 37.44227, "Country": "Greece", "type": "IP Backbone Node", "id": 8, "Longitude": 24.94248, "label": "Ermoupoli"}, {"Internal": 1, "Latitude": 37.44529, "Country": "Greece", "type": "PoP", "id": 9, "Longitude": 25.32872, "label": "Mykonos"}, {"Internal": 1, "Latitude": 38.37019, "Country": "Greece", "type": "PoP", "id": 10, "Longitude": 21.42952, "label": "Mesologgi"}, {"Internal": 0, "id": 11, "label": "AMSIX"}, {"Internal": 0, "id": 12, "label": "GRIX"}, {"Internal": 0, "id": 13, "label": "GEANT"}, {"Internal": 1, "Latitude": 35.51222, "Country": "Greece", "type": "PoP", "id": 14, "Longitude": 24.01556, "label": "Chania"}, {"Internal": 1, "Latitude": 35.32787, "Country": "Greece", "type": "IP Backbone Node", "id": 15, "Longitude": 25.14341, "label": "Heraklio"}, {"Internal": 1, "Latitude": 35.36472, "Country": "Greece", "type": "PoP", "id": 16, "Longitude": 24.47139, "label": "Rethymno"}, {"Internal": 1, "Latitude": 36.91344, "Country": "Greece", "type": "PoP", "id": 17, "Longitude": 21.69639, "label": "Pylos"}, {"Internal": 1, "Latitude": 37.03889, "Country": "Greece", "type": "PoP", "id": 18, "Longitude": 22.11417, "label": "Kalamata"}, {"Internal": 1, "Latitude": 38.46361, "Country": "Greece", "type": "PoP", "id": 19, "Longitude": 23.59944, "label": "Halkida"}, {"Internal": 1, "Latitude": 37.97945, "Country": "Greece", "type": "IP Backbone Node", "id": 20, "Longitude": 23.71622, "label": "Athens"}, {"Internal": 1, "Latitude": 36.44083, "Country": "Greece", "type": "PoP", "id": 21, "Longitude": 28.2225, "label": "Rhodos"}, {"Internal": 1, "Latitude": 37.79028, "Country": "Greece", "type": "PoP", "id": 22, "Longitude": 26.70444, "label": "Karlovassi"}, {"Internal": 1, "Latitude": 37.50889, "Country": "Greece", "type": "PoP", "id": 23, "Longitude": 22.37944, "label": "Tripoli"}, {"Internal": 1, "Latitude": 38.24444, "Country": "Greece", "type": "IP Backbone Node", "id": 24, "Longitude": 21.73444, "label": "Patra"}, {"Internal": 1, "Latitude": 38.03222, "Country": "Greece", "type": "PoP", "id": 25, "Longitude": 22.1125, "label": "Kalavrita"}, {"Internal": 1, "Latitude": 37.91667, "Country": "Greece", "type": "PoP", "id": 26, "Longitude": 22.88333, "label": "Korinthos"}, {"Internal": 1, "Latitude": 38.47333, "Country": "Greece", "type": "PoP", "id": 27, "Longitude": 25.91222, "label": "Limnos"}, {"Internal": 1, "Latitude": 39.6675, "Country": "Greece", "type": "IP Backbone Node", "id": 28, "Longitude": 20.85083, "label": "Ioannina"}, {"Internal": 1, "Latitude": 41.08556, "Country": "Greece", "type": "PoP", "id": 29, "Longitude": 23.54972, "label": "Serres"}, {"Internal": 1, "Latitude": 40.64028, "Country": "Greece", "type": "IP Backbone Node", "id": 30, "Longitude": 22.94389, "label": "Thessaloniki"}, {"Internal": 1, "Latitude": 40.80056, "Country": "Greece", "type": "PoP", "id": 31, "Longitude": 22.04722, "label": "Edessa"}, {"Internal": 1, "Latitude": 40.51667, "Country": "Greece", "type": "PoP", "id": 32, "Longitude": 21.26667, "label": "Kastoria"}, {"Internal": 1, "Latitude": 40.93972, "Country": "Greece", "type": "PoP", "id": 33, "Longitude": 24.40194, "label": "Kavala"}, {"Internal": 1, "Latitude": 41.14139, "Country": "Greece", "type": "IP Backbone Node", "id": 34, "Longitude": 24.88361, "label": "Xanthi"}, {"Internal": 1, "Latitude": 41.12278, "Country": "Greece", "type": "PoP", "id": 35, "Longitude": 25.39639, "label": "Komotini"}, {"Internal": 1, "Latitude": 40.8475, "Country": "Greece", "type": "PoP", "id": 36, "Longitude": 25.87444, "label": "Alexandroupoli"}], "links": [{"LinkSpeed": "1", "source": 0, "LinkLabel": "1Gb/s", "target": 2, "LinkSpeedUnits": "G", "LinkSpeedRaw": 1000000000.0}, {"LinkSpeed": "1", "source": 1, "LinkLabel": "1Gb/s", "target": 2, "LinkSpeedUnits": "G", "LinkSpeedRaw": 1000000000.0}, {"LinkSpeed": "1", "source": 2, "LinkLabel": "1Gb/s", "target": 3, "LinkSpeedUnits": "G", "LinkSpeedRaw": 1000000000.0}, {"LinkSpeed": "2.5", "source": 2, "LinkLabel": "2.5Gb/s", "target": 20, "LinkSpeedUnits": "G", "LinkSpeedRaw": 2500000000.0}, {"LinkSpeed": "2.5", "source": 2, "LinkLabel": "2.5Gb/s", "target": 30, "LinkSpeedUnits": "G", "LinkSpeedRaw": 2500000000.0}, {"LinkSpeed": "1", "source": 4, "LinkLabel": "1Gb/s", "target": 27, "LinkSpeedUnits": "G", "LinkSpeedRaw": 1000000000.0}, {"LinkSpeed": "1", "source": 4, "LinkLabel": "1Gb/s", "target": 5, "LinkSpeedUnits": "G", "LinkSpeedRaw": 1000000000.0}, {"LinkSpeed": "1", "source": 5, "LinkLabel": "1Gb/s", "target": 8, "LinkSpeedUnits": "G", "LinkSpeedRaw": 1000000000.0}, {"LinkSpeed": "1", "source": 6, "LinkLabel": "1Gb/s", "target": 28, "LinkSpeedUnits": "G", "LinkSpeedRaw": 1000000000.0}, {"LinkSpeed": "1", "source": 6, "LinkLabel": "1Gb/s", "target": 7, "LinkSpeedUnits": "G", "LinkSpeedRaw": 1000000000.0}, {"LinkSpeed": "1", "source": 8, "LinkLabel": "1Gb/s", "target": 9, "LinkSpeedUnits": "G", "LinkSpeedRaw": 1000000000.0}, {"LinkSpeed": "1", "source": 8, "LinkLabel": "1Gb/s", "target": 34, "LinkSpeedUnits": "G", "LinkSpeedRaw": 1000000000.0}, {"LinkSpeed": "2.5", "source": 8, "LinkLabel": "2.5Gb/s", "target": 20, "LinkSpeedUnits": "G", "LinkSpeedRaw": 2500000000.0}, {"LinkSpeed": "2.5", "source": 8, "LinkLabel": "2.5Gb/s", "target": 15, "LinkSpeedUnits": "G", "LinkSpeedRaw": 2500000000.0}, {"LinkSpeed": "1", "source": 8, "LinkLabel": "1Gb/s", "target": 15, "LinkSpeedUnits": "G", "LinkSpeedRaw": 1000000000.0}, {"LinkSpeed": "100", "source": 9, "LinkLabel": "100Mb/s", "target": 22, "LinkSpeedUnits": "M", "LinkSpeedRaw": 100000000.0}, {"LinkSpeed": "1", "source": 9, "LinkLabel": "1Gb/s", "target": 22, "LinkSpeedUnits": "G", "LinkSpeedRaw": 1000000000.0}, {"LinkSpeed": "1", "source": 10, "LinkLabel": "1Gb/s", "target": 24, "LinkSpeedUnits": "G", "LinkSpeedRaw": 1000000000.0}, {"source": 11, "id": "e38", "target": 20}, {"LinkSpeed": "2.5", "source": 12, "LinkLabel": "2.5Gb/s", "target": 20, "LinkSpeedUnits": "G", "LinkSpeedRaw": 2500000000.0}, {"LinkSpeed": "2.5", "source": 13, "LinkLabel": "2.5Gb/s", "target": 20, "LinkSpeedUnits": "G", "LinkSpeedRaw": 2500000000.0}, {"LinkSpeed": "10", "source": 14, "LinkLabel": "10Gb/s", "target": 20, "LinkSpeedUnits": "G", "LinkSpeedRaw": 10000000000.0}, {"LinkSpeed": "1", "source": 14, "LinkLabel": "1Gb/s", "target": 15, "LinkSpeedUnits": "G", "LinkSpeedRaw": 1000000000.0}, {"LinkSpeed": "1", "source": 15, "LinkLabel": "1Gb/s", "target": 16, "LinkSpeedUnits": "G", "LinkSpeedRaw": 1000000000.0}, {"LinkSpeed": "1", "source": 15, "LinkLabel": "1Gb/s", "target": 20, "LinkSpeedUnits": "G", "LinkSpeedRaw": 1000000000.0}, {"LinkSpeed": "10", "source": 15, "LinkLabel": "10Gb/s", "target": 20, "LinkSpeedUnits": "G", "LinkSpeedRaw": 10000000000.0}, {"LinkSpeed": "1", "source": 15, "LinkLabel": "1Gb/s", "target": 21, "LinkSpeedUnits": "G", "LinkSpeedRaw": 1000000000.0}, {"LinkSpeed": "1", "source": 17, "LinkLabel": "1Gb/s", "target": 18, "LinkSpeedUnits": "G", "LinkSpeedRaw": 1000000000.0}, {"LinkSpeed": "1", "source": 18, "LinkLabel": "1Gb/s", "target": 24, "LinkSpeedUnits": "G", "LinkSpeedRaw": 1000000000.0}, {"LinkSpeed": "1", "source": 19, "LinkLabel": "1Gb/s", "target": 20, "LinkSpeedUnits": "G", "LinkSpeedRaw": 1000000000.0}, {"LinkSpeed": "2.5", "source": 20, "LinkLabel": "2.5Gb/s", "target": 24, "LinkSpeedUnits": "G", "LinkSpeedRaw": 2500000000.0}, {"LinkSpeed": "10", "source": 20, "LinkLabel": "10Gb/s", "target": 24, "LinkSpeedUnits": "G", "LinkSpeedRaw": 10000000000.0}, {"LinkSpeed": "1", "source": 20, "LinkLabel": "1Gb/s", "target": 26, "LinkSpeedUnits": "G", "LinkSpeedRaw": 1000000000.0}, {"LinkSpeed": "10", "source": 20, "LinkLabel": "10Gb/s", "target": 30, "LinkSpeedUnits": "G", "LinkSpeedRaw": 10000000000.0}, {"LinkSpeed": "1", "source": 21, "LinkLabel": "1Gb/s", "target": 22, "LinkSpeedUnits": "G", "LinkSpeedRaw": 1000000000.0}, {"LinkSpeed": "1", "source": 23, "LinkLabel": "1Gb/s", "target": 26, "LinkSpeedUnits": "G", "LinkSpeedRaw": 1000000000.0}, {"LinkSpeed": "1", "source": 24, "LinkLabel": "1Gb/s", "target": 25, "LinkSpeedUnits": "G", "LinkSpeedRaw": 1000000000.0}, {"LinkSpeed": "1", "source": 24, "LinkLabel": "1Gb/s", "target": 25, "LinkSpeedUnits": "G", "LinkSpeedRaw": 1000000000.0}, {"LinkSpeed": "2.5", "source": 24, "LinkLabel": "2.5Gb/s", "target": 28, "LinkSpeedUnits": "G", "LinkSpeedRaw": 2500000000.0}, {"LinkSpeed": "2.5", "source": 28, "LinkLabel": "2.5Gb/s", "target": 30, "LinkSpeedUnits": "G", "LinkSpeedRaw": 2500000000.0}, {"LinkSpeed": "1", "source": 29, "LinkLabel": "1Gb/s", "target": 30, "LinkSpeedUnits": "G", "LinkSpeedRaw": 1000000000.0}, {"LinkSpeed": "2.5", "source": 30, "LinkLabel": "2.5Gb/s", "target": 34, "LinkSpeedUnits": "G", "LinkSpeedRaw": 2500000000.0}, {"LinkSpeed": "1", "source": 30, "LinkLabel": "1Gb/s", "target": 31, "LinkSpeedUnits": "G", "LinkSpeedRaw": 1000000000.0}, {"LinkSpeed": "1", "source": 31, "LinkLabel": "1Gb/s", "target": 32, "LinkSpeedUnits": "G", "LinkSpeedRaw": 1000000000.0}, {"LinkSpeed": "1", "source": 33, "LinkLabel": "1Gb/s", "target": 34, "LinkSpeedUnits": "G", "LinkSpeedRaw": 1000000000.0}, {"LinkSpeed": "1", "source": 34, "LinkLabel": "1Gb/s", "target": 35, "LinkSpeedUnits": "G", "LinkSpeedRaw": 1000000000.0}, {"LinkSpeed": "1", "source": 35, "LinkLabel": "1Gb/s", "target": 36, "LinkSpeedUnits": "G", "LinkSpeedRaw": 1000000000.0}], "multigraph": true}