{"directed": false, "graph": [["DateObtained", "22/10/10"], ["GeoLocation", "Hungary"], ["GeoExtent", "Country"], ["DateModifier", "="], ["Customer", 1], ["Network", "GTS Hungary"], ["IX", 0], ["Provenance", "Primary"], ["Access", 0], ["Source", "http://www.gtsce.com/en/map/index.shtml"], ["Version", "1.0"], ["DateMonth", "10"], ["DateYear", "2010"], ["DateType", "Current"], ["LastAccess", "22/10/10"], ["Layer", "IP"], ["Creator", "Topology Zoo Toolset"], ["Type", "COM"], ["SourceGitVersion", "e278b1b"], ["Backbone", 1], ["Commercial", 0], ["NetworkDate", "2010_10"], ["label", "GtsHungary"], ["LastProcessed", "2011_09_01"], ["Testbed", 0], ["Developed", 0], ["ToolsetVersion", "0.3.34dev-20120328"], ["Transit", 1]], "nodes": [{"Internal": 1, "type": "Small Node", "id": 0, "label": "None"}, {"Internal": 1, "Latitude": 48.1, "Country": "Hungary", "type": "Small Node", "id": 1, "Longitude": 20.78333, "label": "Miskolc"}, {"Internal": 1, "Latitude": 48.09872, "Country": "Hungary", "type": "Small Node", "id": 2, "Longitude": 19.80303, "label": "Salgotarjan"}, {"Internal": 1, "Latitude": 47.6, "Country": "Hungary", "type": "Small Node", "id": 3, "Longitude": 19.36667, "label": "Godollo"}, {"Internal": 1, "Latitude": 47.18333, "Country": "Hungary", "type": "Small Node", "id": 4, "Longitude": 20.2, "label": "Szolnok"}, {"Internal": 1, "Latitude": 46.98333, "Country": "Hungary", "type": "Small Node", "id": 5, "Longitude": 18.93333, "label": "Dunaujvaros"}, {"Internal": 1, "Latitude": 47.95539, "Country": "Hungary", "type": "Small Node", "id": 6, "Longitude": 21.71671, "label": "Nyiregyhaza"}, {"Internal": 1, "Latitude": 47.53333, "Country": "Hungary", "type": "Small Node", "id": 7, "Longitude": 21.63333, "label": "Debrecen"}, {"Internal": 1, "Latitude": 46.90618, "Country": "Hungary", "type": "Small Node", "id": 8, "Longitude": 19.69128, "label": "Kecskemet"}, {"Internal": 1, "Latitude": 46.18333, "Country": "Hungary", "type": "Small Node", "id": 9, "Longitude": 18.96667, "label": "Baja"}, {"Internal": 1, "Latitude": 46.08333, "Country": "Hungary", "type": "Small Node", "id": 10, "Longitude": 18.23333, "label": "Pecs"}, {"Internal": 0, "id": 11, "label": "None"}, {"Internal": 1, "Latitude": 46.253, "Country": "Hungary", "type": "Small Node", "id": 12, "Longitude": 20.14824, "label": "Szeged"}, {"Internal": 1, "Latitude": 46.9, "Country": "Hungary", "type": "Small Node", "id": 13, "Longitude": 18.05, "label": "Siofok"}, {"Internal": 1, "Latitude": 46.36667, "Country": "Hungary", "type": "Small Node", "id": 14, "Longitude": 17.8, "label": "Kaposvar"}, {"Internal": 1, "Latitude": 46.35, "Country": "Hungary", "type": "Small Node", "id": 15, "Longitude": 18.71667, "label": "Szekszard"}, {"Internal": 0, "id": 16, "label": "None"}, {"Internal": 0, "id": 17, "label": "Vienna"}, {"Internal": 0, "id": 18, "label": "Bratislava"}, {"Internal": 1, "Latitude": 46.68333, "Country": "Hungary", "type": "Small Node", "id": 19, "Longitude": 21.1, "label": "Bekescsaba"}, {"Internal": 1, "Latitude": 47.49801, "Country": "Hungary", "type": "Large Node", "id": 20, "Longitude": 19.03991, "label": "Budapest"}, {"Internal": 1, "Latitude": 47.78333, "Country": "Hungary", "type": "Small Node", "id": 21, "Longitude": 19.13333, "label": "Vac"}, {"Internal": 1, "Latitude": 47.68333, "Country": "Hungary", "type": "Small Node", "id": 22, "Longitude": 16.6, "label": "Sopron"}, {"Internal": 1, "Latitude": 47.23088, "Country": "Hungary", "type": "Small Node", "id": 23, "Longitude": 16.62155, "label": "Szombathely"}, {"Internal": 1, "Latitude": 46.84, "Country": "Hungary", "type": "Small Node", "id": 24, "Longitude": 16.84389, "label": "Zalaegerszeg"}, {"Internal": 1, "Latitude": 46.45347, "Country": "Hungary", "type": "Small Node", "id": 25, "Longitude": 16.99104, "label": "Nagykanizsa"}, {"Internal": 1, "Latitude": 47.18995, "Country": "Hungary", "type": "Small Node", "id": 26, "Longitude": 18.41034, "label": "Szekesfehervar"}, {"Internal": 1, "Latitude": 47.09327, "Country": "Hungary", "type": "Small Node", "id": 27, "Longitude": 17.91149, "label": "Veszprem"}, {"Internal": 1, "Latitude": 47.68333, "Country": "Hungary", "type": "Small Node", "id": 28, "Longitude": 17.63512, "label": "Gyor"}, {"Internal": 1, "Latitude": 47.56667, "Country": "Hungary", "type": "Small Node", "id": 29, "Longitude": 18.41667, "label": "Tatabanya"}], "links": [{"source": 0, "id": "e14", "target": 20}, {"source": 1, "id": "e15", "target": 20}, {"source": 2, "id": "e12", "target": 20}, {"source": 3, "id": "e13", "target": 20}, {"source": 4, "id": "e17", "target": 20}, {"source": 4, "id": "e25", "target": 7}, {"source": 5, "id": "e27", "target": 8}, {"source": 5, "id": "e18", "target": 20}, {"source": 6, "id": "e16", "target": 20}, {"source": 7, "id": "e26", "target": 12}, {"source": 8, "id": "e28", "target": 12}, {"source": 9, "id": "e19", "target": 20}, {"source": 10, "id": "e24", "target": 20}, {"source": 11, "id": "e30", "target": 12}, {"source": 12, "id": "e29", "target": 19}, {"source": 13, "id": "e22", "target": 20}, {"source": 14, "id": "e21", "target": 20}, {"source": 15, "id": "e20", "target": 20}, {"source": 16, "id": "e23", "target": 20}, {"source": 17, "id": "e1", "target": 22}, {"source": 18, "id": "e8", "target": 28}, {"source": 20, "id": "e11", "target": 21}, {"source": 20, "id": "e5", "target": 25}, {"source": 20, "id": "e6", "target": 26}, {"source": 20, "id": "e10", "target": 29}, {"source": 22, "id": "e2", "target": 28}, {"source": 22, "id": "e0", "target": 23}, {"source": 23, "id": "e3", "target": 24}, {"source": 24, "id": "e4", "target": 27}, {"source": 26, "id": "e7", "target": 27}, {"source": 28, "id": "e9", "target": 29}], "multigraph": true}