{"directed": false, "graph": [["DateObtained", "23/03/11"], ["GeoLocation", "Canada"], ["GeoExtent", "Country"], ["DateModifier", "="], ["Customer", 0], ["Network", "Hibernia Atlantic (Canada)"], ["IX", 0], ["Provenance", "Primary"], ["Access", 0], ["Source", "http://www.hiberniaatlantic.com/Canada_network.html"], ["Version", "1.0"], ["DateMonth", "03"], ["DateYear", "2011"], ["DateType", "Current"], ["LastAccess", "23/03/11"], ["Layer", "IP"], ["Creator", "Topology Zoo Toolset"], ["Type", "COM"], ["SourceGitVersion", "e278b1b"], ["Backbone", 1], ["Commercial", 0], ["NetworkDate", "2011_03"], ["label", "HiberniaCanada"], ["LastProcessed", "2011_09_01"], ["Testbed", 0], ["Developed", 0], ["ToolsetVersion", "0.3.34dev-20120328"], ["Transit", 1]], "nodes": [{"Internal": 1, "Latitude": 43.08342, "Country": "Canada", "type": "Yellow Node", "id": 0, "Longitude": -79.06627, "label": "New York"}, {"Internal": 0, "id": 1, "label": "None"}, {"Internal": 0, "id": 2, "label": "None"}, {"Internal": 1, "Latitude": 46.11594, "Country": "Canada", "type": "Green Node", "id": 3, "Longitude": -64.80186, "label": "Moncton"}, {"hyperedge": 1, "Internal": 1, "id": 4, "label": "None"}, {"Internal": 1, "Latitude": 47.3737, "Country": "Canada", "type": "Green Node", "id": 5, "Longitude": -68.32512, "label": "Edmundston"}, {"Internal": 1, "Latitude": 46.81228, "Country": "Canada", "type": "Green Node", "id": 6, "Longitude": -71.21454, "label": "Quebec"}, {"Internal": 1, "Latitude": 45.50884, "Country": "Canada", "type": "Green Node", "id": 7, "Longitude": -73.58781, "label": "Montreal"}, {"Internal": 1, "Latitude": 43.70011, "Country": "Canada", "type": "Green Node", "id": 8, "Longitude": -79.4163, "label": "Toronto"}, {"Internal": 1, "Latitude": 55.85017, "Country": "Canada", "type": "Green Node", "id": 9, "Longitude": -108.48475, "label": "Buffalo"}, {"Internal": 1, "Latitude": 46.28343, "Country": "Canada", "type": "Green Node", "id": 10, "Longitude": -63.64872, "label": "Albany"}, {"Internal": 1, "Latitude": 49.87002, "Country": "Canada", "type": "Green Node", "id": 11, "Longitude": -121.44399, "label": "Boston"}, {"Internal": 1, "Latitude": 44.646, "Country": "Canada", "type": "Green Node", "id": 12, "Longitude": -63.57333, "label": "Halifax"}], "links": [{"source": 0, "LinkLabel": "Green Link", "target": 10}, {"source": 0, "LinkLabel": "Green Link", "target": 11}, {"source": 1, "LinkLabel": "Blue Link", "target": 4}, {"source": 2, "LinkLabel": "Blue Link", "target": 12}, {"source": 3, "LinkLabel": "Green Link", "target": 12}, {"source": 3, "LinkLabel": "Green Link", "target": 5}, {"source": 4, "LinkLabel": "Blue Link", "target": 11}, {"source": 4, "LinkLabel": "Blue Link", "target": 12}, {"source": 5, "LinkLabel": "Green Link", "target": 6}, {"source": 6, "LinkLabel": "Green Link", "target": 7}, {"source": 7, "LinkLabel": "Green Link", "target": 8}, {"source": 7, "LinkLabel": "Green Link", "target": 10}, {"source": 8, "LinkLabel": "Green Link", "target": 9}, {"source": 9, "LinkLabel": "Green Link", "target": 10}], "multigraph": true}