{"directed": false, "graph": [["DateObtained", "23/03/11"], ["GeoLocation", "Ireland"], ["GeoExtent", "Country"], ["DateModifier", "="], ["Customer", 0], ["Network", "Hibernia Atlantic (Ireland)"], ["IX", 0], ["Provenance", "Primary"], ["Access", 0], ["Source", "http://www.hiberniaatlantic.com/Ireland_network.html"], ["Version", "1.0"], ["DateMonth", "03"], ["DateYear", "2011"], ["DateType", "Current"], ["LastAccess", "23/03/11"], ["Layer", "IP"], ["Creator", "Topology Zoo Toolset"], ["Type", "COM"], ["SourceGitVersion", "e278b1b"], ["Backbone", 1], ["Commercial", 0], ["NetworkDate", "2011_03"], ["label", "HiberniaIreland"], ["LastProcessed", "2011_09_01"], ["Testbed", 0], ["Developed", 0], ["ToolsetVersion", "0.3.34dev-20120328"], ["Transit", 1]], "nodes": [{"Internal": 1, "Latitude": 53.34399, "Country": "Ireland", "type": "Large Node", "id": 0, "Longitude": -6.26719, "label": "Dublin"}, {"Internal": 1, "Latitude": 53.27194, "Country": "Ireland", "type": "Small Node", "id": 1, "Longitude": -9.04889, "label": "Galway"}, {"Internal": 1, "Latitude": 52.66472, "Country": "Ireland", "type": "Small Node", "id": 2, "Longitude": -8.62306, "label": "Limerick"}, {"Internal": 1, "Latitude": 51.89861, "Country": "Ireland", "type": "Small Node", "id": 3, "Longitude": -8.49583, "label": "Cork"}, {"Internal": 1, "Latitude": 52.25833, "Country": "Ireland", "type": "Small Node", "id": 4, "Longitude": -7.11194, "label": "Waterford"}, {"Internal": 1, "Latitude": 53.03441, "Country": "Ireland", "type": "Small Node", "id": 5, "Longitude": -7.29979, "label": "Portlaioise"}, {"Internal": 0, "id": 6, "label": "None"}, {"Internal": 0, "id": 7, "label": "None"}], "links": [{"source": 0, "LinkLabel": "Blue Link", "target": 4}, {"source": 0, "LinkLabel": "Blue Link", "target": 5}, {"source": 0, "LinkLabel": "Green Link", "target": 6}, {"source": 0, "LinkLabel": "Green Link", "target": 7}, {"source": 1, "LinkLabel": "Blue Link", "target": 2}, {"source": 2, "LinkLabel": "Blue Link", "target": 3}, {"source": 2, "LinkLabel": "Blue Link", "target": 5}, {"source": 3, "LinkLabel": "Blue Link", "target": 4}], "multigraph": true}