{"directed": false, "graph": [["DateObtained", "14/01/11"], ["GeoLocation", "USA"], ["GeoExtent", "Country"], ["DateModifier", "="], ["Customer", 0], ["Network", "InternetMCI"], ["IX", 0], ["Provenance", "Secondary"], ["Note", "Peer interconnects only - IGNORE"], ["Source", "http://www.nthelp.com/images/interconnect.jpg"], ["Version", "1.0"], ["DateMonth", "01"], ["DateYear", "2011"], ["Type", "COM"], ["LastAccess", "14/01/11"], ["Access", 0], ["Layer", "IP"], ["Creator", "Topology Zoo Toolset"], ["DateType", "Current"], ["SourceGitVersion", "e278b1b"], ["Backbone", 0], ["Commercial", 0], ["NetworkDate", "2011_01"], ["label", "Internetmci"], ["LastProcessed", "2011_09_01"], ["Testbed", 0], ["Developed", 1], ["ToolsetVersion", "0.3.34dev-20120328"], ["Transit", 0]], "nodes": [{"Internal": 1, "Latitude": 29.76328, "Country": "United States", "id": 0, "Longitude": -95.36327, "label": "Houston"}, {"Internal": 1, "Latitude": 26.23786, "Country": "United States", "id": 1, "Longitude": -80.12477, "label": "Pompano Beach"}, {"Internal": 1, "Latitude": 33.81261, "Country": "United States", "id": 2, "Longitude": -84.63438, "label": "Austell"}, {"Internal": 1, "Latitude": 32.78306, "Country": "United States", "id": 3, "Longitude": -96.80667, "label": "Dallas"}, {"Internal": 1, "Latitude": 42.13565, "Country": "United States", "id": 4, "Longitude": -71.97007, "label": "Charlton"}, {"Internal": 1, "Latitude": 40.71427, "Country": "United States", "id": 5, "Longitude": -74.00597, "label": "New York"}, {"Internal": 1, "Latitude": 34.05223, "Country": "United States", "id": 6, "Longitude": -118.24368, "label": "Los Angeles"}, {"Internal": 1, "Latitude": 34.1064, "Country": "United States", "id": 7, "Longitude": -117.37032, "label": "Rialto"}, {"Internal": 1, "Latitude": 40.79871, "Country": "United States", "id": 8, "Longitude": -74.23904, "label": "West Orange"}, {"Internal": 1, "Latitude": 38.89511, "Country": "United States", "id": 9, "Longitude": -77.03637, "label": "Washington, DC"}, {"Internal": 1, "Latitude": 36.07264, "Country": "United States", "id": 10, "Longitude": -79.79198, "label": "Greensboro"}, {"Internal": 1, "Latitude": 47.60621, "Country": "United States", "id": 11, "Longitude": -122.33207, "label": "Seattle"}, {"Internal": 1, "Latitude": 37.77493, "Country": "United States", "id": 12, "Longitude": -122.41942, "label": "San Francisco"}, {"Internal": 1, "Latitude": 38.58157, "Country": "United States", "id": 13, "Longitude": -121.4944, "label": "Sacramento"}, {"Internal": 1, "Latitude": 39.73915, "Country": "United States", "id": 14, "Longitude": -104.9847, "label": "Denver"}, {"Internal": 1, "Latitude": 39.09112, "Country": "United States", "id": 15, "Longitude": -94.41551, "label": "Independence"}, {"Internal": 1, "Latitude": 36.99228, "Country": "United States", "id": 16, "Longitude": -91.96987, "label": "Willow Springs"}, {"Internal": 1, "Latitude": 41.80892, "Country": "United States", "id": 17, "Longitude": -88.01117, "label": "Downers Grove"}, {"Internal": 1, "Latitude": 41.31366, "Country": "United States", "id": 18, "Longitude": -81.72457, "label": "North Royalton"}], "links": [{"LinkType": "DS-3", "source": 0, "LinkLabel": "45 Mbps DS-3", "LinkNote": "45 Mbps ", "target": 1}, {"LinkType": "DS-3", "source": 0, "LinkLabel": "45 Mbps DS-3", "LinkNote": "45 Mbps ", "target": 3}, {"LinkType": "DS-3", "source": 0, "LinkLabel": "45 Mbps DS-3", "LinkNote": "45 Mbps ", "target": 3}, {"LinkType": "DS-3", "source": 1, "LinkLabel": "45 Mbps DS-3", "LinkNote": "45 Mbps ", "target": 2}, {"LinkType": "DS-3", "source": 1, "LinkLabel": "45 Mbps DS-3", "LinkNote": "45 Mbps ", "target": 2}, {"LinkType": "DS-3", "source": 2, "LinkLabel": "45 Mbps DS-3", "LinkNote": "45 Mbps ", "target": 10}, {"LinkType": "OC-3", "LinkSpeed": "155", "LinkLabel": "155 Mbps OC-3", "target": 3, "source": 2, "LinkSpeedUnits": "M", "LinkSpeedRaw": 155000000.0}, {"LinkType": "OC-12", "LinkSpeed": "622", "LinkLabel": "622 Mbps OC-12", "target": 9, "source": 2, "LinkSpeedUnits": "M", "LinkSpeedRaw": 622000000.0}, {"LinkType": "OC-3", "LinkSpeed": "155", "LinkLabel": "155 Mbps OC-3", "target": 7, "source": 2, "LinkSpeedUnits": "M", "LinkSpeedRaw": 155000000.0}, {"LinkType": "OC-3", "LinkSpeed": "155", "LinkLabel": "155 Mbps OC-3", "target": 16, "source": 3, "LinkSpeedUnits": "M", "LinkSpeedRaw": 155000000.0}, {"LinkType": "DS-3", "source": 3, "LinkLabel": "45 Mbps DS-3", "LinkNote": "45 Mbps ", "target": 15}, {"LinkType": "OC-3", "LinkSpeed": "155", "LinkLabel": "155 Mbps OC-3", "target": 7, "source": 3, "LinkSpeedUnits": "M", "LinkSpeedRaw": 155000000.0}, {"LinkType": "DS-3", "source": 4, "LinkLabel": "45 Mbps DS-3", "LinkNote": "45 Mbps ", "target": 8}, {"LinkType": "DS-3", "source": 4, "LinkLabel": "45 Mbps DS-3", "LinkNote": "45 Mbps ", "target": 8}, {"LinkType": "DS-3", "source": 4, "LinkLabel": "45 Mbps DS-3", "LinkNote": "45 Mbps ", "target": 9}, {"LinkType": "DS-3", "source": 4, "LinkLabel": "45 Mbps DS-3", "LinkNote": "45 Mbps ", "target": 5}, {"LinkType": "DS-3", "source": 4, "LinkLabel": "45 Mbps DS-3", "LinkNote": "45 Mbps ", "target": 16}, {"LinkType": "DS-3", "source": 5, "LinkLabel": "45 Mbps DS-3", "LinkNote": "45 Mbps ", "target": 8}, {"LinkType": "DS-3", "source": 5, "LinkLabel": "45 Mbps DS-3", "LinkNote": "45 Mbps ", "target": 8}, {"LinkType": "DS-3", "source": 6, "LinkLabel": "45 Mbps DS-3", "LinkNote": "45 Mbps ", "target": 12}, {"LinkType": "DS-3", "source": 6, "LinkLabel": "45 Mbps DS-3", "LinkNote": "45 Mbps ", "target": 7}, {"LinkType": "DS-3", "source": 6, "LinkLabel": "45 Mbps DS-3", "LinkNote": "45 Mbps ", "target": 7}, {"LinkType": "OC-3", "LinkSpeed": "155", "LinkLabel": "155 Mbps OC-3", "target": 12, "source": 7, "LinkSpeedUnits": "M", "LinkSpeedRaw": 155000000.0}, {"LinkType": "OC-3", "LinkSpeed": "155", "LinkLabel": "155 Mbps OC-3", "target": 12, "source": 7, "LinkSpeedUnits": "M", "LinkSpeedRaw": 155000000.0}, {"LinkType": "OC-3", "LinkSpeed": "155", "LinkLabel": "155 Mbps OC-3", "target": 9, "source": 8, "LinkSpeedUnits": "M", "LinkSpeedRaw": 155000000.0}, {"LinkType": "OC-3", "LinkSpeed": "155", "LinkLabel": "155 Mbps OC-3", "target": 9, "source": 8, "LinkSpeedUnits": "M", "LinkSpeedRaw": 155000000.0}, {"LinkType": "OC-3", "LinkSpeed": "155", "LinkLabel": "155 Mbps OC-3", "target": 14, "source": 8, "LinkSpeedUnits": "M", "LinkSpeedRaw": 155000000.0}, {"LinkType": "OC-3", "LinkSpeed": "155", "LinkLabel": "155 Mbps OC-3", "target": 16, "source": 8, "LinkSpeedUnits": "M", "LinkSpeedRaw": 155000000.0}, {"LinkType": "DS-3", "source": 8, "LinkLabel": "45 Mbps DS-3", "LinkNote": "45 Mbps ", "target": 18}, {"LinkType": "DS-3", "source": 8, "LinkLabel": "45 Mbps DS-3", "LinkNote": "45 Mbps ", "target": 18}, {"LinkType": "OC-3", "LinkSpeed": "155", "LinkLabel": "155 Mbps OC-3", "target": 16, "source": 9, "LinkSpeedUnits": "M", "LinkSpeedRaw": 155000000.0}, {"LinkType": "DS-3", "source": 9, "LinkLabel": "45 Mbps DS-3", "LinkNote": "45 Mbps ", "target": 10}, {"LinkType": "OC-3", "LinkSpeed": "155", "LinkLabel": "155 Mbps OC-3", "target": 12, "source": 11, "LinkSpeedUnits": "M", "LinkSpeedRaw": 155000000.0}, {"LinkType": "OC-3", "LinkSpeed": "155", "LinkLabel": "155 Mbps OC-3", "target": 12, "source": 11, "LinkSpeedUnits": "M", "LinkSpeedRaw": 155000000.0}, {"LinkType": "DS-3", "source": 11, "LinkLabel": "45 Mbps DS-3", "LinkNote": "45 Mbps ", "target": 14}, {"LinkType": "DS-3", "source": 12, "LinkLabel": "45 Mbps DS-3", "LinkNote": "45 Mbps ", "target": 13}, {"LinkType": "DS-3", "source": 12, "LinkLabel": "45 Mbps DS-3", "LinkNote": "45 Mbps ", "target": 13}, {"LinkType": "OC-3", "LinkSpeed": "155", "LinkLabel": "155 Mbps OC-3", "target": 14, "source": 12, "LinkSpeedUnits": "M", "LinkSpeedRaw": 155000000.0}, {"LinkType": "OC-3", "LinkSpeed": "155", "LinkLabel": "155 Mbps OC-3", "target": 14, "source": 12, "LinkSpeedUnits": "M", "LinkSpeedRaw": 155000000.0}, {"LinkType": "OC-3", "LinkSpeed": "155", "LinkLabel": "155 Mbps OC-3", "target": 16, "source": 14, "LinkSpeedUnits": "M", "LinkSpeedRaw": 155000000.0}, {"LinkType": "DS-3", "source": 14, "LinkLabel": "45 Mbps DS-3", "LinkNote": "45 Mbps ", "target": 15}, {"LinkType": "DS-3", "source": 15, "LinkLabel": "45 Mbps DS-3", "LinkNote": "45 Mbps ", "target": 16}, {"LinkType": "DS-3", "source": 16, "LinkLabel": "45 Mbps DS-3", "LinkNote": "45 Mbps ", "target": 17}, {"LinkType": "DS-3", "source": 16, "LinkLabel": "45 Mbps DS-3", "LinkNote": "45 Mbps ", "target": 17}, {"LinkType": "OC-3", "LinkSpeed": "155", "LinkLabel": "155 Mbps OC-3", "target": 18, "source": 17, "LinkSpeedUnits": "M", "LinkSpeedRaw": 155000000.0}], "multigraph": true}