{"directed": false, "graph": [["DateObtained", "24/10/10"], ["GeoLocation", "New York, USA"], ["GeoExtent", "Region"], ["DateModifier", "="], ["Customer", 1], ["Network", "ION"], ["IX", 0], ["Provenance", "Primary"], ["Access", 0], ["Source", "http://www.i-o-n.com/network.html"], ["Version", "1.0"], ["DateMonth", 0], ["DateYear", "2007"], ["Type", "COM"], ["LastAccess", "3/08/10"], ["Layer", "Fibre"], ["Creator", "Topology Zoo Toolset"], ["DateType", "Historic"], ["SourceGitVersion", "e278b1b"], ["Backbone", 1], ["Commercial", 0], ["NetworkDate", "2007"], ["label", "Ion"], ["LastProcessed", "2011_09_01"], ["Testbed", 0], ["Developed", 1], ["ToolsetVersion", "0.3.34dev-20120328"], ["Transit", 1]], "nodes": [{"Internal": 1, "Latitude": 43.83867, "Country": "United States", "id": 0, "Longitude": -73.76096, "label": "Schroon Lake"}, {"Internal": 1, "Latitude": 43.32701, "Country": "United States", "id": 1, "Longitude": -75.18683, "label": "Remsen"}, {"Internal": 1, "Latitude": 42.87813, "Country": "United States", "id": 2, "Longitude": -73.19677, "label": "Benningtown"}, {"Internal": 1, "Latitude": 42.85092, "Country": "United States", "id": 3, "Longitude": -72.55787, "label": "Brattleboro"}, {"Internal": 1, "Latitude": 42.99397, "Country": "United States", "id": 4, "Longitude": -72.48342, "label": "Putney"}, {"Internal": 1, "Latitude": 43.13341, "Country": "United States", "id": 5, "Longitude": -72.44398, "label": "Bellows Falls"}, {"Internal": 1, "Latitude": 42.93369, "Country": "United States", "id": 6, "Longitude": -72.27814, "label": "Keene"}, {"Internal": 1, "Latitude": 42.35843, "Country": "United States", "id": 7, "Longitude": -71.05977, "label": "Boston"}, {"Internal": 1, "Latitude": 43.08313, "Country": "United States", "id": 8, "Longitude": -73.78457, "label": "Saratoga Springs"}, {"Internal": 1, "Latitude": 43.37729, "Country": "United States", "id": 9, "Longitude": -73.61317, "label": "Queensbury"}, {"Internal": 1, "Latitude": 42.1487, "Country": "United States", "id": 10, "Longitude": -74.64821, "label": "Margaretsville"}, {"Internal": 1, "Latitude": 42.27814, "Country": "United States", "id": 11, "Longitude": -74.91599, "label": "Delhi"}, {"Internal": 1, "Latitude": 42.53118, "Country": "United States", "id": 12, "Longitude": -75.52351, "label": "Norwich"}, {"Internal": 1, "Latitude": 42.06008, "Country": "United States", "id": 13, "Longitude": -75.42768, "label": "Deposit"}, {"Internal": 1, "Latitude": 43.02563, "Country": "United States", "id": 14, "Longitude": -74.98599, "label": "Herkimmer"}, {"Internal": 1, "Latitude": 43.1859, "Country": "United States", "id": 15, "Longitude": -75.01432, "label": "Newport"}, {"Internal": 1, "Longitude": -75.53934, "Latitude": 43.07951, "Country": "United States", "id": 16, "geocode_id": "5142269", "label": "Vernon"}, {"Internal": 1, "Latitude": 43.1009, "Country": "United States", "id": 17, "Longitude": -75.23266, "label": "Utica"}, {"Internal": 1, "Latitude": 41.95398, "Country": "United States", "id": 18, "Longitude": -75.28045, "label": "Hancock"}, {"Internal": 1, "Latitude": 42.09869, "Country": "United States", "id": 19, "Longitude": -75.91797, "label": "Binghampton"}, {"Internal": 1, "Latitude": 42.35092, "Country": "United States", "id": 20, "Longitude": -73.8029, "label": "Coxsackie"}, {"hyperedge": 1, "Internal": 1, "id": 21, "label": "None"}, {"hyperedge": 1, "Internal": 1, "id": 22, "label": "None"}, {"Internal": 1, "Latitude": 44.98643, "Country": "United States", "id": 23, "Longitude": -73.44653, "label": "Champlain"}, {"hyperedge": 1, "Internal": 1, "id": 24, "label": "None"}, {"Internal": 1, "Longitude": -73.48458, "Latitude": 44.45922, "Country": "United States", "id": 25, "geocode_id": "5112478", "label": "Chesterfield"}, {"Internal": 1, "Latitude": 44.18394, "Country": "United States", "id": 26, "Longitude": -73.43568, "label": "Westport"}, {"Internal": 1, "Latitude": 44.88976, "Country": "United States", "id": 27, "Longitude": -73.43597, "label": "Chazy"}, {"Internal": 1, "Latitude": 44.69949, "Country": "United States", "id": 28, "Longitude": -73.45291, "label": "Plattsburgh"}, {"Internal": 1, "Latitude": 44.47588, "Country": "United States", "id": 29, "Longitude": -73.21207, "label": "Burlington"}, {"Internal": 1, "id": 30, "label": "None"}, {"Internal": 1, "id": 31, "label": "None"}, {"Internal": 1, "Latitude": 44.49144, "Country": "United States", "id": 32, "Longitude": -73.18568, "label": "Winooski"}, {"Internal": 1, "Latitude": 44.49061, "Country": "United States", "id": 33, "Longitude": -73.11096, "label": "Essex Junction"}, {"Internal": 1, "Latitude": 44.26006, "Country": "United States", "id": 34, "Longitude": -72.57539, "label": "Mountpelier"}, {"Internal": 1, "Latitude": 41.70037, "Country": "United States", "id": 35, "Longitude": -73.92097, "label": "Poughkeepsie"}, {"Internal": 1, "Latitude": 42.13453, "Country": "United States", "id": 36, "Longitude": -73.8918, "label": "Germantown"}, {"Internal": 1, "Latitude": 41.4712, "Country": "United States", "id": 37, "Longitude": -75.04211, "label": "Rowland"}, {"Internal": 1, "Latitude": 41.37509, "Country": "United States", "id": 38, "Longitude": -74.69266, "label": "Port Jervis"}, {"Internal": 1, "Latitude": 41.65147, "Country": "United States", "id": 39, "Longitude": -75.46657, "label": "Forest City"}, {"Internal": 1, "Latitude": 41.50536, "Country": "United States", "id": 40, "Longitude": -75.41213, "label": "South Canaan"}, {"Internal": 1, "Latitude": 40.71427, "Country": "United States", "id": 41, "Longitude": -74.00597, "label": "New York City"}, {"Internal": 1, "Latitude": 41.33593, "Country": "United States", "id": 42, "Longitude": -73.87403, "label": "Putnam Valley"}, {"Internal": 1, "Longitude": -74.19237, "Latitude": 41.3087, "Country": "United States", "id": 43, "geocode_id": "5127313", "label": "Monroe"}, {"Internal": 1, "Latitude": 41.30843, "Country": "United States", "id": 44, "Longitude": -74.14459, "label": "Harriman"}, {"Internal": 1, "Latitude": 42.10285, "Country": "United States", "id": 45, "Longitude": -77.23359, "label": "Addison"}, {"Internal": 1, "Latitude": 42.14285, "Country": "United States", "id": 46, "Longitude": -77.05469, "label": "Corning"}, {"Internal": 1, "Latitude": 42.0898, "Country": "United States", "id": 47, "Longitude": -76.80773, "label": "Elmira"}, {"Internal": 1, "Latitude": 42.33674, "Country": "United States", "id": 48, "Longitude": -76.78857, "label": "Odessa"}, {"Internal": 1, "Latitude": 42.42007, "Country": "United States", "id": 49, "Longitude": -76.84885, "label": "Burdett"}, {"Internal": 1, "Latitude": 42.90479, "Country": "United States", "id": 50, "Longitude": -76.86274, "label": "Waterloo"}, {"Internal": 1, "Latitude": 42.86896, "Country": "United States", "id": 51, "Longitude": -76.97774, "label": "Geneva"}, {"Internal": 1, "Latitude": 42.67646, "Country": "United States", "id": 52, "Longitude": -76.82301, "label": "Ovid"}, {"Internal": 1, "Latitude": 41.98341, "Country": "United States", "id": 53, "Longitude": -76.93857, "label": "Millerton"}, {"Internal": 1, "Latitude": 42.03785, "Country": "United States", "id": 54, "Longitude": -77.76249, "label": "Whitesville"}, {"Internal": 1, "Latitude": 42.82701, "Country": "United States", "id": 55, "Longitude": -75.54462, "label": "Hamilton"}, {"Internal": 1, "Latitude": 42.70063, "Country": "United States", "id": 56, "Longitude": -74.92432, "label": "Cooperstown"}, {"Internal": 1, "Latitude": 42.45286, "Country": "United States", "id": 57, "Longitude": -75.06377, "label": "Oneonta"}, {"Internal": 1, "Latitude": 42.59869, "Country": "United States", "id": 58, "Longitude": -74.33292, "label": "Middleburgh"}, {"Internal": 1, "Latitude": 42.49091, "Country": "United States", "id": 59, "Longitude": -76.29716, "label": "Dryden"}, {"Internal": 1, "Latitude": 42.44063, "Country": "United States", "id": 60, "Longitude": -76.49661, "label": "Ithaca"}, {"Internal": 1, "Latitude": 42.60118, "Country": "United States", "id": 61, "Longitude": -76.18048, "label": "Cortland"}, {"Internal": 1, "Latitude": 42.89868, "Country": "United States", "id": 62, "Longitude": -75.64018, "label": "Morrisville"}, {"Internal": 1, "Latitude": 44.43867, "Country": "United States", "id": 63, "Longitude": -74.25266, "label": "Paul Smiths"}, {"Internal": 1, "Latitude": 42.65258, "Country": "United States", "id": 64, "Longitude": -73.75623, "label": "Albany"}, {"Internal": 1, "Latitude": 43.05285, "Country": "United States", "id": 65, "Longitude": -74.34375, "label": "Gloversville"}, {"Internal": 1, "Latitude": 44.3295, "Country": "United States", "id": 66, "Longitude": -74.13127, "label": "Saranac Lake"}, {"Internal": 1, "Latitude": 42.88645, "Country": "United States", "id": 67, "Longitude": -78.87837, "label": "Buffalo"}, {"Internal": 1, "Latitude": 43.18617, "Country": "United States", "id": 68, "Longitude": -78.19419, "label": "Barre"}, {"Internal": 1, "Latitude": 43.78674, "Country": "United States", "id": 69, "Longitude": -75.49185, "label": "Lowville"}, {"Internal": 1, "Latitude": 43.48368, "Country": "United States", "id": 70, "Longitude": -75.33656, "label": "Boonville"}, {"Internal": 1, "Latitude": 43.51007, "Country": "United States", "id": 71, "Longitude": -76.00214, "label": "Altmar"}, {"Internal": 1, "Latitude": 43.56701, "Country": "United States", "id": 72, "Longitude": -76.1277, "label": "Pulaski"}, {"Internal": 1, "Latitude": 42.93173, "Country": "United States", "id": 73, "Longitude": -76.56605, "label": "Auburn"}, {"Internal": 1, "Latitude": 43.04812, "Country": "United States", "id": 74, "Longitude": -76.14742, "label": "Syracuse"}, {"Internal": 1, "Latitude": 43.15478, "Country": "United States", "id": 75, "Longitude": -77.61556, "label": "Rochester"}, {"Internal": 1, "Latitude": 42.95756, "Country": "United States", "id": 76, "Longitude": -77.05747, "label": "Phelps"}, {"Internal": 1, "Latitude": 42.32229, "Country": "United States", "id": 77, "Longitude": -77.73833, "label": "Almond"}, {"Internal": 1, "Latitude": 42.5609, "Country": "United States", "id": 78, "Longitude": -77.3936, "label": "Ingleside"}, {"Internal": 1, "Latitude": 42.12201, "Country": "United States", "id": 79, "Longitude": -77.94806, "label": "Wellsville"}, {"Internal": 1, "Latitude": 42.25424, "Country": "United States", "id": 80, "Longitude": -77.79055, "label": "Alfred"}, {"Internal": 1, "Latitude": 42.15784, "Country": "United States", "id": 81, "Longitude": -78.71503, "label": "Salamanca"}, {"Internal": 1, "Latitude": 42.07756, "Country": "United States", "id": 82, "Longitude": -78.42974, "label": "Olean"}, {"Internal": 1, "Latitude": 42.34422, "Country": "United States", "id": 83, "Longitude": -79.30949, "label": "Cassadaga"}, {"Internal": 1, "Latitude": 42.097, "Country": "United States", "id": 84, "Longitude": -79.23533, "label": "Jamestown"}, {"Internal": 1, "id": 85, "label": "Empire Telephone Co"}, {"Internal": 1, "Latitude": 42.44006, "Country": "United States", "id": 86, "Longitude": -79.33171, "label": "Fredonia"}, {"Internal": 1, "Latitude": 44.27949, "Country": "United States", "id": 87, "Longitude": -73.97987, "label": "Lake Placid"}, {"Internal": 1, "Latitude": 44.84866, "Country": "United States", "id": 88, "Longitude": -74.2949, "label": "Malone"}, {"hyperedge": 1, "Internal": 1, "id": 89, "label": "None"}, {"hyperedge": 1, "Internal": 1, "id": 90, "label": "None"}, {"hyperedge": 1, "Internal": 1, "id": 91, "label": "None"}, {"hyperedge": 1, "Internal": 1, "id": 92, "label": "None"}, {"hyperedge": 1, "Internal": 1, "id": 93, "label": "None"}, {"hyperedge": 1, "Internal": 1, "id": 94, "label": "None"}, {"hyperedge": 1, "Internal": 1, "id": 95, "label": "None"}, {"hyperedge": 1, "Internal": 1, "id": 96, "label": "None"}, {"Internal": 1, "Latitude": 42.67785, "Country": "United States", "id": 97, "Longitude": -74.48542, "label": "Cobleskill"}, {"Internal": 1, "Latitude": 42.93007, "Country": "United States", "id": 98, "Longitude": -75.85269, "label": "Cazenovia"}, {"Internal": 1, "Latitude": 43.16369, "Country": "United States", "id": 99, "Longitude": -73.07233, "label": "Manchester"}, {"Internal": 1, "Latitude": 43.55562, "Country": "United States", "id": 100, "Longitude": -73.40372, "label": "Whitehall"}, {"Internal": 1, "Latitude": 44.13339, "Country": "United States", "id": 101, "Longitude": -73.07901, "label": "Bristol"}, {"Internal": 1, "Latitude": 43.64229, "Country": "United States", "id": 102, "Longitude": -72.25176, "label": "Lebanon"}, {"Internal": 1, "Latitude": 43.64896, "Country": "United States", "id": 103, "Longitude": -72.31926, "label": "White River Junction"}, {"Internal": 1, "Latitude": 44.19701, "Country": "United States", "id": 104, "Longitude": -72.50205, "label": "Barre"}, {"Internal": 1, "Latitude": 43.61062, "Country": "United States", "id": 105, "Longitude": -72.97261, "label": "Rutland"}, {"Internal": 1, "Latitude": 44.01534, "Country": "United States", "id": 106, "Longitude": -73.16734, "label": "Middlebury"}, {"Internal": 1, "Latitude": 43.95034, "Country": "United States", "id": 107, "Longitude": -73.43707, "label": "Crown Point"}, {"Internal": 1, "Latitude": 44.08867, "Country": "United States", "id": 108, "Longitude": -73.30262, "label": "Addison"}, {"hyperedge": 1, "Internal": 1, "id": 109, "label": "None"}, {"hyperedge": 1, "Internal": 1, "id": 110, "label": "None"}, {"hyperedge": 1, "Internal": 1, "id": 111, "label": "None"}, {"hyperedge": 1, "Internal": 1, "id": 112, "label": "None"}, {"hyperedge": 1, "Internal": 1, "id": 113, "label": "None"}, {"hyperedge": 1, "Internal": 1, "id": 114, "label": "None"}, {"Internal": 1, "Latitude": 44.33673, "Country": "United States", "id": 115, "Longitude": -75.46299, "label": "Gouveneur"}, {"Internal": 1, "Latitude": 42.07759, "Country": "United States", "id": 116, "Longitude": -73.95291, "label": "Saugerties"}, {"Internal": 1, "Latitude": 43.97478, "Country": "United States", "id": 117, "Longitude": -75.91076, "label": "Watertown"}, {"Internal": 1, "Latitude": 44.33588, "Country": "United States", "id": 118, "Longitude": -75.91773, "label": "Alexandria Bay"}, {"Internal": 1, "Latitude": 44.69423, "Country": "United States", "id": 119, "Longitude": -75.48634, "label": "Ogdensburg"}, {"Internal": 1, "Latitude": 44.9281, "Country": "United States", "id": 120, "Longitude": -74.89186, "label": "Massena"}, {"Internal": 1, "Latitude": 44.66978, "Country": "United States", "id": 121, "Longitude": -74.98131, "label": "Potsdam"}, {"Internal": 1, "Latitude": 44.59562, "Country": "United States", "id": 122, "Longitude": -75.16909, "label": "Canton"}, {"hyperedge": 1, "Internal": 1, "id": 123, "label": "None"}, {"hyperedge": 1, "Internal": 1, "id": 124, "label": "None"}], "links": [{"source": 0, "id": "e20", "target": 25}, {"source": 0, "id": "e52", "target": 9}, {"source": 1, "id": "e55", "target": 114}, {"source": 1, "id": "e54", "target": 70}, {"source": 2, "id": "e45", "target": 3}, {"source": 2, "id": "e44", "target": 99}, {"source": 3, "id": "e46", "target": 4}, {"source": 3, "id": "e47", "target": 5}, {"source": 3, "id": "e48", "target": 6}, {"source": 3, "id": "e49", "target": 6}, {"source": 3, "id": "e50", "target": 7}, {"source": 5, "id": "e34", "target": 103}, {"source": 8, "id": "e51", "target": 92}, {"source": 8, "id": "e43", "target": 100}, {"source": 9, "id": "e53", "target": 64}, {"source": 10, "id": "e111", "target": 58}, {"source": 10, "id": "e125", "target": 11}, {"source": 11, "id": "e124", "target": 18}, {"source": 12, "id": "e128", "target": 19}, {"source": 13, "id": "e127", "target": 18}, {"source": 13, "id": "e126", "target": 19}, {"source": 14, "id": "e121", "target": 17}, {"source": 14, "id": "e120", "target": 111}, {"source": 15, "id": "e119", "target": 114}, {"source": 15, "id": "e118", "target": 111}, {"source": 16, "id": "e123", "target": 112}, {"source": 16, "id": "e122", "target": 17}, {"source": 18, "id": "e129", "target": 39}, {"source": 19, "id": "e100", "target": 59}, {"source": 20, "id": "e115", "target": 64}, {"source": 20, "id": "e142", "target": 36}, {"source": 21, "id": "e82", "target": 80}, {"source": 21, "id": "e97", "target": 54}, {"source": 21, "id": "e80", "target": 79}, {"source": 22, "id": "e81", "target": 80}, {"source": 22, "id": "e96", "target": 54}, {"source": 22, "id": "e79", "target": 79}, {"source": 23, "id": "e22", "target": 26}, {"source": 23, "id": "e18", "target": 27}, {"source": 24, "id": "e139", "target": 35}, {"source": 24, "id": "e140", "target": 35}, {"source": 24, "id": "e141", "target": 36}, {"source": 25, "id": "e19", "target": 28}, {"source": 26, "id": "e21", "target": 107}, {"source": 26, "id": "e14", "target": 87}, {"source": 27, "id": "e17", "target": 28}, {"source": 28, "id": "e15", "target": 88}, {"source": 29, "id": "e25", "target": 32}, {"source": 29, "id": "e27", "target": 33}, {"source": 29, "id": "e28", "target": 101}, {"source": 29, "id": "e30", "target": 105}, {"source": 29, "id": "e29", "target": 106}, {"source": 29, "id": "e26", "target": 30}, {"source": 30, "id": "e23", "target": 31}, {"source": 31, "id": "e24", "target": 32}, {"source": 33, "id": "e31", "target": 34}, {"source": 34, "id": "e32", "target": 104}, {"source": 34, "id": "e33", "target": 103}, {"source": 35, "id": "e138", "target": 42}, {"source": 37, "id": "e131", "target": 40}, {"source": 37, "id": "e132", "target": 38}, {"source": 38, "id": "e133", "target": 43}, {"source": 39, "id": "e130", "target": 40}, {"source": 41, "id": "e137", "target": 42}, {"source": 41, "id": "e135", "target": 44}, {"source": 43, "id": "e134", "target": 44}, {"source": 44, "id": "e136", "target": 116}, {"source": 45, "id": "e95", "target": 93}, {"source": 45, "id": "e94", "target": 54}, {"source": 46, "id": "e93", "target": 93}, {"source": 46, "id": "e92", "target": 47}, {"source": 47, "id": "e90", "target": 48}, {"source": 48, "id": "e88", "target": 49}, {"source": 48, "id": "e91", "target": 123}, {"source": 48, "id": "e85", "target": 78}, {"source": 49, "id": "e89", "target": 109}, {"source": 50, "id": "e66", "target": 76}, {"source": 51, "id": "e87", "target": 52}, {"source": 51, "id": "e65", "target": 76}, {"source": 52, "id": "e86", "target": 109}, {"source": 53, "id": "e98", "target": 123}, {"source": 55, "id": "e108", "target": 56}, {"source": 55, "id": "e106", "target": 62}, {"source": 56, "id": "e109", "target": 57}, {"source": 57, "id": "e110", "target": 97}, {"source": 58, "id": "e112", "target": 97}, {"source": 58, "id": "e113", "target": 92}, {"source": 59, "id": "e101", "target": 124}, {"source": 59, "id": "e99", "target": 61}, {"source": 60, "id": "e103", "target": 124}, {"source": 60, "id": "e104", "target": 124}, {"source": 60, "id": "e102", "target": 109}, {"source": 61, "id": "e105", "target": 98}, {"source": 62, "id": "e107", "target": 98}, {"source": 63, "id": "e11", "target": 96}, {"source": 63, "id": "e12", "target": 66}, {"source": 64, "id": "e114", "target": 116}, {"source": 64, "id": "e116", "target": 65}, {"source": 65, "id": "e117", "target": 111}, {"source": 66, "id": "e13", "target": 87}, {"source": 67, "id": "e60", "target": 74}, {"source": 67, "id": "e70", "target": 68}, {"source": 67, "id": "e71", "target": 86}, {"source": 68, "id": "e69", "target": 95}, {"source": 69, "id": "e0", "target": 117}, {"source": 69, "id": "e56", "target": 70}, {"source": 71, "id": "e58", "target": 74}, {"source": 72, "id": "e57", "target": 74}, {"source": 72, "id": "e1", "target": 117}, {"source": 73, "id": "e63", "target": 124}, {"source": 73, "id": "e62", "target": 110}, {"source": 74, "id": "e59", "target": 112}, {"source": 74, "id": "e61", "target": 110}, {"source": 75, "id": "e67", "target": 76}, {"source": 75, "id": "e68", "target": 95}, {"source": 76, "id": "e64", "target": 110}, {"source": 77, "id": "e83", "target": 80}, {"source": 77, "id": "e84", "target": 78}, {"source": 79, "id": "e78", "target": 82}, {"source": 81, "id": "e76", "target": 82}, {"source": 81, "id": "e77", "target": 94}, {"source": 83, "id": "e74", "target": 94}, {"source": 83, "id": "e73", "target": 86}, {"source": 84, "id": "e75", "target": 94}, {"source": 85, "id": "e72", "target": 95}, {"source": 88, "id": "e16", "target": 91}, {"source": 89, "id": "e149", "target": 90}, {"source": 89, "id": "e143", "target": 115}, {"source": 89, "id": "e10", "target": 122}, {"source": 90, "id": "e148", "target": 96}, {"source": 91, "id": "e6", "target": 120}, {"source": 93, "id": "e147", "target": 123}, {"source": 96, "id": "e8", "target": 121}, {"source": 99, "id": "e42", "target": 105}, {"source": 100, "id": "e41", "target": 105}, {"source": 100, "id": "e40", "target": 107}, {"source": 101, "id": "e37", "target": 106}, {"source": 102, "id": "e36", "target": 103}, {"source": 102, "id": "e35", "target": 103}, {"source": 106, "id": "e39", "target": 108}, {"source": 107, "id": "e38", "target": 108}, {"source": 111, "id": "e146", "target": 113}, {"source": 112, "id": "e145", "target": 113}, {"source": 113, "id": "e144", "target": 114}, {"source": 115, "id": "e2", "target": 117}, {"source": 117, "id": "e3", "target": 118}, {"source": 118, "id": "e4", "target": 119}, {"source": 119, "id": "e5", "target": 120}, {"source": 120, "id": "e7", "target": 121}, {"source": 121, "id": "e9", "target": 122}], "multigraph": true}