{"directed": false, "graph": [["DateObtained", "31/03/11"], ["GeoLocation", "UK"], ["GeoExtent", "Country"], ["DateModifier", "="], ["Customer", 1], ["Network", "Janet Backbone"], ["IX", 0], ["Provenance", "Primary"], ["Access", 0], ["Source", "http://www.ja.net/images/company/network-topology/topology-map.pdf"], ["Version", "1.0"], ["DateMonth", "03"], ["DateYear", "2011"], ["DateType", "Current"], ["LastAccess", "31/03/11"], ["Layer", "IP"], ["Creator", "Topology Zoo Toolset"], ["Type", "REN"], ["SourceGitVersion", "e278b1b"], ["Backbone", 1], ["Commercial", 0], ["NetworkDate", "2011_03"], ["label", "Janetbackbone"], ["LastProcessed", "2011_09_01"], ["Testbed", 0], ["Developed", 0], ["ToolsetVersion", "0.3.34dev-20120328"], ["Transit", 1]], "nodes": [{"Internal": 1, "Latitude": 51.46117, "Country": "United Kingdom", "type": "Node", "id": 0, "Longitude": -0.93083, "label": "TVN"}, {"Internal": 1, "Latitude": 51.37795, "Country": "United Kingdom", "type": "Node", "id": 1, "Longitude": -2.35907, "label": "SWERN"}, {"Internal": 1, "Latitude": 52.5, "Country": "United Kingdom", "type": "Node", "id": 2, "Longitude": -1.96667, "label": "MidMAN"}, {"Internal": 1, "Latitude": 51.48, "Country": "United Kingdom", "type": "Node", "id": 3, "Longitude": -3.18, "label": "WREN"}, {"Internal": 1, "Latitude": 51.50853, "Country": "United Kingdom", "type": "Node", "id": 4, "Longitude": -0.12574, "label": "LMN"}, {"Internal": 1, "Latitude": 52.2, "Country": "United Kingdom", "type": "Node", "id": 5, "Longitude": 0.11667, "label": "EastNet"}, {"Internal": 1, "Latitude": 50.90395, "Country": "United Kingdom", "type": "Node", "id": 6, "Longitude": -1.40428, "label": "LeNSE"}, {"Internal": 1, "Latitude": 51.38914, "Country": "United Kingdom", "type": "Node", "id": 7, "Longitude": 0.54863, "label": "Kentish MAN"}, {"Internal": 1, "Latitude": 52.83111, "Country": "United Kingdom", "type": "Node", "id": 8, "Longitude": -1.32806, "label": "EMMAN"}, {"Internal": 1, "type": "Blue Square", "id": 9, "label": "Dublin"}, {"Internal": 1, "Latitude": 55.95, "Country": "United Kingdom", "type": "Blue Square", "id": 10, "Longitude": -3.2, "label": "Sco-locate"}, {"Internal": 1, "Latitude": 51.45625, "Country": "United Kingdom", "type": "Core Node", "id": 11, "Longitude": -0.97113, "label": "Reading"}, {"Internal": 1, "Latitude": 53.79648, "Country": "United Kingdom", "type": "Core Node", "id": 12, "Longitude": -1.54785, "label": "Leeds"}, {"Internal": 1, "Latitude": 53.39254, "Country": "United Kingdom", "type": "Core Node", "id": 13, "Longitude": -2.58024, "label": "Warrington"}, {"Internal": 1, "Latitude": 55.86515, "Country": "United Kingdom", "type": "Core Node", "id": 14, "Longitude": -4.25763, "label": "Glasgow"}, {"Internal": 1, "Latitude": 51.50853, "Country": "United Kingdom", "type": "Core Node", "id": 15, "Longitude": -0.12574, "label": "Telehouse"}, {"Internal": 1, "Latitude": 51.50853, "Country": "United Kingdom", "type": "Core Node", "id": 16, "Longitude": -0.12574, "label": "Telecity"}, {"Internal": 1, "Latitude": 51.50853, "Country": "United Kingdom", "type": "Core Node", "id": 17, "Longitude": -0.12574, "label": "London"}, {"Internal": 1, "Latitude": 51.45, "Country": "United Kingdom", "type": "Core Node", "id": 18, "Longitude": -2.58333, "label": "Bristol"}, {"Country": "United Kingdom", "Longitude": -2.83333, "label": "C&NLMAN", "Internal": 1, "geocode_id": "2651712", "Latitude": 54.58333, "type": "Node", "id": 19}, {"Country": "United Kingdom", "Longitude": -6.5, "label": "NIRAN", "Internal": 1, "geocode_id": "2641364", "Latitude": 54.5, "type": "Node", "id": 20}, {"Internal": 1, "Latitude": 57.12, "Country": "United Kingdom", "type": "Node", "id": 21, "Longitude": -4.71, "label": "UHIMI"}, {"Internal": 1, "Latitude": 57.14369, "Country": "United Kingdom", "type": "Node", "id": 22, "Longitude": -2.09814, "label": "AbMAN"}, {"Internal": 1, "Latitude": 56.33871, "Country": "United Kingdom", "type": "Node", "id": 23, "Longitude": -2.79902, "label": "FaTMAN"}, {"Internal": 1, "Latitude": 55.95, "Country": "United Kingdom", "type": "Node", "id": 24, "Longitude": -3.2, "label": "EaStMAN"}, {"Internal": 1, "Latitude": 55.86515, "Country": "United Kingdom", "type": "Node", "id": 25, "Longitude": -4.25763, "label": "Clydenet"}, {"Internal": 1, "Latitude": 54.97328, "Country": "United Kingdom", "type": "Node", "id": 26, "Longitude": -1.61396, "label": "NorMAN"}, {"Internal": 1, "Latitude": 54.27966, "Country": "United Kingdom", "type": "Node", "id": 27, "Longitude": -0.40443, "label": "YHMAN"}, {"Internal": 1, "Latitude": 53.48095, "Country": "United Kingdom", "type": "Node", "id": 28, "Longitude": -2.23743, "label": "NNW"}], "links": [{"source": 0, "LinkLabel": "Purple Link", "target": 11}, {"source": 0, "LinkLabel": "Purple Link", "target": 4}, {"source": 1, "LinkLabel": "Purple Link", "target": 18}, {"source": 1, "LinkLabel": "Purple Link", "target": 3}, {"source": 2, "LinkLabel": "Purple Link", "target": 12}, {"source": 2, "LinkLabel": "Purple Link", "target": 13}, {"source": 3, "LinkLabel": "Purple Link", "target": 11}, {"source": 4, "LinkLabel": "Purple Link", "target": 17}, {"source": 5, "LinkLabel": "Purple Link", "target": 17}, {"source": 5, "LinkLabel": "Purple Link", "target": 12}, {"source": 6, "LinkLabel": "Purple Link", "target": 17}, {"source": 6, "LinkLabel": "Purple Link", "target": 18}, {"source": 7, "LinkLabel": "Purple Link", "target": 17}, {"source": 7, "LinkLabel": "Purple Link", "target": 11}, {"source": 8, "LinkLabel": "Purple Link", "target": 17}, {"source": 8, "LinkLabel": "Purple Link", "target": 12}, {"source": 9, "LinkLabel": "Purple Link", "target": 20}, {"source": 9, "LinkLabel": "Purple Link", "target": 13}, {"source": 10, "LinkLabel": "Red Link", "target": 12}, {"source": 10, "LinkLabel": "Red Link", "target": 14}, {"source": 11, "LinkLabel": "Red Link", "target": 13}, {"source": 11, "LinkLabel": "Red Link", "target": 16}, {"source": 11, "LinkLabel": "Red Link", "target": 18}, {"source": 12, "LinkLabel": "Red Link", "target": 13}, {"source": 12, "LinkLabel": "Red Link", "target": 17}, {"source": 12, "LinkLabel": "Purple Link", "target": 23}, {"source": 12, "LinkLabel": "Purple Link", "target": 24}, {"source": 12, "LinkLabel": "Purple Link", "target": 26}, {"source": 12, "LinkLabel": "Purple Link", "target": 27}, {"source": 13, "LinkLabel": "Red Link", "target": 14}, {"source": 13, "LinkLabel": "Purple Link", "target": 19}, {"source": 13, "LinkLabel": "Purple Link", "target": 28}, {"source": 14, "LinkLabel": "Purple Link", "target": 19}, {"source": 14, "LinkLabel": "Purple Link", "target": 20}, {"source": 14, "LinkLabel": "Purple Link", "target": 21}, {"source": 14, "LinkLabel": "Purple Link", "target": 25}, {"source": 14, "LinkLabel": "Purple Link", "target": 26}, {"source": 14, "LinkLabel": "Purple Link", "target": 28}, {"source": 15, "LinkLabel": "Red Link", "target": 16}, {"source": 15, "LinkLabel": "Red Link", "target": 17}, {"source": 17, "LinkLabel": "Red Link", "target": 18}, {"source": 21, "LinkLabel": "Purple Link", "target": 22}, {"source": 22, "LinkLabel": "Purple Link", "target": 23}, {"source": 24, "LinkLabel": "Purple Link", "target": 25}, {"source": 27, "LinkLabel": "Purple Link", "target": 28}], "multigraph": true}