{"directed": false, "graph": [["DateObtained", "22/10/10"], ["GeoLocation", "New Zealand"], ["GeoExtent", "Country"], ["DateModifier", "="], ["Customer", 0], ["Network", "KAREN"], ["IX", 0], ["Provenance", "Primary"], ["Note", "Does VC count as Customer? Transit status unclear. Names using http://weathermap.karen.net.nz/"], ["Source", "http://www.karen.net.nz/topology/"], ["Version", "1.0"], ["DateMonth", "12"], ["DateYear", "2010"], ["Type", "REN"], ["LastAccess", "3/08/10"], ["Access", 0], ["Layer", "IP"], ["Creator", "Topology Zoo Toolset"], ["DateType", "Historic"], ["SourceGitVersion", "e278b1b"], ["Backbone", 1], ["Commercial", 0], ["NetworkDate", "2010_12"], ["label", "Karen"], ["LastProcessed", "2011_09_01"], ["Testbed", 0], ["Developed", 1], ["ToolsetVersion", "0.3.34dev-20120328"], ["Transit", 0]], "nodes": [{"Internal": 1, "Latitude": -41.28664, "Country": "New Zealand", "id": 0, "Longitude": 174.77557, "label": "WLG"}, {"Internal": 1, "Latitude": -45.87416, "Country": "New Zealand", "id": 1, "Longitude": 170.50361, "label": "DUD"}, {"Internal": 1, "Latitude": -41.19827, "Country": "New Zealand", "id": 2, "Longitude": 174.92019, "label": "AVL"}, {"Internal": 1, "Latitude": -40.35, "Country": "New Zealand", "id": 3, "Longitude": 175.61667, "label": "PNR"}, {"Internal": 1, "Latitude": -43.65, "Country": "New Zealand", "id": 4, "Longitude": 172.48333, "label": "LCN"}, {"Internal": 1, "Latitude": -43.53333, "Country": "New Zealand", "id": 5, "Longitude": 172.63333, "label": "CHC"}, {"Internal": 1, "Latitude": -45.84838, "Country": "New Zealand", "id": 6, "Longitude": 170.3801, "label": "IVM"}, {"Internal": 1, "Latitude": -46.4, "Country": "New Zealand", "id": 7, "Longitude": 168.35, "label": "INV"}, {"Internal": 1, "Latitude": -44.01667, "Country": "New Zealand", "id": 8, "Longitude": 170.5, "label": "TPO"}, {"Internal": 1, "Latitude": -41.28333, "Country": "New Zealand", "id": 9, "Longitude": 173.28333, "label": "NLS"}, {"Internal": 0, "id": 10, "label": "Syd"}, {"Internal": 1, "Latitude": -36.8782, "Country": "New Zealand", "id": 11, "Longitude": 174.72019, "label": "MTA"}, {"Internal": 1, "Latitude": -39.06667, "Country": "New Zealand", "id": 12, "Longitude": 174.08333, "label": "NPL"}, {"Internal": 1, "Latitude": -39.93333, "Country": "New Zealand", "id": 13, "Longitude": 175.05, "label": "WAG"}, {"Internal": 1, "Latitude": -40.35, "Country": "New Zealand", "id": 14, "Longitude": 175.61667, "label": "MUP"}, {"Internal": 1, "Latitude": -36.8, "Country": "New Zealand", "id": 15, "Longitude": 174.75, "label": "NSH"}, {"Internal": 1, "Latitude": -36.4, "Country": "New Zealand", "id": 16, "Longitude": 174.66667, "label": "WRK"}, {"Internal": 0, "id": 17, "label": "LAX"}, {"Internal": 1, "Latitude": -37.68611, "Country": "New Zealand", "id": 18, "Longitude": 176.16667, "label": "TAU"}, {"Internal": 1, "Latitude": -38.65333, "Country": "New Zealand", "id": 19, "Longitude": 178.00417, "label": "GIS"}, {"Internal": 1, "Latitude": -41.13333, "Country": "New Zealand", "id": 20, "Longitude": 174.85, "label": "POR"}, {"Internal": 1, "Latitude": -39.48333, "Country": "New Zealand", "id": 21, "Longitude": 176.91667, "label": "NAP"}, {"Internal": 1, "Latitude": -38.13874, "Country": "New Zealand", "id": 22, "Longitude": 176.24516, "label": "ROT"}, {"Internal": 1, "Latitude": -37.78333, "Country": "New Zealand", "id": 23, "Longitude": 175.28333, "label": "HLT"}, {"Internal": 1, "Latitude": -36.86667, "Country": "New Zealand", "id": 24, "Longitude": 174.76667, "label": "AKL"}], "links": [{"LinkSpeed": "1", "source": 0, "LinkLabel": "1Gb/s", "target": 1, "LinkSpeedUnits": "G", "LinkSpeedRaw": 1000000000.0}, {"LinkSpeed": "10", "source": 0, "LinkLabel": "10Gb/s", "target": 2, "LinkSpeedUnits": "G", "LinkSpeedRaw": 10000000000.0}, {"LinkSpeed": "10", "source": 0, "LinkLabel": "10Gb/s", "target": 3, "LinkSpeedUnits": "G", "LinkSpeedRaw": 10000000000.0}, {"LinkSpeed": "10", "source": 0, "LinkLabel": "10Gb/s", "target": 5, "LinkSpeedUnits": "G", "LinkSpeedRaw": 10000000000.0}, {"LinkSpeed": "10", "source": 0, "LinkLabel": "10Gb/s", "target": 9, "LinkSpeedUnits": "G", "LinkSpeedRaw": 10000000000.0}, {"LinkSpeed": "10", "source": 1, "LinkLabel": "10Gb/s", "target": 4, "LinkSpeedUnits": "G", "LinkSpeedRaw": 10000000000.0}, {"LinkSpeed": "10", "source": 1, "LinkLabel": "10Gb/s", "target": 6, "LinkSpeedUnits": "G", "LinkSpeedRaw": 10000000000.0}, {"LinkSpeed": "10", "source": 1, "LinkLabel": "10Gb/s (planning)", "target": 6, "LinkStatus": "Planning", "LinkSpeedUnits": "G", "LinkSpeedRaw": 10000000000.0}, {"LinkSpeed": "10", "source": 1, "LinkLabel": "10Gb/s", "target": 7, "LinkSpeedUnits": "G", "LinkSpeedRaw": 10000000000.0}, {"LinkSpeed": "1", "source": 2, "LinkLabel": "1Gb/s", "target": 20, "LinkSpeedUnits": "G", "LinkSpeedRaw": 1000000000.0}, {"LinkSpeed": "10", "source": 2, "LinkLabel": "10Gb/s", "target": 14, "LinkSpeedUnits": "G", "LinkSpeedRaw": 10000000000.0}, {"LinkSpeed": "10", "source": 3, "LinkLabel": "10Gb/s", "target": 24, "LinkSpeedUnits": "G", "LinkSpeedRaw": 10000000000.0}, {"LinkSpeed": "1", "source": 3, "LinkLabel": "1Gb/s", "target": 12, "LinkSpeedUnits": "G", "LinkSpeedRaw": 1000000000.0}, {"LinkSpeed": "1", "source": 3, "LinkLabel": "1Gb/s", "target": 13, "LinkSpeedUnits": "G", "LinkSpeedRaw": 1000000000.0}, {"LinkSpeed": "10", "source": 3, "LinkLabel": "10Gb/s", "target": 14, "LinkSpeedUnits": "G", "LinkSpeedRaw": 10000000000.0}, {"LinkSpeed": "10", "source": 4, "LinkLabel": "10Gb/s", "target": 5, "LinkSpeedUnits": "G", "LinkSpeedRaw": 10000000000.0}, {"LinkSpeed": "1", "source": 5, "LinkLabel": "1gb/s", "target": 8, "LinkSpeedUnits": "G", "LinkSpeedRaw": 1000000000.0}, {"LinkSpeed": "10", "source": 5, "LinkLabel": "10Gb/s", "target": 9, "LinkSpeedUnits": "G", "LinkSpeedRaw": 10000000000.0}, {"LinkSpeed": "1", "source": 10, "LinkLabel": "1Gb/s", "target": 24, "LinkSpeedUnits": "G", "LinkSpeedRaw": 1000000000.0}, {"LinkSpeed": "10", "source": 11, "LinkLabel": "10Gb/s", "target": 24, "LinkSpeedUnits": "G", "LinkSpeedRaw": 10000000000.0}, {"LinkSpeed": "10", "source": 14, "LinkLabel": "10Gb/s", "target": 21, "LinkSpeedUnits": "G", "LinkSpeedRaw": 10000000000.0}, {"LinkSpeed": "1", "source": 15, "LinkLabel": "1Gb/s", "target": 16, "LinkSpeedUnits": "G", "LinkSpeedRaw": 1000000000.0}, {"LinkSpeed": "10", "source": 15, "LinkLabel": "10Gb/s", "target": 24, "LinkSpeedUnits": "G", "LinkSpeedRaw": 10000000000.0}, {"LinkSpeed": "10", "source": 15, "LinkLabel": "10Gb/s", "target": 24, "LinkSpeedUnits": "G", "LinkSpeedRaw": 10000000000.0}, {"LinkSpeed": "1", "source": 17, "LinkLabel": "1Gb/s", "target": 24, "LinkSpeedUnits": "G", "LinkSpeedRaw": 1000000000.0}, {"LinkSpeed": "1", "source": 18, "LinkLabel": "1Gb/s", "target": 22, "LinkSpeedUnits": "G", "LinkSpeedRaw": 1000000000.0}, {"LinkSpeed": "1", "source": 19, "LinkLabel": "1Gb/s", "target": 21, "LinkSpeedUnits": "G", "LinkSpeedRaw": 1000000000.0}, {"LinkSpeed": "10", "source": 21, "LinkLabel": "10Gb/s", "target": 22, "LinkSpeedUnits": "G", "LinkSpeedRaw": 10000000000.0}, {"LinkSpeed": "10", "source": 22, "LinkLabel": "10Gb/s", "target": 23, "LinkSpeedUnits": "G", "LinkSpeedRaw": 10000000000.0}, {"LinkSpeed": "10", "source": 23, "LinkLabel": "10Gb/s", "target": 24, "LinkSpeedUnits": "G", "LinkSpeedRaw": 10000000000.0}], "multigraph": true}