{"directed": false, "graph": [["DateObtained", "31/01/11"], ["GeoLocation", "Kent, UK"], ["GeoExtent", "Region"], ["DateModifier", "="], ["Customer", 0], ["Network", "KentMan"], ["IX", 0], ["Provenance", "Secondary"], ["Note", "JANET local provider, Geolocation for Beacon Hill approximated"], ["Source", "http://replay.waybackmachine.org/20060815163251/http://www.kentman.ac.uk/kman/map.html"], ["Version", "1.0"], ["DateMonth", "08"], ["DateYear", "2005"], ["DateType", "Historic"], ["LastAccess", "31/01/11"], ["Access", 0], ["Layer", "IP"], ["Creator", "Topology Zoo Toolset"], ["Type", "REN"], ["SourceGitVersion", "e278b1b"], ["Backbone", 1], ["Commercial", 0], ["NetworkDate", "2005_08"], ["label", "KentmanAug2005"], ["LastProcessed", "2011_09_01"], ["Testbed", 0], ["Developed", 1], ["ToolsetVersion", "0.3.34dev-20120328"], ["Transit", 0]], "nodes": [{"Internal": 1, "Latitude": 51.27537, "Country": "United Kingdom", "type": "Connected Site", "id": 0, "Longitude": 1.09078, "label": "KIAD-C"}, {"Internal": 1, "Latitude": 51.27402, "Country": "United Kingdom", "type": "Connected Site", "id": 1, "Longitude": 1.08782, "label": "Canterbury College"}, {"Internal": 1, "Latitude": 51.38633, "Country": "United Kingdom", "type": "Connected Site", "id": 2, "Longitude": 0.54627, "label": "Medway ACL"}, {"Internal": 1, "Latitude": 51.39485, "Country": "United Kingdom", "type": "Connected Site", "id": 3, "Longitude": 0.54608, "label": "Mid Kent College"}, {"Internal": 1, "Latitude": 51.13959, "Country": "United Kingdom", "type": "Connected Site", "id": 4, "Longitude": 0.86101, "label": "South Kent College - Ashford"}, {"Internal": 1, "Latitude": 51.27115, "Country": "United Kingdom", "type": "Connected Site", "id": 5, "Longitude": 0.49799, "label": "KIAD-O"}, {"Internal": 1, "Latitude": 51.35426, "Country": "United Kingdom", "type": "Connected Site", "id": 6, "Longitude": 1.43483, "label": "Thanet College"}, {"Internal": 1, "Latitude": 51.36106, "Country": "United Kingdom", "type": "Connected Site", "id": 7, "Longitude": 1.43006, "label": "Hilderstone College"}, {"Internal": 1, "Latitude": 51.27631, "Country": "United Kingdom", "type": "Connected Site", "id": 8, "Longitude": 0.52191, "label": "Kent ACL"}, {"Internal": 1, "Latitude": 51.21667, "Country": "United Kingdom", "type": "Connected Site", "id": 9, "Longitude": 0.33333, "label": "Hadlow College"}, {"Internal": 1, "Latitude": 51.18249, "Country": "United Kingdom", "type": "Radio Mast", "id": 10, "Longitude": 0.93678, "label": "NTL-Wye"}, {"Internal": 1, "Latitude": 51.08333, "Country": "United Kingdom", "id": 11, "Longitude": 0.53333, "label": "Cranbrook"}, {"Internal": 1, "Latitude": 51.18333, "Country": "United Kingdom", "type": "Radio Mast", "id": 12, "Longitude": 0.28333, "label": "Tonbridge"}, {"Internal": 1, "Latitude": 51.18787, "Country": "United Kingdom", "type": "Connected Site", "id": 13, "Longitude": 0.2647, "label": "West Kent College"}, {"Internal": 1, "Latitude": 51.29762, "Country": "United Kingdom", "type": "PoP Site", "id": 14, "Longitude": 1.06121, "label": "UoK-C"}, {"Internal": 1, "Latitude": 51.33265, "Country": "United Kingdom", "type": "Radio Mast", "id": 15, "Longitude": 0.5046, "label": "Blue Bell Hill"}, {"Internal": 1, "Latitude": 51.4, "Country": "United Kingdom", "type": "Radio Mast", "id": 16, "Longitude": 0.43333, "label": "Beacon Hill"}, {"Internal": 1, "Latitude": 51.29169, "Country": "United Kingdom", "type": "Radio Mast", "id": 17, "Longitude": 0.97929, "label": "Dunkirk"}, {"Internal": 1, "Latitude": 51.45, "Country": "United Kingdom", "type": "Connected Site", "id": 18, "Longitude": 0.21667, "label": "NW Kent College - Dartford"}, {"Internal": 1, "Latitude": 51.37992, "Country": "United Kingdom", "type": "Connected Site", "id": 19, "Longitude": 0.51438, "label": "KIAD-R"}, {"Internal": 1, "Latitude": 51.44628, "Country": "United Kingdom", "type": "PoP Site", "id": 20, "Longitude": 0.07703, "label": "UoG-AH"}, {"geocode_append": "Medway", "Country": "United Kingdom", "Longitude": 0.07703, "label": "University of Greenwich", "Internal": 1, "Latitude": 51.44628, "type": "PoP Site", "id": 21}, {"Internal": 1, "Latitude": 51.27934, "Country": "United Kingdom", "type": "PoP Site", "id": 22, "Longitude": 1.08936, "label": "CCCU-C"}, {"Internal": 1, "Latitude": 51.18249, "Country": "United Kingdom", "type": "PoP Site", "id": 23, "Longitude": 0.93678, "label": "IC-Wye"}, {"Internal": 1, "Latitude": 51.25665, "Country": "United Kingdom", "type": "PoP Site", "id": 24, "Longitude": 0.54953, "label": "EIS-Maidstone"}, {"Internal": 1, "Latitude": 51.15222, "Country": "United Kingdom", "type": "PoP Site", "id": 25, "Longitude": 0.24307, "label": "CCCU-S"}, {"Internal": 1, "Latitude": 51.35895, "Country": "United Kingdom", "type": "PoP Site", "id": 26, "Longitude": 1.40616, "label": "CCCU-T"}, {"Internal": 1, "Latitude": 51.28554, "Country": "United Kingdom", "type": "Connected Site", "id": 27, "Longitude": 0.21928, "label": "Dorton College"}], "links": [{"LinkSpeed": "34", "source": 0, "LinkLabel": "Microwave 34 Mbps ATM", "target": 14, "LinkNote": "icrowave   AT", "LinkSpeedUnits": "M", "LinkSpeedRaw": 34000000.0}, {"LinkSpeed": "10", "source": 1, "LinkLabel": "LES 10Mbps", "target": 14, "LinkNote": "LES ", "LinkSpeedUnits": "M", "LinkSpeedRaw": 10000000.0}, {"LinkSpeed": "10", "source": 3, "LinkLabel": "LES 10Mbps", "target": 21, "LinkNote": "LES ", "LinkSpeedUnits": "M", "LinkSpeedRaw": 10000000.0}, {"LinkSpeed": "10", "source": 4, "LinkLabel": "LES 10Mbps", "target": 23, "LinkNote": "LES ", "LinkSpeedUnits": "M", "LinkSpeedRaw": 10000000.0}, {"LinkSpeed": "10", "source": 5, "LinkLabel": "LES 10Mbps", "target": 15, "LinkNote": "LES ", "LinkSpeedUnits": "M", "LinkSpeedRaw": 10000000.0}, {"LinkSpeed": "10", "source": 6, "LinkLabel": "LES 10Mbps", "target": 26, "LinkNote": "LES ", "LinkSpeedUnits": "M", "LinkSpeedRaw": 10000000.0}, {"LinkSpeed": "2", "source": 7, "LinkLabel": "Megastream 2Mbps", "target": 14, "LinkNote": "egastream ", "LinkSpeedUnits": "M", "LinkSpeedRaw": 2000000.0}, {"LinkSpeed": "10", "source": 8, "LinkLabel": "LES 10Mbps", "target": 21, "LinkNote": "LES ", "LinkSpeedUnits": "M", "LinkSpeedRaw": 10000000.0}, {"LinkSpeed": "2", "source": 9, "LinkLabel": "Megastream 2Mbps", "target": 12, "LinkNote": "egastream ", "LinkSpeedUnits": "M", "LinkSpeedRaw": 2000000.0}, {"LinkSpeed": "155", "source": 10, "LinkLabel": "Microwave 155 Mbps ATM", "target": 11, "LinkNote": "icrowave   AT", "LinkSpeedUnits": "M", "LinkSpeedRaw": 155000000.0}, {"LinkSpeed": "155", "source": 10, "LinkLabel": "Microwave 155 Mbps ATM", "target": 23, "LinkNote": "icrowave   AT", "LinkSpeedUnits": "M", "LinkSpeedRaw": 155000000.0}, {"LinkSpeed": "155", "source": 11, "LinkLabel": "Microwave 155 Mbps ATM", "target": 15, "LinkNote": "icrowave   AT", "LinkSpeedUnits": "M", "LinkSpeedRaw": 155000000.0}, {"LinkSpeed": "2", "source": 12, "LinkLabel": "Megastream 2Mbps", "target": 25, "LinkNote": "egastream ", "LinkSpeedUnits": "M", "LinkSpeedRaw": 2000000.0}, {"LinkSpeed": "10", "source": 13, "LinkLabel": "LES 10Mbps", "target": 25, "LinkNote": "LES ", "LinkSpeedUnits": "M", "LinkSpeedRaw": 10000000.0}, {"LinkSpeed": "155", "source": 14, "LinkLabel": "Microwave 155 Mbps ATM", "target": 17, "LinkNote": "icrowave   AT", "LinkSpeedUnits": "M", "LinkSpeedRaw": 155000000.0}, {"LinkSpeed": "1", "source": 14, "LinkLabel": "WaveStream 1 Gbps", "target": 21, "LinkNote": "WaveStream  ", "LinkSpeedUnits": "G", "LinkSpeedRaw": 1000000000.0}, {"LinkSpeed": "155", "source": 14, "LinkLabel": "Microwave 155 Mbps ATM", "target": 26, "LinkNote": "icrowave   AT", "LinkSpeedUnits": "M", "LinkSpeedRaw": 155000000.0}, {"LinkSpeed": "155", "source": 15, "LinkLabel": "Microwave 155 Mbps ATM", "target": 16, "LinkNote": "icrowave   AT", "LinkSpeedUnits": "M", "LinkSpeedRaw": 155000000.0}, {"LinkSpeed": "34", "source": 15, "LinkLabel": "Microwave 34 Mbps ATM", "target": 25, "LinkNote": "icrowave   AT", "LinkSpeedUnits": "M", "LinkSpeedRaw": 34000000.0}, {"LinkType": "ATM", "LinkSpeed": "155", "target": 21, "LinkNote": "LES   AT", "LinkSpeedUnits": "M", "source": 15, "LinkLabel": "LES 155 Mbps ATM", "LinkSpeedRaw": 155000000.0}, {"LinkSpeed": "155", "source": 16, "LinkLabel": "Microwave 155 Mbps ATM", "target": 17, "LinkNote": "icrowave   AT", "LinkSpeedUnits": "M", "LinkSpeedRaw": 155000000.0}, {"LinkSpeed": "34", "source": 16, "LinkLabel": "Microwave 34 Mbps ATM", "target": 19, "LinkNote": "icrowave   AT", "LinkSpeedUnits": "M", "LinkSpeedRaw": 34000000.0}, {"LinkType": "ATM", "LinkSpeed": "155", "target": 21, "LinkNote": "LES   AT", "LinkSpeedUnits": "M", "source": 16, "LinkLabel": "LES 155 Mbps ATM", "LinkSpeedRaw": 155000000.0}, {"LinkSpeed": "10", "source": 18, "LinkLabel": "LES 10Mbps", "target": 20, "LinkNote": "LES ", "LinkSpeedUnits": "M", "LinkSpeedRaw": 10000000.0}, {"LinkSpeed": "1", "source": 20, "LinkLabel": "WaveStream 1 Gbps", "target": 21, "LinkNote": "WaveStream  ", "LinkSpeedUnits": "G", "LinkSpeedRaw": 1000000000.0}, {"LinkSpeed": "1", "source": 21, "LinkLabel": "WaveStream 1 Gbps", "target": 24, "LinkNote": "WaveStream  ", "LinkSpeedUnits": "G", "LinkSpeedRaw": 1000000000.0}, {"LinkSpeed": "2", "source": 21, "LinkLabel": "Megastream 2Mbps", "target": 25, "LinkNote": "egastream ", "LinkSpeedUnits": "M", "LinkSpeedRaw": 2000000.0}, {"LinkSpeed": "2", "source": 21, "LinkLabel": "Megastream 2Mbps", "target": 27, "LinkNote": "egastream ", "LinkSpeedUnits": "M", "LinkSpeedRaw": 2000000.0}, {"LinkType": "ATM", "LinkSpeed": "155", "target": 23, "LinkNote": "LES   AT", "LinkSpeedUnits": "M", "source": 22, "LinkLabel": "LES 155 Mbps ATM", "LinkSpeedRaw": 155000000.0}], "multigraph": true}