{"directed": false, "graph": [["DateObtained", "31/01/11"], ["GeoLocation", "Kent, UK"], ["GeoExtent", "Region"], ["DateModifier", "="], ["Customer", 0], ["Network", "KentMan"], ["IX", 0], ["Provenance", "Primary"], ["Note", "JANET local provider, Unclear of difference between UoK-C (PoP) and University of Kent (connected site). Universities at Medway unclear. Unable to find UCA-Chatham"], ["Source", "http://www.kentman.ac.uk/kman/map.html"], ["Version", "1.0"], ["DateMonth", "01"], ["DateYear", "2011"], ["Type", "REN"], ["LastAccess", "31/01/11"], ["Access", 0], ["Layer", "IP"], ["Creator", "Topology Zoo Toolset"], ["DateType", "Current"], ["SourceGitVersion", "e278b1b"], ["Backbone", 1], ["Commercial", 0], ["NetworkDate", "2011_01"], ["label", "KentmanJan2011"], ["LastProcessed", "2011_09_01"], ["Testbed", 0], ["Developed", 1], ["ToolsetVersion", "0.3.34dev-20120328"], ["Transit", 0]], "nodes": [{"Internal": 1, "Latitude": 51.36106, "Country": "United Kingdom", "type": "Connected Site", "id": 0, "Longitude": 1.43006, "label": "Hilderstone College"}, {"Internal": 1, "Latitude": 51.13959, "Country": "United Kingdom", "type": "Connected Site", "id": 1, "Longitude": 0.86101, "label": "K College- Ashford"}, {"Internal": 1, "Latitude": 51.27402, "Country": "United Kingdom", "type": "Connected Site", "id": 2, "Longitude": 1.08782, "label": "Canterbury College"}, {"Internal": 1, "Latitude": 51.35426, "Country": "United Kingdom", "type": "Connected Site", "id": 3, "Longitude": 1.43483, "label": "Thanet College"}, {"Internal": 1, "Latitude": 51.18787, "Country": "United Kingdom", "type": "Connected Site", "id": 4, "Longitude": 0.2647, "label": "West Kent College"}, {"Internal": 1, "Latitude": 51.29762, "Country": "United Kingdom", "type": "PoP Site", "id": 5, "Longitude": 1.06121, "label": "UoK-C"}, {"Internal": 1, "Latitude": 51.37992, "Country": "United Kingdom", "type": "Connected Site", "id": 6, "Longitude": 0.51438, "label": "UCA - Rochester"}, {"Internal": 1, "Latitude": 51.21667, "Country": "United Kingdom", "type": "Connected Site", "id": 7, "Longitude": 0.33333, "label": "Hadlow College"}, {"Internal": 1, "Latitude": 51.08153, "Country": "United Kingdom", "type": "Connected Site", "id": 8, "Longitude": 1.18218, "label": "University College Folkestone"}, {"Internal": 1, "Latitude": 51.27766, "Country": "United Kingdom", "type": "Connected Site", "id": 9, "Longitude": 1.08382, "label": "IFS School of Finance"}, {"Internal": 1, "Latitude": 51.39021, "Country": "United Kingdom", "type": "Connected Site", "id": 10, "Longitude": 0.51919, "label": "WEA"}, {"Internal": 1, "Latitude": 51.38906, "Country": "United Kingdom", "type": "Connected Site", "id": 11, "Longitude": 0.52492, "label": "Medway Council"}, {"Internal": 0, "id": 12, "label": "KPSN"}, {"Internal": 0, "id": 13, "label": "janet"}, {"Internal": 0, "id": 14, "label": "janet"}, {"Internal": 0, "id": 15, "label": "orbitalnet"}, {"Internal": 1, "type": "Connected Site", "id": 16, "label": "UCA-Epsom"}, {"Internal": 1, "Latitude": 51.38132, "Country": "United Kingdom", "type": "Connected Site", "id": 17, "Longitude": 1.38617, "label": "Pilgrims-Margate"}, {"Internal": 1, "Latitude": 51.37891, "Country": "United Kingdom", "type": "PoP Site", "id": 18, "Longitude": 0.52786, "label": "Chatham"}, {"Internal": 1, "type": "Connected Site", "id": 19, "label": "UCA - Chatham"}, {"Internal": 1, "Latitude": 51.14172, "Country": "United Kingdom", "type": "Connected Site", "id": 20, "Longitude": 0.90191, "label": "Pilgrim - Ashford"}, {"Internal": 1, "Latitude": 51.28367, "Country": "United Kingdom", "type": "Connected Site", "id": 21, "Longitude": 1.07077, "label": "Pilgrim-Canterbury"}, {"Internal": 1, "Latitude": 51.29762, "Country": "United Kingdom", "type": "Connected Site", "id": 22, "Longitude": 1.06121, "label": "University of Kent"}, {"Internal": 1, "Latitude": 51.44224, "Country": "United Kingdom", "type": "Connected Site", "id": 23, "Longitude": 0.02978, "label": "Hadlow College Mottingham"}, {"Internal": 1, "Latitude": 51.27115, "Country": "United Kingdom", "type": "Connected Site", "id": 24, "Longitude": 0.49799, "label": "UCA - Maidstone"}, {"Internal": 1, "Latitude": 51.19282, "Country": "United Kingdom", "type": "Connected Site", "id": 25, "Longitude": 0.2702, "label": "UoK - Tonbridge"}, {"Internal": 1, "Latitude": 51.27537, "Country": "United Kingdom", "type": "Connected Site", "id": 26, "Longitude": 1.09078, "label": "UCA - Canterbury"}, {"Internal": 1, "type": "Connected Site", "id": 27, "label": "SOAS - Wye"}, {"Internal": 1, "Latitude": 51.39485, "Country": "United Kingdom", "type": "Connected Site", "id": 28, "Longitude": 0.54608, "label": "Mid Kent College"}, {"Internal": 1, "Latitude": 51.27537, "Country": "United Kingdom", "type": "Connected Site", "id": 29, "Longitude": 1.09078, "label": "UCCA-C"}, {"Internal": 1, "Latitude": 51.44628, "Country": "United Kingdom", "type": "PoP Site", "id": 30, "Longitude": 0.07703, "label": "UoG-AH"}, {"Internal": 1, "type": "Connected Site", "id": 31, "label": "Universities at Medway"}, {"Internal": 1, "Latitude": 51.27589, "Country": "United Kingdom", "type": "Connected Site", "id": 32, "Longitude": 1.09578, "label": "Hadlow College Canterbury"}, {"Internal": 1, "Latitude": 51.25665, "Country": "United Kingdom", "type": "PoP Site", "id": 33, "Longitude": 0.54953, "label": "EIS-Maidstone"}, {"Internal": 1, "Latitude": 51.15222, "Country": "United Kingdom", "type": "PoP Site", "id": 34, "Longitude": 0.24307, "label": "CCCU-S"}, {"Internal": 1, "Latitude": 51.35895, "Country": "United Kingdom", "type": "PoP Site", "id": 35, "Longitude": 1.40616, "label": "CCCU-T"}, {"Internal": 1, "Latitude": 51.28554, "Country": "United Kingdom", "type": "Connected Site", "id": 36, "Longitude": 0.21928, "label": "Dorton College"}, {"Internal": 1, "Latitude": 51.45, "Country": "United Kingdom", "type": "Connected Site", "id": 37, "Longitude": 0.21667, "label": "NW Kent College - Dartford"}], "links": [{"LinkSpeed": "10", "source": 0, "LinkLabel": "10 Mbps", "target": 35, "LinkSpeedUnits": "M", "LinkSpeedRaw": 10000000.0}, {"LinkSpeed": "100", "source": 1, "LinkLabel": "100 Mbps", "target": 5, "LinkSpeedUnits": "M", "LinkSpeedRaw": 100000000.0}, {"LinkSpeed": "100", "source": 2, "LinkLabel": "100 Mbps", "target": 5, "LinkSpeedUnits": "M", "LinkSpeedRaw": 100000000.0}, {"LinkSpeed": "100", "source": 3, "LinkLabel": "100 Mbps", "target": 35, "LinkSpeedUnits": "M", "LinkSpeedRaw": 100000000.0}, {"LinkSpeed": "100", "source": 4, "LinkLabel": "100 Mbps", "target": 34, "LinkSpeedUnits": "M", "LinkSpeedRaw": 100000000.0}, {"LinkSpeed": "10", "source": 5, "LinkLabel": "10 Mbps", "target": 32, "LinkSpeedUnits": "M", "LinkSpeedRaw": 10000000.0}, {"LinkSpeed": "1000", "source": 5, "LinkLabel": "1000 Mbps", "target": 35, "LinkSpeedUnits": "M", "LinkSpeedRaw": 1000000000.0}, {"LinkSpeed": "10", "source": 5, "LinkLabel": "10 Gbps", "target": 33, "LinkSpeedUnits": "G", "LinkSpeedRaw": 10000000000.0}, {"LinkSpeed": "100", "source": 5, "LinkLabel": "100 Mbps", "target": 9, "LinkSpeedUnits": "M", "LinkSpeedRaw": 100000000.0}, {"LinkSpeed": "2", "source": 5, "LinkLabel": "2 Gbps", "target": 12, "LinkSpeedUnits": "G", "LinkSpeedRaw": 2000000000.0}, {"LinkSpeed": "10", "source": 5, "LinkLabel": "10 Gbps", "target": 13, "LinkSpeedUnits": "G", "LinkSpeedRaw": 10000000000.0}, {"LinkSpeed": "100", "source": 5, "LinkLabel": "100 Mbps", "target": 21, "LinkSpeedUnits": "M", "LinkSpeedRaw": 100000000.0}, {"LinkSpeed": "2", "source": 5, "LinkLabel": "2 Gbps", "target": 22, "LinkSpeedUnits": "G", "LinkSpeedRaw": 2000000000.0}, {"LinkSpeed": "100", "source": 5, "LinkLabel": "100 Mbps", "target": 26, "LinkSpeedUnits": "M", "LinkSpeedRaw": 100000000.0}, {"LinkSpeed": "100", "source": 5, "LinkLabel": "100 Mbps", "target": 27, "LinkSpeedUnits": "M", "LinkSpeedRaw": 100000000.0}, {"LinkSpeed": "1000", "source": 5, "LinkLabel": "1000 Mbps", "target": 29, "LinkSpeedUnits": "M", "LinkSpeedRaw": 1000000000.0}, {"LinkSpeed": "100", "source": 6, "LinkLabel": "100 Mbps", "target": 18, "LinkSpeedUnits": "M", "LinkSpeedRaw": 100000000.0}, {"LinkSpeed": "100", "source": 7, "LinkLabel": "100 Mbps", "target": 34, "LinkSpeedUnits": "M", "LinkSpeedRaw": 100000000.0}, {"LinkSpeed": "100", "source": 8, "LinkLabel": "100 Mbps", "target": 12, "LinkSpeedUnits": "M", "LinkSpeedRaw": 100000000.0}, {"LinkSpeed": "10", "source": 10, "LinkLabel": "10 Mbps", "target": 18, "LinkSpeedUnits": "M", "LinkSpeedRaw": 10000000.0}, {"LinkSpeed": "1000", "source": 11, "LinkLabel": "1000 Mbps", "target": 18, "LinkSpeedUnits": "M", "LinkSpeedRaw": 1000000000.0}, {"LinkSpeed": "2", "source": 12, "LinkLabel": "2 Gbps", "target": 33, "LinkSpeedUnits": "G", "LinkSpeedRaw": 2000000000.0}, {"LinkSpeed": "100", "source": 12, "LinkLabel": "100 Mbps", "target": 20, "LinkSpeedUnits": "M", "LinkSpeedRaw": 100000000.0}, {"LinkSpeed": "10", "source": 14, "LinkLabel": "10 Gbps", "target": 18, "LinkSpeedUnits": "G", "LinkSpeedRaw": 10000000000.0}, {"LinkSpeed": "100", "source": 15, "LinkLabel": "100 Mbps", "target": 33, "LinkSpeedUnits": "M", "LinkSpeedRaw": 100000000.0}, {"LinkSpeed": "1000", "source": 16, "LinkLabel": "1000 Mbps", "target": 30, "LinkSpeedUnits": "M", "LinkSpeedRaw": 1000000000.0}, {"LinkSpeed": "100", "source": 17, "LinkLabel": "100 Mbps", "target": 35, "LinkSpeedUnits": "M", "LinkSpeedRaw": 100000000.0}, {"LinkSpeed": "10", "source": 18, "LinkLabel": "10 Gbps", "target": 33, "LinkSpeedUnits": "G", "LinkSpeedRaw": 10000000000.0}, {"LinkSpeed": "100", "source": 18, "LinkLabel": "100 Mbps", "target": 19, "LinkSpeedUnits": "M", "LinkSpeedRaw": 100000000.0}, {"LinkSpeed": "100", "source": 18, "LinkLabel": "100 Mbps", "target": 28, "LinkSpeedUnits": "M", "LinkSpeedRaw": 100000000.0}, {"LinkSpeed": "1000", "source": 18, "LinkLabel": "1000 Mbps", "target": 30, "LinkSpeedUnits": "M", "LinkSpeedRaw": 1000000000.0}, {"LinkSpeed": "1000", "source": 18, "LinkLabel": "1000 Mbps", "target": 31, "LinkSpeedUnits": "M", "LinkSpeedRaw": 1000000000.0}, {"LinkSpeed": "10", "source": 23, "LinkLabel": "10 Mbps", "target": 30, "LinkSpeedUnits": "M", "LinkSpeedRaw": 10000000.0}, {"LinkSpeed": "100", "source": 24, "LinkLabel": "100 Mbps", "target": 33, "LinkSpeedUnits": "M", "LinkSpeedRaw": 100000000.0}, {"LinkSpeed": "10", "source": 25, "LinkLabel": "10 Mbps", "target": 34, "LinkSpeedUnits": "M", "LinkSpeedRaw": 10000000.0}, {"LinkSpeed": "10", "source": 25, "LinkLabel": "10 Mbps", "target": 34, "LinkSpeedUnits": "M", "LinkSpeedRaw": 10000000.0}, {"LinkSpeed": "100", "source": 30, "LinkLabel": "100 Mbps", "target": 37, "LinkSpeedUnits": "M", "LinkSpeedRaw": 100000000.0}, {"LinkSpeed": "1000", "source": 33, "LinkLabel": "1000 Mbps", "target": 34, "LinkSpeedUnits": "M", "LinkSpeedRaw": 1000000000.0}, {"LinkSpeed": "100", "source": 34, "LinkLabel": "100 Mbps", "target": 36, "LinkSpeedUnits": "M", "LinkSpeedRaw": 100000000.0}], "multigraph": true}