{"directed": false, "graph": [["DateObtained", "31/01/11"], ["GeoLocation", "Kent, UK"], ["GeoExtent", "Region"], ["DateModifier", "="], ["Customer", 0], ["Network", "KentMan"], ["IX", 0], ["Provenance", "Secondary"], ["Note", "JANET local provider"], ["Source", "http://replay.waybackmachine.org/20090629222920/http://www.kentman.ac.uk/kman/map.html"], ["Version", "1.0"], ["DateMonth", "02"], ["DateYear", "2008"], ["Type", "REN"], ["LastAccess", "31/01/11"], ["Access", 0], ["Layer", "IP"], ["Creator", "Topology Zoo Toolset"], ["DateType", "Historic"], ["SourceGitVersion", "e278b1b"], ["Backbone", 1], ["Commercial", 0], ["NetworkDate", "2008_02"], ["label", "KentmanFeb2008"], ["LastProcessed", "2011_09_01"], ["Testbed", 0], ["Developed", 1], ["ToolsetVersion", "0.3.34dev-20120328"], ["Transit", 0]], "nodes": [{"Internal": 1, "Latitude": 51.27537, "Country": "United Kingdom", "type": "Connected Site", "id": 0, "Longitude": 1.09078, "label": "UCCA-C"}, {"Internal": 1, "Latitude": 51.27402, "Country": "United Kingdom", "type": "Connected Site", "id": 1, "Longitude": 1.08782, "label": "Canterbury College"}, {"Internal": 1, "Latitude": 51.38633, "Country": "United Kingdom", "type": "Connected Site", "id": 2, "Longitude": 0.54627, "label": "Medway ACL"}, {"Internal": 1, "Latitude": 51.39485, "Country": "United Kingdom", "type": "Connected Site", "id": 3, "Longitude": 0.54608, "label": "Mid Kent College"}, {"Internal": 1, "Latitude": 51.13959, "Country": "United Kingdom", "type": "Connected Site", "id": 4, "Longitude": 0.86101, "label": "South Kent College - Ashford"}, {"Internal": 1, "Latitude": 51.27115, "Country": "United Kingdom", "type": "Connected Site", "id": 5, "Longitude": 0.49799, "label": "KIAD-O"}, {"Internal": 1, "Latitude": 51.35426, "Country": "United Kingdom", "type": "Connected Site", "id": 6, "Longitude": 1.43483, "label": "Thanet College"}, {"Internal": 1, "Latitude": 51.36106, "Country": "United Kingdom", "type": "Connected Site", "id": 7, "Longitude": 1.43006, "label": "Hilderstone College"}, {"Internal": 1, "Latitude": 51.27631, "Country": "United Kingdom", "type": "Connected Site", "id": 8, "Longitude": 0.52191, "label": "Kent ACL"}, {"Internal": 1, "Latitude": 51.21667, "Country": "United Kingdom", "type": "Connected Site", "id": 9, "Longitude": 0.33333, "label": "Hadlow College"}, {"Internal": 1, "Latitude": 51.08153, "Country": "United Kingdom", "type": "Connected Site", "id": 10, "Longitude": 1.18218, "label": "University College Folkestone"}, {"Internal": 0, "id": 11, "label": "Kent Community Network (Schools, etc)"}, {"Internal": 1, "Latitude": 51.29762, "Country": "United Kingdom", "type": "PoP Site", "id": 12, "Longitude": 1.06121, "label": "UoK-C"}, {"Internal": 1, "Latitude": 51.18787, "Country": "United Kingdom", "type": "Connected Site", "id": 13, "Longitude": 0.2647, "label": "West Kent College"}, {"Internal": 1, "Latitude": 51.44224, "Country": "United Kingdom", "type": "Connected Site", "id": 14, "Longitude": 0.02978, "label": "Hadlow College Mottingham"}, {"Internal": 1, "Latitude": 51.27766, "Country": "United Kingdom", "type": "Connected Site", "id": 15, "Longitude": 1.08382, "label": "IFS School of Finance"}, {"Internal": 1, "Latitude": 51.45, "Country": "United Kingdom", "type": "Connected Site", "id": 16, "Longitude": 0.21667, "label": "NW Kent College - Dartford"}, {"Internal": 1, "Latitude": 51.37992, "Country": "United Kingdom", "type": "Connected Site", "id": 17, "Longitude": 0.51438, "label": "KIAD-R"}, {"Internal": 1, "Latitude": 51.44628, "Country": "United Kingdom", "type": "PoP Site", "id": 18, "Longitude": 0.07703, "label": "UoG-AH"}, {"geocode_append": "Medway", "Country": "United Kingdom", "Longitude": 0.07703, "label": "University of Greenwich", "Internal": 1, "Latitude": 51.44628, "type": "PoP Site", "id": 19}, {"Internal": 1, "Latitude": 51.27934, "Country": "United Kingdom", "type": "PoP Site", "id": 20, "Longitude": 1.08936, "label": "CCCU-C"}, {"Internal": 1, "Latitude": 51.18249, "Country": "United Kingdom", "type": "PoP Site", "id": 21, "Longitude": 0.93678, "label": "IC-Wye"}, {"Internal": 1, "Latitude": 51.25665, "Country": "United Kingdom", "type": "PoP Site", "id": 22, "Longitude": 0.54953, "label": "EIS-Maidstone"}, {"Internal": 1, "Latitude": 51.15222, "Country": "United Kingdom", "type": "PoP Site", "id": 23, "Longitude": 0.24307, "label": "CCCU-S"}, {"Internal": 1, "Latitude": 51.35895, "Country": "United Kingdom", "type": "PoP Site", "id": 24, "Longitude": 1.40616, "label": "CCCU-T"}, {"Internal": 1, "Latitude": 51.28554, "Country": "United Kingdom", "type": "Connected Site", "id": 25, "Longitude": 0.21928, "label": "Dorton College"}], "links": [{"LinkSpeed": "10", "source": 0, "LinkLabel": "LES 10 Mbps", "target": 12, "LinkNote": "LES  ", "LinkSpeedUnits": "M", "LinkSpeedRaw": 10000000.0}, {"LinkSpeed": "10", "source": 1, "LinkLabel": "LES 10 Mbps", "target": 12, "LinkNote": "LES  ", "LinkSpeedUnits": "M", "LinkSpeedRaw": 10000000.0}, {"LinkSpeed": "10", "source": 2, "LinkLabel": "LES 10 Mbps", "target": 19, "LinkNote": "LES  ", "LinkSpeedUnits": "M", "LinkSpeedRaw": 10000000.0}, {"LinkSpeed": "10", "source": 3, "LinkLabel": "LES 10 Mbps", "target": 19, "LinkNote": "LES  ", "LinkSpeedUnits": "M", "LinkSpeedRaw": 10000000.0}, {"LinkSpeed": "10", "source": 4, "LinkLabel": "LES 10 Mbps", "target": 21, "LinkNote": "LES  ", "LinkSpeedUnits": "M", "LinkSpeedRaw": 10000000.0}, {"LinkSpeed": "10", "source": 5, "LinkLabel": "LES 10 Mbps", "target": 22, "LinkNote": "LES  ", "LinkSpeedUnits": "M", "LinkSpeedRaw": 10000000.0}, {"LinkSpeed": "10", "source": 6, "LinkLabel": "LES 10 Mbps", "target": 24, "LinkNote": "LES  ", "LinkSpeedUnits": "M", "LinkSpeedRaw": 10000000.0}, {"LinkSpeed": "10", "source": 7, "LinkLabel": "LES 10 Mbps", "target": 24, "LinkNote": "LES  ", "LinkSpeedUnits": "M", "LinkSpeedRaw": 10000000.0}, {"LinkSpeed": "10", "source": 8, "LinkLabel": "LES 10 Mbps", "target": 19, "LinkNote": "LES  ", "LinkSpeedUnits": "M", "LinkSpeedRaw": 10000000.0}, {"LinkSpeed": "10", "source": 9, "LinkLabel": "LES 10 Mbps", "target": 23, "LinkNote": "LES  ", "LinkSpeedUnits": "M", "LinkSpeedRaw": 10000000.0}, {"LinkSpeed": "100", "source": 10, "LinkLabel": "LES/EES/WSES 100 Mbps", "target": 21, "LinkNote": "LES/EES/WSES  ", "LinkSpeedUnits": "M", "LinkSpeedRaw": 100000000.0}, {"LinkSpeed": "2", "source": 11, "LinkLabel": "WaveStream 2 Gbps", "target": 12, "LinkNote": "WaveStream  ", "LinkSpeedUnits": "G", "LinkSpeedRaw": 2000000000.0}, {"LinkSpeed": "2", "source": 11, "LinkLabel": "WaveStream 2 Gbps", "target": 22, "LinkNote": "WaveStream  ", "LinkSpeedUnits": "G", "LinkSpeedRaw": 2000000000.0}, {"LinkSpeed": "10", "source": 12, "LinkLabel": "LES 10 Mbps", "target": 15, "LinkNote": "LES  ", "LinkSpeedUnits": "M", "LinkSpeedRaw": 10000000.0}, {"LinkSpeed": "2", "source": 12, "LinkLabel": "WaveStream 2 Gbps", "target": 19, "LinkNote": "WaveStream  ", "LinkSpeedUnits": "G", "LinkSpeedRaw": 2000000000.0}, {"LinkSpeed": "100", "source": 12, "LinkLabel": "LES/EES/WSES 100 Mbps", "target": 20, "LinkNote": "LES/EES/WSES  ", "LinkSpeedUnits": "M", "LinkSpeedRaw": 100000000.0}, {"LinkSpeed": "2", "source": 12, "LinkLabel": "WaveStream 2 Gbps", "target": 21, "LinkNote": "WaveStream  ", "LinkSpeedUnits": "G", "LinkSpeedRaw": 2000000000.0}, {"source": 12, "LinkLabel": "Back-up link via KCN2", "target": 24}, {"LinkSpeed": "155", "source": 12, "LinkLabel": "Microwave 155 Mbps ATM", "target": 24, "LinkNote": "icrowave   AT", "LinkSpeedUnits": "M", "LinkSpeedRaw": 155000000.0}, {"LinkSpeed": "10", "source": 13, "LinkLabel": "LES 10 Mbps", "target": 23, "LinkNote": "LES  ", "LinkSpeedUnits": "M", "LinkSpeedRaw": 10000000.0}, {"LinkSpeed": "10", "source": 14, "LinkLabel": "LES 10 Mbps", "target": 18, "LinkNote": "LES  ", "LinkSpeedUnits": "M", "LinkSpeedRaw": 10000000.0}, {"LinkSpeed": "10", "source": 16, "LinkLabel": "LES 10 Mbps", "target": 18, "LinkNote": "LES  ", "LinkSpeedUnits": "M", "LinkSpeedRaw": 10000000.0}, {"LinkSpeed": "10", "source": 17, "LinkLabel": "LES 10 Mbps", "target": 19, "LinkNote": "LES  ", "LinkSpeedUnits": "M", "LinkSpeedRaw": 10000000.0}, {"LinkSpeed": "2", "source": 18, "LinkLabel": "WaveStream 2 Gbps", "target": 19, "LinkNote": "WaveStream  ", "LinkSpeedUnits": "G", "LinkSpeedRaw": 2000000000.0}, {"LinkSpeed": "2", "source": 19, "LinkLabel": "WaveStream 2 Gbps", "target": 22, "LinkNote": "WaveStream  ", "LinkSpeedUnits": "G", "LinkSpeedRaw": 2000000000.0}, {"LinkSpeed": "2", "source": 19, "LinkLabel": "Megastream 2Mbps", "target": 25, "LinkNote": "egastream ", "LinkSpeedUnits": "M", "LinkSpeedRaw": 2000000.0}, {"LinkSpeed": "2", "source": 21, "LinkLabel": "WaveStream 2 Gbps", "target": 22, "LinkNote": "WaveStream  ", "LinkSpeedUnits": "G", "LinkSpeedRaw": 2000000000.0}, {"LinkSpeed": "100", "source": 22, "LinkLabel": "LES/EES/WSES 100 Mbps", "target": 23, "LinkNote": "LES/EES/WSES  ", "LinkSpeedUnits": "M", "LinkSpeedRaw": 100000000.0}], "multigraph": true}