{"directed": false, "graph": [["DateObtained", "18/10/10"], ["GeoLocation", "Missouri"], ["GeoExtent", "Region"], ["DateModifier", "="], ["Customer", 1], ["Network", "Missouri Network Alliance "], ["IX", 0], ["Provenance", "Primary"], ["Access", 0], ["Source", "http://www.mnatele.com/network-map.cfm"], ["Version", "1.0"], ["DateMonth", "08"], ["DateYear", "2010"], ["DateType", "Current"], ["LastAccess", "3/08/10"], ["Layer", "Fibre"], ["Creator", "Topology Zoo Toolset"], ["Type", "COM"], ["SourceGitVersion", "e278b1b"], ["Backbone", 1], ["Commercial", 0], ["NetworkDate", "2010_08"], ["label", "Missouri"], ["LastProcessed", "2011_09_01"], ["Testbed", 0], ["Developed", 1], ["ToolsetVersion", "0.3.34dev-20120328"], ["Transit", 0]], "nodes": [{"Internal": 1, "Latitude": 38.09642, "Country": "United States", "type": "MNA Tier 3 Collocation", "id": 0, "Longitude": -94.36106, "label": "Rich Hill"}, {"Internal": 1, "Latitude": 39.36778, "Country": "United States", "type": "MNA Tier 3 Collocation", "id": 1, "Longitude": -94.36217, "label": "Kearney"}, {"Internal": 1, "Latitude": 40.44555, "Country": "United States", "type": "MNA Tier 3 Collocation", "id": 2, "Longitude": -95.06609, "label": "Burlington Junction"}, {"Internal": 0, "id": 3, "label": "To Omaha"}, {"Internal": 1, "Latitude": 38.76279, "Country": "United States", "type": "MNA Tier 3 Collocation", "id": 4, "Longitude": -93.73605, "label": "Warrensburg"}, {"Internal": 1, "Latitude": 39.07251, "Country": "United States", "type": "MNA Tier 3 Collocation", "id": 5, "Longitude": -93.71716, "label": "Higginsville"}, {"Internal": 1, "Latitude": 38.61946, "Country": "United States", "type": "MNA Tier 3 Collocation", "id": 6, "Longitude": -94.68079, "label": "Louisburg"}, {"Internal": 1, "Latitude": 38.71918, "Country": "United States", "type": "MNA Tier 3 Collocation", "id": 7, "Longitude": -94.45856, "label": "Peculiar"}, {"Internal": 1, "Latitude": 36.64367, "Country": "United States", "type": "MNA Tier 2 Collocation", "id": 8, "Longitude": -93.21851, "label": "Branson"}, {"Internal": 1, "Latitude": 38.62727, "Country": "United States", "type": "MNA Tier 1 Collocation", "id": 9, "Longitude": -90.19789, "label": "Saint Louis"}, {"Internal": 1, "Latitude": 38.91084, "Country": "United States", "type": "MNA Tier 3 Collocation", "id": 10, "Longitude": -94.38217, "label": "Lees Summit"}, {"Internal": 1, "Latitude": 38.70446, "Country": "United States", "type": "MNA Tier 2 Collocation", "id": 11, "Longitude": -93.22826, "label": "Sedalia"}, {"Internal": 1, "Latitude": 38.2081, "Country": "United States", "type": "MNA Tier 3 Collocation", "id": 12, "Longitude": -91.16042, "label": "Sullivan"}, {"Internal": 1, "Latitude": 37.9681, "Country": "United States", "type": "MNA Tier 3 Collocation", "id": 13, "Longitude": -91.35487, "label": "Steelville"}, {"Internal": 1, "Latitude": 38.65558, "Country": "United States", "type": "MNA Tier 3 Collocation", "id": 14, "Longitude": -92.77992, "label": "Tipton"}, {"Internal": 1, "Latitude": 38.06282, "Country": "United States", "type": "MNA Tier 3 Collocation", "id": 15, "Longitude": -91.40348, "label": "Cuba"}, {"Internal": 1, "Latitude": 39.44059, "Country": "United States", "type": "MNA Tier 2 Collocation", "id": 16, "Longitude": -92.54518, "label": "Huntsville"}, {"Internal": 1, "Latitude": 39.41837, "Country": "United States", "type": "MNA Tier 3 Collocation", "id": 17, "Longitude": -92.43824, "label": "Moberly"}, {"Internal": 1, "Latitude": 40.26863, "Country": "United States", "type": "MNA Tier 3 Collocation", "id": 18, "Longitude": -92.95326, "label": "Green City"}, {"Internal": 1, "Latitude": 40.19475, "Country": "United States", "type": "MNA Tier 3 Collocation", "id": 19, "Longitude": -92.58325, "label": "Kirksville"}, {"Internal": 1, "Latitude": 40.15004, "Country": "United States", "type": "MNA Tier 3 Collocation", "id": 20, "Longitude": -92.30213, "label": "Hurdland"}, {"Internal": 1, "Latitude": 39.70838, "Country": "United States", "type": "MNA Tier 2 Collocation", "id": 21, "Longitude": -91.35848, "label": "Hannibal"}, {"Internal": 1, "Latitude": 39.79421, "Country": "United States", "type": "MNA Tier 3 Collocation", "id": 22, "Longitude": -91.52321, "label": "Palmyra"}, {"Internal": 1, "Latitude": 39.58532, "Country": "United States", "type": "MNA Tier 3 Collocation", "id": 23, "Longitude": -91.40098, "label": "New London"}, {"Internal": 1, "Latitude": 39.89865, "Country": "United States", "type": "MNA Tier 3 Collocation", "id": 24, "Longitude": -92.48102, "label": "Atlanta"}, {"Internal": 1, "Latitude": 39.74698, "Country": "United States", "type": "MNA Tier 3 Collocation", "id": 25, "Longitude": -92.56408, "label": "Bevier"}, {"Internal": 1, "Latitude": 38.6673, "Country": "United States", "type": "MNA Tier 3 Collocation", "id": 26, "Longitude": -90.2527, "label": "East Saint Louis"}, {"Internal": 0, "id": 27, "label": "To Chicago"}, {"Internal": 1, "Latitude": 37.95143, "Country": "United States", "type": "MNA Tier 2 Collocation", "id": 28, "Longitude": -91.77127, "label": "Rolla"}, {"Internal": 1, "Latitude": 38.87474, "Country": "United States", "type": "MNA Tier 3 Collocation", "id": 29, "Longitude": -92.91158, "label": "Pilot Grove"}, {"Internal": 1, "Latitude": 38.5767, "Country": "United States", "type": "MNA Tier 1 Collocation", "id": 30, "Longitude": -92.17352, "label": "Jefferson City"}, {"hyperedge": 1, "Internal": 1, "id": 31, "label": "None"}, {"hyperedge": 1, "Internal": 1, "id": 32, "label": "None"}, {"hyperedge": 1, "Internal": 1, "id": 33, "label": "None"}, {"Internal": 1, "Latitude": 38.67918, "Country": "United States", "type": "MNA Tier 3 Collocation", "id": 34, "Longitude": -94.59357, "label": "Cleveland"}, {"Internal": 1, "Latitude": 36.15398, "Country": "United States", "type": "MNA Tier 2 Collocation", "id": 35, "Longitude": -95.99278, "label": "Tulsa"}, {"Internal": 1, "Latitude": 37.08423, "Country": "United States", "type": "MNA Tier 1 Collocation", "id": 36, "Longitude": -94.51328, "label": "Joplin"}, {"Internal": 1, "Latitude": 39.69393, "Country": "United States", "type": "MNA Tier 3 Collocation", "id": 37, "Longitude": -92.04295, "label": "Shelbina"}, {"Internal": 1, "Latitude": 39.48087, "Country": "United States", "type": "MNA Tier 3 Collocation", "id": 38, "Longitude": -92.00128, "label": "Paris"}, {"Internal": 1, "Latitude": 39.27254, "Country": "United States", "type": "MNA Tier 3 Collocation", "id": 39, "Longitude": -91.5746, "label": "Farber"}, {"Internal": 1, "Latitude": 39.31087, "Country": "United States", "type": "MNA Tier 3 Collocation", "id": 40, "Longitude": -91.48849, "label": "Vandalia"}, {"Internal": 1, "Latitude": 38.95171, "Country": "United States", "type": "MNA Tier 1 Collocation", "id": 41, "Longitude": -92.33407, "label": "Columbia"}, {"Internal": 1, "Latitude": 39.16976, "Country": "United States", "type": "MNA Tier 2 Collocation", "id": 42, "Longitude": -91.88295, "label": "Mexico"}, {"Internal": 1, "Latitude": 38.67504, "Country": "United States", "type": "MNA Tier 3 Collocation", "id": 43, "Longitude": -91.87434, "label": "Mokane"}, {"Internal": 1, "Latitude": 39.0181, "Country": "United States", "type": "MNA Tier 3 Collocation", "id": 44, "Longitude": -91.89712, "label": "Auxvasse"}, {"Internal": 1, "Latitude": 37.21533, "Country": "United States", "type": "MNA Tier 1 Collocation", "id": 45, "Longitude": -93.29824, "label": "Springfield"}, {"Internal": 1, "Latitude": 39.87863, "Country": "United States", "type": "MNA Tier 3 Collocation", "id": 46, "Longitude": -93.18882, "label": "Linneus"}, {"Internal": 1, "Latitude": 40.47696, "Country": "United States", "type": "MNA Tier 3 Collocation", "id": 47, "Longitude": -93.00326, "label": "Unionville"}, {"Internal": 1, "Latitude": 39.0953, "Country": "United States", "type": "MNA Tier 3 Collocation", "id": 48, "Longitude": -93.54521, "label": "Alma"}, {"Internal": 1, "Latitude": 39.35835, "Country": "United States", "type": "MNA Tier 2 Collocation", "id": 49, "Longitude": -93.49577, "label": "Carrollton"}, {"Internal": 1, "Latitude": 39.53613, "Country": "United States", "type": "MNA Tier 3 Collocation", "id": 50, "Longitude": -93.44021, "label": "Tina"}, {"Internal": 1, "Latitude": 39.79529, "Country": "United States", "type": "MNA Tier 2 Collocation", "id": 51, "Longitude": -93.55244, "label": "Chillicothe"}, {"Internal": 0, "id": 52, "label": "To Des Moines"}, {"Internal": 1, "Latitude": 40.40084, "Country": "United States", "type": "MNA Tier 3 Collocation", "id": 53, "Longitude": -93.5805, "label": "Princeton"}, {"Internal": 1, "Latitude": 40.0789, "Country": "United States", "type": "MNA Tier 2 Collocation", "id": 54, "Longitude": -93.61661, "label": "Trenton"}, {"Internal": 1, "Latitude": 39.12308, "Country": "United States", "type": "MNA Tier 3 Collocation", "id": 55, "Longitude": -93.19687, "label": "Marshall"}, {"Internal": 1, "Latitude": 39.94166, "Country": "United States", "type": "MNA Tier 3 Collocation", "id": 56, "Longitude": -94.83025, "label": "Savannah"}, {"Internal": 1, "Latitude": 40.3461, "Country": "United States", "type": "MNA Tier 2 Collocation", "id": 57, "Longitude": -94.87247, "label": "Maryville"}, {"Internal": 1, "Latitude": 40.20083, "Country": "United States", "type": "MNA Tier 3 Collocation", "id": 58, "Longitude": -95.07442, "label": "Maitland"}, {"Internal": 1, "Latitude": 40.41111, "Country": "United States", "type": "MNA Tier 3 Collocation", "id": 59, "Longitude": -95.51693, "label": "Rock Port"}, {"Internal": 1, "Latitude": 39.98694, "Country": "United States", "type": "MNA Tier 3 Collocation", "id": 60, "Longitude": -95.14498, "label": "Oregon"}, {"Internal": 1, "Latitude": 39.76861, "Country": "United States", "type": "MNA Tier 1 Collocation", "id": 61, "Longitude": -94.84663, "label": "Saint Joseph"}, {"Internal": 1, "Latitude": 39.09973, "Country": "United States", "type": "MNA Tier 1 Collocation", "id": 62, "Longitude": -94.57857, "label": "Kansas City"}, {"Internal": 1, "Latitude": 39.54834, "Country": "United States", "type": "MNA Tier 3 Collocation", "id": 63, "Longitude": -94.32995, "label": "Lathrop"}, {"Internal": 1, "Latitude": 39.74028, "Country": "United States", "type": "MNA Tier 3 Collocation", "id": 64, "Longitude": -94.24106, "label": "Cameron"}, {"Internal": 1, "Latitude": 40.24861, "Country": "United States", "type": "MNA Tier 3 Collocation", "id": 65, "Longitude": -94.33107, "label": "Albany"}, {"Internal": 1, "Latitude": 40.26833, "Country": "United States", "type": "MNA Tier 3 Collocation", "id": 66, "Longitude": -94.02829, "label": "Bethany"}], "links": [{"source": 0, "LinkLabel": "Affiliate Network", "target": 7}, {"source": 1, "LinkLabel": "MNA Network", "target": 62}, {"source": 1, "LinkLabel": "MNA Network", "target": 63}, {"source": 2, "LinkLabel": "MNA Network", "target": 57}, {"source": 2, "LinkLabel": "MNA Network", "target": 58}, {"source": 2, "LinkLabel": "MNA Network", "target": 3}, {"source": 2, "LinkLabel": "MNA Network", "target": 52}, {"source": 2, "LinkLabel": "MNA Network", "target": 59}, {"source": 4, "LinkLabel": "MNA Network", "target": 7}, {"LinkStatus": "Planned", "LinkLabel": "Planned Construction", "LinkNote": " Construction", "target": 10, "source": 4}, {"source": 4, "LinkLabel": "MNA Network", "target": 11}, {"source": 4, "LinkLabel": "MNA Network", "target": 45}, {"source": 4, "LinkLabel": "MNA Network", "target": 5}, {"source": 5, "LinkLabel": "MNA Network", "target": 48}, {"source": 6, "LinkLabel": "MNA Network", "target": 34}, {"source": 7, "LinkLabel": "MNA Network", "target": 34}, {"source": 8, "LinkLabel": "MNA Network", "target": 45}, {"source": 9, "LinkLabel": "MNA Network", "target": 32}, {"source": 9, "LinkLabel": "MNA Network", "target": 26}, {"source": 9, "LinkLabel": "MNA Network", "target": 12}, {"LinkStatus": "Planned", "LinkLabel": "Planned Construction", "LinkNote": " Construction", "target": 62, "source": 10}, {"source": 11, "LinkLabel": "MNA Network", "target": 14}, {"source": 11, "LinkLabel": "MNA Network", "target": 55}, {"source": 12, "LinkLabel": "MNA Network", "target": 15}, {"source": 13, "LinkLabel": "MNA Network", "target": 15}, {"source": 14, "LinkLabel": "MNA Network", "target": 29}, {"source": 14, "LinkLabel": "MNA Network", "target": 30}, {"source": 15, "LinkLabel": "MNA Network", "target": 28}, {"source": 16, "LinkLabel": "MNA Network", "target": 17}, {"source": 16, "LinkLabel": "MNA Network", "target": 49}, {"source": 16, "LinkLabel": "MNA Network", "target": 25}, {"source": 17, "LinkLabel": "MNA Network", "target": 41}, {"source": 17, "LinkLabel": "MNA Network", "target": 42}, {"source": 17, "LinkLabel": "MNA Network", "target": 38}, {"source": 18, "LinkLabel": "MNA Network", "target": 19}, {"source": 18, "LinkLabel": "MNA Network", "target": 47}, {"source": 19, "LinkLabel": "MNA Network", "target": 20}, {"source": 20, "LinkLabel": "MNA Network", "target": 24}, {"source": 21, "LinkLabel": "MNA Network", "target": 33}, {"LinkStatus": "Planned", "LinkLabel": "Planned Construction", "LinkNote": " Construction", "target": 23, "source": 21}, {"source": 22, "LinkLabel": "MNA Network", "target": 33}, {"LinkStatus": "Planned", "LinkLabel": "Planned Construction", "LinkNote": " Construction", "target": 40, "source": 23}, {"source": 24, "LinkLabel": "MNA Network", "target": 25}, {"source": 26, "LinkLabel": "MNA Network", "target": 27}, {"source": 28, "LinkLabel": "MNA Network", "target": 30}, {"source": 29, "LinkLabel": "MNA Network", "target": 55}, {"source": 30, "LinkLabel": "MNA Network", "target": 41}, {"source": 30, "LinkLabel": "MNA Network", "target": 43}, {"source": 31, "LinkLabel": "MNA Network", "target": 35}, {"source": 31, "LinkLabel": "MNA Network", "target": 36}, {"source": 31, "LinkLabel": "MNA Network", "target": 62}, {"source": 32, "LinkLabel": "MNA Network", "target": 42}, {"source": 32, "LinkLabel": "MNA Network", "target": 44}, {"source": 32, "LinkLabel": "MNA Network", "target": 41}, {"source": 33, "LinkLabel": "MNA Network", "target": 37}, {"source": 34, "LinkLabel": "Affiliate Network", "target": 35}, {"source": 34, "LinkLabel": "MNA Network", "target": 62}, {"source": 35, "LinkLabel": "MNA Network", "target": 36}, {"source": 36, "LinkLabel": "MNA Network", "target": 45}, {"source": 37, "LinkLabel": "MNA Network", "target": 38}, {"source": 39, "LinkLabel": "MNA Network", "target": 40}, {"source": 39, "LinkLabel": "MNA Network", "target": 42}, {"source": 41, "LinkLabel": "MNA Network", "target": 44}, {"source": 43, "LinkLabel": "MNA Network", "target": 44}, {"source": 46, "LinkLabel": "MNA Network", "target": 51}, {"source": 46, "LinkLabel": "MNA Network", "target": 54}, {"source": 47, "LinkLabel": "MNA Network", "target": 53}, {"source": 48, "LinkLabel": "MNA Network", "target": 55}, {"source": 49, "LinkLabel": "MNA Network", "target": 50}, {"source": 49, "LinkLabel": "MNA Network", "target": 63}, {"source": 50, "LinkLabel": "MNA Network", "target": 51}, {"source": 53, "LinkLabel": "MNA Network", "target": 66}, {"source": 53, "LinkLabel": "MNA Network", "target": 54}, {"source": 56, "LinkLabel": "MNA Network", "target": 58}, {"source": 56, "LinkLabel": "MNA Network", "target": 61}, {"source": 57, "LinkLabel": "MNA Network", "target": 65}, {"source": 58, "LinkLabel": "MNA Network", "target": 65}, {"source": 59, "LinkLabel": "MNA Network", "target": 60}, {"source": 60, "LinkLabel": "MNA Network", "target": 61}, {"source": 61, "LinkLabel": "MNA Network", "target": 62}, {"source": 63, "LinkLabel": "MNA Network", "target": 64}, {"source": 64, "LinkLabel": "MNA Network", "target": 66}, {"source": 65, "LinkLabel": "MNA Network", "target": 66}], "multigraph": true}