{"directed": false, "graph": [["DateObtained", "20/07/11"], ["GeoLocation", "Montenegro"], ["GeoExtent", "Country"], ["DateModifier", "="], ["Customer", 0], ["Network", "MREN"], ["IX", 0], ["Provenance", "Secondary"], ["Access", 0], ["Source", "Page 18 of http://www.seeren.org//content/modules/downloads/SEEREN2-WP3-BG-005-D07bNetworkTopology-e-2007-03-20.pdf"], ["Version", "1.0"], ["DateMonth", 0], ["DateYear", "2007"], ["DateType", "Historic"], ["LastAccess", "20/07/11"], ["Layer", "IP"], ["Creator", "Topology Zoo Toolset"], ["Type", "REN"], ["SourceGitVersion", "e278b1b"], ["Backbone", 0], ["Commercial", 0], ["NetworkDate", "2007"], ["label", "Mren"], ["LastProcessed", "2011_09_01"], ["Testbed", 0], ["Developed", 0], ["ToolsetVersion", "0.3.34dev-20120328"], ["Transit", 0]], "nodes": [{"Internal": 1, "Latitude": 43.03834, "Country": "Montenegro", "id": 0, "Longitude": 19.74758, "label": "Bijelo Polje"}, {"Internal": 1, "Latitude": 42.7731, "Country": "Montenegro", "id": 1, "Longitude": 18.94446, "label": "Niksic"}, {"Internal": 1, "Latitude": 42.44111, "Country": "Montenegro", "id": 2, "Longitude": 19.26361, "label": "Podgorica"}, {"Internal": 1, "Latitude": 42.43306, "Country": "Montenegro", "id": 3, "Longitude": 18.82833, "label": "Njegusi"}, {"Internal": 1, "Latitude": 42.42067, "Country": "Montenegro", "id": 4, "Longitude": 18.76825, "label": "Kotor"}, {"Internal": 1, "Latitude": 42.45306, "Country": "Montenegro", "id": 5, "Longitude": 18.5375, "label": "Herceg Novi"}], "links": [{"source": 0, "id": "e0", "target": 2}, {"source": 1, "id": "e1", "target": 2}, {"source": 2, "id": "e2", "target": 3}, {"source": 2, "id": "e3", "target": 4}, {"source": 2, "id": "e4", "target": 5}], "multigraph": true}