{"directed": false, "graph": [["DateObtained", "22/10/10"], ["GeoLocation", "Europe"], ["GeoExtent", "Continent"], ["DateModifier", "="], ["Customer", 0], ["Network", "NORDU"], ["IX", 0], ["Provenance", "Primary"], ["Note", "CERT + NEWS + DNS"], ["Source", "http://www.nordu.net/ndnweb/nordunet_network_map.html"], ["Version", "1.0"], ["DateMonth", "10"], ["DateYear", "2010"], ["DateType", "Current"], ["LastAccess", "21/10/10"], ["Access", 0], ["Layer", "IP"], ["Creator", "Topology Zoo Toolset"], ["Type", "REN"], ["SourceGitVersion", "e278b1b"], ["Backbone", 1], ["Commercial", 0], ["NetworkDate", "2010_10"], ["label", "Nordu2010"], ["LastProcessed", "2011_09_01"], ["Testbed", 0], ["Developed", 1], ["ToolsetVersion", "0.3.34dev-20120328"], ["Transit", 0]], "nodes": [{"Internal": 0, "id": 0, "label": "Poznan"}, {"Internal": 0, "id": 1, "label": "GEANT"}, {"Internal": 0, "id": 2, "label": "London"}, {"Internal": 0, "id": 3, "label": "Amsterdam GLORIAD"}, {"Internal": 0, "id": 4, "label": "ICELINK: Greenland, Canada, USA"}, {"Internal": 0, "id": 5, "label": "London"}, {"Internal": 0, "id": 6, "label": "GLORIAD"}, {"Internal": 0, "id": 7, "label": "INTERNET"}, {"Internal": 0, "id": 8, "label": "INTERNET"}, {"Internal": 0, "id": 9, "label": "New York"}, {"Internal": 1, "Latitude": 64.13548, "Country": "Iceland", "id": 10, "Longitude": -21.89541, "label": "Reyjavik"}, {"Internal": 1, "Latitude": 59.91273, "Country": "Norway", "id": 11, "Longitude": 10.74609, "label": "Oslo"}, {"Internal": 1, "Latitude": 59.33258, "Country": "Sweden", "id": 12, "Longitude": 18.0649, "label": "Stockholm"}, {"Internal": 1, "Latitude": 60.2052, "Country": "Finland", "id": 13, "Longitude": 24.6522, "label": "Espoo"}, {"Internal": 1, "Latitude": 60.16952, "Country": "Finland", "id": 14, "Longitude": 24.93545, "label": "Helsinki"}, {"Internal": 0, "id": 15, "label": "St Petersburg"}, {"Internal": 1, "Latitude": 55.67594, "Country": "Denmark", "id": 16, "Longitude": 12.56553, "label": "Copenhagen"}, {"Internal": 1, "Latitude": 53.55, "Country": "Germany", "id": 17, "Longitude": 10.0, "label": "Hamburg"}], "links": [{"source": 0, "LinkLabel": "NORDUNET", "target": 17}, {"source": 1, "LinkLabel": "NORDUNET'S EXTERNAL CONNECTIONS", "target": 16}, {"source": 2, "LinkLabel": "NORDUNET", "target": 16}, {"source": 3, "LinkLabel": "NORDUNET", "target": 17}, {"source": 4, "LinkLabel": "NORDUNET", "target": 10}, {"source": 5, "LinkLabel": "NORDUNET", "target": 10}, {"source": 6, "LinkLabel": "NORDUNET'S EXTERNAL CONNECTIONS", "target": 15}, {"source": 7, "LinkLabel": "NORDUNET'S EXTERNAL CONNECTIONS", "target": 12}, {"source": 8, "LinkLabel": "NORDUNET'S EXTERNAL CONNECTIONS", "target": 16}, {"source": 9, "LinkLabel": "NORDUNET", "target": 16}, {"source": 10, "LinkLabel": "NORDUNET", "target": 16}, {"source": 11, "LinkLabel": "NORDUNET", "target": 16}, {"source": 11, "LinkLabel": "NORDUNET", "target": 12}, {"source": 12, "LinkLabel": "NORDUNET", "target": 16}, {"source": 12, "LinkLabel": "NORDUNET", "target": 14}, {"source": 13, "LinkLabel": "RUNNet", "target": 15}, {"source": 16, "LinkLabel": "NORDUNET", "target": 17}], "multigraph": true}