{"directed": false, "graph": [["DateObtained", "18/10/10"], ["GeoLocation", "Europe"], ["GeoExtent", "Continent"], ["DateModifier", "="], ["Customer", 0], ["Network", "OTEGlobe "], ["IX", 0], ["Provenance", "Primary"], ["Note", "Does managed CPE count?"], ["Source", "http://www.oteglobe.gr/map.pdf"], ["Version", "1.0"], ["DateMonth", "08"], ["DateYear", "2010"], ["Type", "COM"], ["LastAccess", "3/08/10"], ["Access", 0], ["Layer", "Simplified Fibre"], ["Creator", "Topology Zoo Toolset"], ["DateType", "Current"], ["SourceGitVersion", "e278b1b"], ["Backbone", 1], ["Commercial", 0], ["NetworkDate", "2010_08"], ["label", "Oteglobe"], ["LastProcessed", "2011_09_01"], ["Testbed", 0], ["Developed", 1], ["ToolsetVersion", "0.3.34dev-20120328"], ["Transit", 1]], "nodes": [{"Internal": 1, "Latitude": 42.64807, "Country": "Croatia", "id": 0, "Longitude": 18.09216, "label": "Dubrovnik"}, {"Internal": 1, "Latitude": 41.32306, "Country": "Albania", "id": 1, "Longitude": 19.44139, "label": "Durres"}, {"Internal": 1, "Latitude": 43.85639, "Country": "Bulgaria", "id": 2, "Longitude": 25.97083, "label": "Russe"}, {"Internal": 1, "Latitude": 43.41667, "Country": "Bulgaria", "id": 3, "Longitude": 24.61667, "label": "Pleven"}, {"Internal": 1, "Latitude": 42.69751, "Country": "Bulgaria", "id": 4, "Longitude": 23.32415, "label": "Sofia"}, {"Internal": 1, "Latitude": 42.43278, "Country": "Bulgaria", "id": 5, "Longitude": 25.64194, "label": "Stara Zagora"}, {"Internal": 1, "Latitude": 43.21667, "Country": "Bulgaria", "id": 6, "Longitude": 27.91667, "label": "Varna"}, {"Internal": 1, "Latitude": 44.72389, "Country": "Russia", "id": 7, "Longitude": 37.77083, "label": "Novorossiysk"}, {"Internal": 1, "Latitude": 41.01384, "Country": "Turkey", "id": 8, "Longitude": 28.94966, "label": "Istanbul"}, {"Internal": 1, "Latitude": 42.0, "Country": "Macedonia", "id": 9, "Longitude": 21.43333, "label": "Skopje"}, {"Internal": 1, "Latitude": 40.15962, "Country": "Italy", "id": 10, "Longitude": 18.25943, "label": "Otranto"}, {"Internal": 1, "Latitude": 41.03111, "Country": "Macedonia", "id": 11, "Longitude": 21.34028, "label": "Bitola"}, {"Internal": 1, "Latitude": 33.88894, "Country": "Lebanon", "id": 12, "Longitude": 35.49442, "label": "Beirut"}, {"Internal": 1, "Latitude": 42.09306, "Country": "Montenegro", "id": 13, "Longitude": 19.10028, "label": "Bar"}, {"Internal": 1, "Latitude": 41.67719, "Country": "Turkey", "id": 14, "Longitude": 26.55597, "label": "Edirne"}, {"Internal": 1, "Latitude": 39.26139, "Country": "Greece", "id": 15, "Longitude": 21.29583, "label": "Kastanies"}, {"Internal": 1, "id": 16, "label": "OPTEGLOBE TBN"}, {"Internal": 1, "Latitude": 41.76667, "Country": "Bulgaria", "id": 17, "Longitude": 26.2, "label": "Svilengrad"}, {"hyperedge": 1, "Internal": 1, "id": 18, "label": "None"}, {"hyperedge": 1, "Internal": 1, "id": 19, "label": "None"}, {"Internal": 1, "Latitude": 44.40632, "Country": "Italy", "id": 20, "Longitude": 8.93386, "label": "Genova"}, {"Internal": 1, "Latitude": 43.29695, "Country": "France", "id": 21, "Longitude": 5.38107, "label": "Marseille"}, {"Internal": 1, "Latitude": 45.46427, "Country": "Italy", "id": 22, "Longitude": 9.18951, "label": "Milan"}, {"Internal": 1, "Latitude": 45.43861, "Country": "Italy", "id": 23, "Longitude": 12.32667, "label": "Venice"}, {"Internal": 1, "Latitude": 41.89474, "Country": "Italy", "id": 24, "Longitude": 12.4839, "label": "Rome"}, {"Internal": 1, "Latitude": 41.11773, "Country": "Italy", "id": 25, "Longitude": 16.85118, "label": "Bari"}, {"Internal": 1, "Latitude": 45.75, "Country": "France", "id": 26, "Longitude": 4.85, "label": "Lyon"}, {"Internal": 1, "Latitude": 44.49381, "Country": "Italy", "id": 27, "Longitude": 11.33875, "label": "Bologna"}, {"Internal": 1, "Latitude": 50.11861, "Country": "United Kingdom", "id": 28, "Longitude": -5.53715, "label": "Cornwall Stations"}, {"Internal": 1, "Latitude": 49.73333, "Country": "France", "id": 29, "Longitude": 1.71667, "label": "Valery"}, {"Internal": 0, "id": 30, "label": "USA"}, {"hyperedge": 1, "Internal": 1, "id": 31, "label": "None"}, {"Internal": 1, "Latitude": 32.76704, "Country": "Libya", "id": 32, "Longitude": 22.63669, "label": "Derna"}, {"hyperedge": 1, "Internal": 1, "id": 33, "label": "None"}, {"Internal": 1, "Latitude": 41.3275, "Country": "Albania", "id": 34, "Longitude": 19.81889, "label": "Tirana"}, {"Internal": 1, "Latitude": 51.22339, "Country": "Belgium", "id": 35, "Longitude": 2.91185, "label": "Ostend"}, {"Internal": 0, "id": 36, "label": "To USA"}, {"Internal": 1, "Latitude": 56.76667, "Country": "Denmark", "id": 37, "Longitude": 8.6, "label": "Blaabjerg"}, {"Internal": 1, "Latitude": 35.16667, "Country": "Cyprus", "id": 38, "Longitude": 33.36667, "label": "Nicosia"}, {"Internal": 1, "Latitude": 52.17194, "Country": "Ireland", "id": 39, "Longitude": -6.58611, "label": "Kilmore Quay"}, {"Internal": 1, "Latitude": 47.81667, "Country": "France", "id": 40, "Longitude": -4.33333, "label": "Penmarch"}, {"hyperedge": 1, "Internal": 1, "id": 41, "label": "None"}, {"hyperedge": 1, "Internal": 1, "id": 42, "label": "None"}, {"Internal": 1, "Latitude": 40.99194, "Country": "Greece", "id": 43, "Longitude": 22.87083, "label": "Kilkis"}, {"hyperedge": 1, "Internal": 1, "id": 44, "label": "None"}, {"Internal": 1, "Latitude": 41.94028, "Country": "Bulgaria", "id": 45, "Longitude": 25.56944, "label": "Haskavo"}, {"Internal": 1, "Latitude": 41.12278, "Country": "Greece", "id": 46, "Longitude": 25.39639, "label": "Komotini"}, {"hyperedge": 1, "Internal": 1, "id": 47, "label": "None"}, {"Internal": 1, "Latitude": 41.13917, "Country": "Macedonia", "id": 48, "Longitude": 22.5025, "label": "Gevgelija"}, {"Internal": 1, "Latitude": 41.4, "Country": "Bulgaria", "id": 49, "Longitude": 23.21667, "label": "Petrich"}, {"Internal": 1, "Latitude": 41.36667, "Country": "Greece", "id": 50, "Longitude": 23.36667, "label": "Promachonas"}, {"Internal": 1, "Latitude": 40.8475, "Country": "Greece", "id": 51, "Longitude": 25.87444, "label": "Alexandroupolis"}, {"Internal": 1, "Latitude": 40.85583, "Country": "Turkey", "id": 52, "Longitude": 26.63028, "label": "Kesan"}, {"Internal": 1, "Latitude": 33.00583, "Country": "Israel", "id": 53, "Longitude": 35.09472, "label": "Nahariya"}, {"Internal": 1, "Latitude": 32.06667, "Country": "Israel", "id": 54, "Longitude": 34.76667, "label": "Tel Aviv"}, {"Internal": 1, "Latitude": 40.64028, "Country": "Greece", "id": 55, "Longitude": 22.94389, "label": "Thessaloniki"}, {"Internal": 1, "Latitude": 39.62, "Country": "Greece", "id": 56, "Longitude": 19.91972, "label": "Corfu"}, {"Internal": 1, "Latitude": 35.51222, "Country": "Greece", "id": 57, "Longitude": 24.01556, "label": "Chania"}, {"Internal": 1, "Latitude": 37.97945, "Country": "Greece", "id": 58, "Longitude": 23.71622, "label": "Athens"}, {"Internal": 1, "Latitude": 34.76667, "Country": "Cyprus", "id": 59, "Longitude": 32.46667, "label": "Yeroskipos"}, {"Internal": 1, "Latitude": 36.855, "Country": "Turkey", "id": 60, "Longitude": 28.27417, "label": "Marmaris"}, {"Internal": 1, "Latitude": 32.81556, "Country": "Israel", "id": 61, "Longitude": 34.98917, "label": "Haifa"}, {"Internal": 1, "Latitude": 29.96667, "Country": "Egypt", "id": 62, "Longitude": 32.55, "label": "Suez"}, {"Internal": 1, "Latitude": 35.78058, "Country": "Morocco", "id": 63, "Longitude": -5.81365, "label": "Conil"}, {"Internal": 1, "Latitude": 38.44451, "Country": "Portugal", "id": 64, "Longitude": -9.10149, "label": "Sesimbra"}, {"Internal": 1, "Latitude": 37.66414, "Country": "Italy", "id": 65, "Longitude": 12.58804, "label": "Mazara"}, {"Internal": 1, "Latitude": 36.42764, "Country": "Spain", "id": 66, "Longitude": -5.14589, "label": "Estepona"}, {"Internal": 1, "Latitude": 37.50213, "Country": "Italy", "id": 67, "Longitude": 15.08719, "label": "Catania"}, {"Internal": 1, "Latitude": 38.11582, "Country": "Italy", "id": 68, "Longitude": 13.35976, "label": "Palermo"}, {"Internal": 1, "Latitude": 34.88902, "Country": "Syria", "id": 69, "Longitude": 35.88659, "label": "Tartus"}, {"Internal": 1, "Latitude": 35.90917, "Country": "Malta", "id": 70, "Longitude": 14.42556, "label": "Malta"}, {"Internal": 1, "Latitude": 34.98213, "Country": "Cyprus", "id": 71, "Longitude": 34.00183, "label": "Agia Napa"}, {"Internal": 1, "Latitude": 35.16667, "Country": "Cyprus", "id": 72, "Longitude": 33.36667, "label": "Pentaskinos"}, {"Internal": 1, "Latitude": 44.43225, "Country": "Romania", "id": 73, "Longitude": 26.10626, "label": "Bucharest"}, {"Internal": 1, "Latitude": 44.95, "Country": "Romania", "id": 74, "Longitude": 23.51667, "label": "Tg Carbunesti"}, {"Internal": 1, "Latitude": 47.91667, "Country": "Hungary", "id": 75, "Longitude": 17.16667, "label": "Hegyeshantom"}, {"Internal": 1, "Latitude": 48.14816, "Country": "Slovakia", "id": 76, "Longitude": 17.10674, "label": "Bratislava"}, {"Internal": 1, "Latitude": 53.6, "Country": "Germany", "id": 77, "Longitude": 7.2, "label": "Norden"}, {"Internal": 1, "Latitude": 52.19417, "Country": "Netherlands", "id": 78, "Longitude": 4.42222, "label": "Katwijk"}, {"Internal": 1, "Latitude": 44.63194, "Country": "Romania", "id": 79, "Longitude": 22.65611, "label": "Drobeta Turnu Sevenin"}, {"Internal": 1, "Latitude": 45.74944, "Country": "Romania", "id": 80, "Longitude": 21.22722, "label": "Timisoara"}, {"Internal": 1, "Latitude": 46.98333, "Country": "Hungary", "id": 81, "Longitude": 18.93333, "label": "Dunaujvaros"}, {"Internal": 1, "Latitude": 47.49801, "Country": "Hungary", "id": 82, "Longitude": 19.03991, "label": "Budapest"}, {"Internal": 1, "Latitude": 48.78232, "Country": "Germany", "id": 83, "Longitude": 9.17702, "label": "Stuttgart"}, {"Internal": 1, "Latitude": 47.36667, "Country": "Switzerland", "id": 84, "Longitude": 8.55, "label": "Zurich"}, {"Internal": 1, "Latitude": 51.50853, "Country": "United Kingdom", "id": 85, "Longitude": -0.12574, "label": "London"}, {"Internal": 1, "Latitude": 52.37403, "Country": "Netherlands", "id": 86, "Longitude": 4.88969, "label": "Amsterdam"}, {"Internal": 1, "Latitude": 50.11667, "Country": "Germany", "id": 87, "Longitude": 8.68333, "label": "Frankfurt"}, {"Internal": 1, "Latitude": 48.85341, "Country": "France", "id": 88, "Longitude": 2.3488, "label": "Paris"}, {"Internal": 1, "Latitude": 50.63333, "Country": "France", "id": 89, "Longitude": 3.06667, "label": "Lille"}, {"Internal": 1, "Latitude": 48.20849, "Country": "Austria", "id": 90, "Longitude": 16.37208, "label": "Vienna"}, {"Internal": 1, "Latitude": 47.77389, "Country": "Austria", "id": 91, "Longitude": 12.9575, "label": "Walserberg"}, {"Internal": 1, "Latitude": 49.44778, "Country": "Germany", "id": 92, "Longitude": 11.06833, "label": "Nuremberg"}], "links": [{"source": 0, "LinkLabel": "Adria-1", "target": 1}, {"source": 1, "LinkLabel": "Adria-1", "target": 56}, {"source": 2, "LinkLabel": "OPTEGLOBE TBN", "target": 73}, {"source": 2, "LinkLabel": "OPTEGLOBE TBN", "target": 3}, {"source": 2, "LinkLabel": "OPTEGLOBE TBN", "target": 5}, {"source": 3, "LinkLabel": "OPTEGLOBE TBN", "target": 4}, {"source": 4, "LinkLabel": "OPTEGLOBE TBN", "target": 49}, {"source": 4, "LinkLabel": "OPTEGLOBE TBN", "target": 79}, {"source": 4, "LinkLabel": "OPTEGLOBE TBN", "target": 5}, {"source": 4, "LinkLabel": "OPTEGLOBE TBN", "target": 17}, {"source": 6, "LinkLabel": "BSFOCS", "target": 7}, {"source": 10, "id": "e55", "target": 56}, {"source": 11, "LinkLabel": "OPTEGLOBE TBN", "target": 16}, {"source": 12, "LinkLabel": "CADMOS", "target": 72}, {"source": 13, "id": "e56", "target": 56}, {"source": 14, "LinkLabel": "OPTEGLOBE TBN", "target": 17}, {"source": 14, "LinkLabel": "OPTEGLOBE TBN", "target": 15}, {"source": 15, "LinkLabel": "OPTEGLOBE TBN", "target": 17}, {"source": 15, "LinkLabel": "OPTEGLOBE TBN", "target": 51}, {"source": 16, "LinkLabel": "OPTEGLOBE TBN", "target": 34}, {"source": 16, "id": "e60", "target": 55}, {"source": 18, "LinkLabel": "SeaMeWe-3", "target": 35}, {"source": 18, "LinkLabel": "SeaMeWe-3", "target": 28}, {"source": 18, "LinkLabel": "SeaMeWe-3", "target": 77}, {"source": 19, "LinkLabel": "GWEN", "target": 57}, {"source": 19, "id": "e93", "target": 47}, {"source": 19, "LinkLabel": "GWEN", "target": 47}, {"source": 20, "LinkLabel": "GWEN", "target": 24}, {"source": 20, "LinkLabel": "GWEN", "target": 21}, {"source": 20, "LinkLabel": "GWEN", "target": 22}, {"source": 21, "LinkLabel": "GWEN", "target": 26}, {"source": 22, "LinkLabel": "GWEN", "target": 84}, {"source": 22, "LinkLabel": "GWEN", "target": 23}, {"source": 23, "LinkLabel": "GWEN", "target": 27}, {"source": 24, "LinkLabel": "GWEN", "target": 25}, {"source": 25, "LinkLabel": "GWEN", "target": 56}, {"source": 25, "LinkLabel": "GWEN", "target": 56}, {"source": 25, "LinkLabel": "GWEN", "target": 27}, {"source": 26, "LinkLabel": "GWEN", "target": 88}, {"source": 28, "LinkLabel": "Celtic", "target": 39}, {"source": 28, "LinkLabel": "SeaMeWe-3", "target": 40}, {"source": 28, "LinkLabel": "GWEN", "target": 85}, {"source": 28, "LinkLabel": "TAT-14", "target": 29}, {"source": 28, "LinkLabel": "TAT-14", "target": 30}, {"source": 28, "LinkLabel": "FLAG Europe-Asia", "target": 63}, {"source": 29, "LinkLabel": "TAT-14", "target": 78}, {"source": 31, "LinkLabel": "SeaMeWe-3", "target": 64}, {"source": 31, "LinkLabel": "SeaMeWe-3", "target": 65}, {"source": 31, "id": "e83", "target": 66}, {"source": 31, "LinkLabel": "FLAG Europe-Asia", "target": 68}, {"source": 31, "LinkLabel": "FLAG Europe-Asia", "target": 63}, {"source": 32, "LinkLabel": "Silphium", "target": 57}, {"source": 33, "LinkLabel": "SeaMeWe-3", "target": 65}, {"source": 33, "LinkLabel": "SeaMeWe-3", "target": 42}, {"source": 33, "LinkLabel": "SeaMeWe-3", "target": 57}, {"source": 36, "LinkLabel": "TAT-14", "target": 37}, {"source": 37, "LinkLabel": "TAT-14", "target": 77}, {"source": 40, "LinkLabel": "SeaMeWe-3", "target": 64}, {"source": 41, "LinkLabel": "SeaMeWe-3", "target": 42}, {"source": 41, "LinkLabel": "SeaMeWe-3", "target": 59}, {"source": 41, "LinkLabel": "SeaMeWe-3", "target": 62}, {"source": 42, "LinkLabel": "SeaMeWe-3", "target": 60}, {"source": 43, "LinkLabel": "OPTEGLOBE TBN", "target": 48}, {"source": 43, "LinkLabel": "OPTEGLOBE TBN", "target": 55}, {"source": 44, "LinkLabel": "OPTEGLOBE TBN", "target": 50}, {"source": 44, "LinkLabel": "OPTEGLOBE TBN", "target": 46}, {"source": 44, "LinkLabel": "OPTEGLOBE TBN", "target": 55}, {"source": 45, "LinkLabel": "OPTEGLOBE TBN", "target": 46}, {"source": 46, "id": "e99", "target": 51}, {"source": 47, "LinkLabel": "GWEN", "target": 58}, {"source": 47, "LinkLabel": "GWEN", "target": 58}, {"source": 49, "id": "e95", "target": 50}, {"source": 51, "LinkLabel": "OPTEGLOBE TBN", "target": 55}, {"source": 51, "LinkLabel": "OPTEGLOBE TBN", "target": 52}, {"source": 53, "LinkLabel": "CIOS", "target": 71}, {"source": 54, "LinkLabel": "MedNautilus", "target": 67}, {"source": 54, "LinkLabel": "MedNautilus", "target": 61}, {"source": 55, "LinkLabel": "GWEN", "target": 56}, {"source": 55, "LinkLabel": "GWEN", "target": 58}, {"source": 56, "LinkLabel": "GWEN", "target": 58}, {"source": 57, "LinkLabel": "MedNautilus", "target": 67}, {"source": 57, "LinkLabel": "GWEN", "target": 58}, {"source": 57, "LinkLabel": "Aphrodite-2", "target": 59}, {"source": 57, "LinkLabel": "MedNautilus", "target": 61}, {"source": 67, "LinkLabel": "Catania-Malta", "target": 70}, {"source": 69, "LinkLabel": "Ugarit", "target": 72}, {"source": 73, "LinkLabel": "OPTEGLOBE TBN", "target": 74}, {"source": 74, "LinkLabel": "OPTEGLOBE TBN", "target": 80}, {"source": 75, "LinkLabel": "OPTEGLOBE TBN", "target": 81}, {"source": 75, "LinkLabel": "OPTEGLOBE TBN", "target": 90}, {"source": 76, "LinkLabel": "OPTEGLOBE TBN", "target": 90}, {"source": 76, "LinkLabel": "OPTEGLOBE TBN", "target": 82}, {"source": 77, "LinkLabel": "TAT-14", "target": 78}, {"source": 79, "LinkLabel": "OPTEGLOBE TBN", "target": 80}, {"source": 80, "LinkLabel": "OPTEGLOBE TBN", "target": 81}, {"source": 80, "LinkLabel": "OPTEGLOBE TBN", "target": 82}, {"source": 83, "LinkLabel": "GWEN", "target": 84}, {"source": 83, "LinkLabel": "GWEN", "target": 87}, {"source": 85, "LinkLabel": "GWEN", "target": 89}, {"source": 85, "LinkLabel": "GWEN", "target": 86}, {"source": 86, "LinkLabel": "GWEN", "target": 87}, {"source": 87, "LinkLabel": "OPTEGLOBE TBN", "target": 90}, {"source": 87, "LinkLabel": "OPTEGLOBE TBN", "target": 92}, {"source": 88, "LinkLabel": "GWEN", "target": 89}, {"source": 90, "LinkLabel": "OPTEGLOBE TBN", "target": 91}, {"source": 91, "LinkLabel": "OPTEGLOBE TBN", "target": 92}], "multigraph": true}