{"directed": false, "graph": [["DateObtained", "18/10/10"], ["GeoLocation", "Global"], ["GeoExtent", "Global"], ["DateModifier", "="], ["Customer", 1], ["Network", "Packet Exchange"], ["IX", 0], ["Provenance", "Primary"], ["Access", 0], ["Source", "http://www.mzima.net/servicemap_for_ppt.pdf"], ["Version", "1.0"], ["DateMonth", "08"], ["DateYear", "2010"], ["DateType", "Current"], ["LastAccess", "3/08/10"], ["Layer", "IP"], ["Creator", "Topology Zoo Toolset"], ["Type", "COM"], ["SourceGitVersion", "e278b1b"], ["Backbone", 1], ["Commercial", 0], ["NetworkDate", "2010_08"], ["label", "Packetexchange"], ["LastProcessed", "2011_09_01"], ["Testbed", 0], ["Developed", 0], ["ToolsetVersion", "0.3.34dev-20120328"], ["Transit", 1]], "nodes": [{"Internal": 1, "Latitude": 25.77427, "Country": "United States", "id": 0, "Longitude": -80.19366, "label": "Miami"}, {"Internal": 1, "Latitude": 51.50853, "Country": "United Kingdom", "id": 1, "Longitude": -0.12574, "label": "London"}, {"Internal": 1, "Latitude": 39.04372, "Country": "United States", "id": 2, "Longitude": -77.48749, "label": "Ashburn/Washington"}, {"Internal": 1, "Latitude": 40.71427, "Country": "United States", "id": 3, "Longitude": -74.00597, "label": "New York"}, {"Internal": 1, "Latitude": 48.85341, "Country": "France", "id": 4, "Longitude": 2.3488, "label": "Paris"}, {"Internal": 1, "Latitude": 45.46427, "Country": "Italy", "id": 5, "Longitude": 9.18951, "label": "Milan"}, {"Internal": 1, "Latitude": 52.37403, "Country": "Netherlands", "id": 6, "Longitude": 4.88969, "label": "Amsterdam"}, {"Internal": 1, "Latitude": 50.11667, "Country": "Germany", "id": 7, "Longitude": 8.68333, "label": "Frankfurt"}, {"Internal": 1, "Latitude": 22.28552, "Country": "Hong Kong", "id": 8, "Longitude": 114.15769, "label": "Hong Kong"}, {"Internal": 1, "Latitude": 1.28967, "Country": "Singapore", "id": 9, "Longitude": 103.85007, "label": "Singapore"}, {"Internal": 1, "Latitude": 34.05223, "Country": "United States", "id": 10, "Longitude": -118.24368, "label": "Los Angeles"}, {"Internal": 1, "Latitude": 39.11417, "Country": "United States", "id": 11, "Longitude": -94.62746, "label": "Kansas City"}, {"Internal": 1, "Latitude": 41.85003, "Country": "United States", "id": 12, "Longitude": -87.65005, "label": "Chicago"}, {"Internal": 1, "Latitude": 47.60621, "Country": "United States", "id": 13, "Longitude": -122.33207, "label": "Seattle"}, {"Internal": 1, "Latitude": 37.77493, "Country": "United States", "id": 14, "Longitude": -122.41942, "label": "San Francisco"}, {"Internal": 1, "Latitude": 9.93333, "Country": "Costa Rica", "id": 15, "Longitude": -84.08333, "label": "San Jose"}, {"Internal": 1, "Latitude": 29.76328, "Country": "United States", "id": 16, "Longitude": -95.36327, "label": "Houston"}, {"Internal": 1, "Latitude": 36.17497, "Country": "United States", "id": 17, "Longitude": -115.13722, "label": "Las Vegas"}, {"Internal": 1, "Latitude": 33.44838, "Country": "United States", "id": 18, "Longitude": -112.07404, "label": "Phoenix"}, {"Internal": 1, "Latitude": 32.78306, "Country": "United States", "id": 19, "Longitude": -96.80667, "label": "Dallas"}, {"Internal": 1, "Latitude": 33.749, "Country": "United States", "id": 20, "Longitude": -84.38798, "label": "Atlanta"}], "links": [{"source": 0, "id": "e20", "target": 16}, {"source": 0, "id": "e14", "target": 20}, {"source": 1, "id": "e17", "target": 2}, {"source": 1, "id": "e19", "target": 3}, {"source": 1, "id": "e21", "target": 4}, {"source": 1, "id": "e22", "target": 6}, {"source": 2, "id": "e16", "target": 12}, {"source": 2, "id": "e13", "target": 20}, {"source": 3, "id": "e18", "target": 4}, {"source": 4, "id": "e24", "target": 7}, {"source": 5, "id": "e25", "target": 7}, {"source": 6, "id": "e23", "target": 7}, {"source": 8, "id": "e26", "target": 9}, {"source": 8, "id": "e4", "target": 14}, {"source": 9, "id": "e6", "target": 10}, {"source": 10, "id": "e8", "target": 18}, {"source": 10, "id": "e7", "target": 17}, {"source": 10, "id": "e5", "target": 15}, {"source": 11, "id": "e10", "target": 19}, {"source": 11, "id": "e15", "target": 12}, {"source": 11, "id": "e0", "target": 13}, {"source": 11, "id": "e2", "target": 14}, {"source": 13, "id": "e1", "target": 14}, {"source": 14, "id": "e3", "target": 15}, {"source": 16, "id": "e11", "target": 19}, {"source": 18, "id": "e9", "target": 19}, {"source": 19, "id": "e12", "target": 20}], "multigraph": true}