{"directed": false, "graph": [["DateObtained", "5/07/11"], ["GeoLocation", "Poland"], ["GeoExtent", "Country"], ["DateModifier", "="], ["Customer", 0], ["Network", "PIONIER"], ["IX", 0], ["Provenance", "Primary"], ["Note", "Some external links on left side ambigious"], ["Source", "http://www.man.poznan.pl/online/en/projects/69/PIONIER_Network.html"], ["Version", "1.0"], ["DateMonth", "07"], ["DateYear", "2011"], ["Type", "REN"], ["LastAccess", "5/07/11"], ["Access", 0], ["Layer", "IP"], ["Creator", "Topology Zoo Toolset"], ["DateType", "Current"], ["SourceGitVersion", "e278b1b"], ["Backbone", 0], ["Commercial", 0], ["NetworkDate", "2011_07"], ["label", "PionierL3"], ["LastProcessed", "2011_09_01"], ["Testbed", 0], ["Developed", 0], ["ToolsetVersion", "0.3.34dev-20120328"], ["Transit", 0]], "nodes": [{"Internal": 1, "Latitude": 52.22977, "Country": "Poland", "id": 0, "Longitude": 21.01178, "label": "Warszawa"}, {"Internal": 1, "Latitude": 51.40253, "Country": "Poland", "id": 1, "Longitude": 21.14714, "label": "Radom"}, {"Internal": 0, "id": 2, "label": "Belarus"}, {"Internal": 1, "Latitude": 53.13333, "Country": "Poland", "id": 3, "Longitude": 23.15, "label": "Bialystok"}, {"Internal": 1, "Latitude": 51.25, "Country": "Poland", "id": 4, "Longitude": 22.56667, "label": "Lublin"}, {"Internal": 0, "id": 5, "label": "Ukraine"}, {"Internal": 1, "Latitude": 51.75, "Country": "Poland", "id": 6, "Longitude": 19.46667, "label": "Lodz"}, {"Internal": 1, "Latitude": 51.41655, "Country": "Poland", "id": 7, "Longitude": 21.96939, "label": "Pulawy"}, {"Internal": 1, "Latitude": 50.04132, "Country": "Poland", "id": 8, "Longitude": 21.99901, "label": "Rzeszow"}, {"Internal": 1, "Latitude": 50.87033, "Country": "Poland", "id": 9, "Longitude": 20.62752, "label": "Kielce"}, {"Internal": 1, "Latitude": 54.1522, "Country": "Poland", "id": 10, "Longitude": 19.40884, "label": "Elblag"}, {"Internal": 1, "Latitude": 54.11175, "Country": "Poland", "id": 11, "Longitude": 22.93087, "label": "Suwalki"}, {"Internal": 1, "Latitude": 52.22944, "Country": "Poland", "id": 12, "Longitude": 20.23838, "label": "Sochaczew"}, {"Internal": 1, "Latitude": 52.73679, "Country": "Poland", "id": 13, "Longitude": 15.22878, "label": "Gorzow Wlkp"}, {"Internal": 0, "id": 14, "label": "SURFnet/NORDUnet"}, {"Internal": 0, "id": 15, "label": "DFN"}, {"Internal": 0, "id": 16, "label": "GEANT3"}, {"Internal": 0, "id": 17, "label": "Internet"}, {"Internal": 1, "Latitude": 49.82245, "Country": "Poland", "id": 18, "Longitude": 19.04686, "label": "Bielsko-Biala"}, {"Internal": 1, "Latitude": 50.72314, "Country": "Poland", "id": 19, "Longitude": 23.25196, "label": "Zamosc"}, {"Internal": 1, "Latitude": 50.79646, "Country": "Poland", "id": 20, "Longitude": 19.12409, "label": "Czechtochowa"}, {"Internal": 0, "id": 21, "label": "CESNET"}, {"Internal": 0, "id": 22, "label": "SANET"}, {"Internal": 1, "Latitude": 50.08333, "Country": "Poland", "id": 23, "Longitude": 19.91667, "label": "Krakow"}, {"Internal": 0, "id": 24, "label": "Geant2/Internet"}, {"Internal": 1, "Latitude": 51.1, "Country": "Poland", "id": 25, "Longitude": 17.03333, "label": "Wroclaw"}, {"Internal": 1, "Latitude": 50.66667, "Country": "Poland", "id": 26, "Longitude": 17.95, "label": "Opole"}, {"Internal": 1, "Latitude": 50.28333, "Country": "Poland", "id": 27, "Longitude": 18.66667, "label": "Gliwice"}, {"Internal": 1, "Latitude": 53.78333, "Country": "Poland", "id": 28, "Longitude": 20.48333, "label": "Olsztyn"}, {"Internal": 0, "id": 29, "label": "Lithuania"}, {"Internal": 1, "Latitude": 54.35205, "Country": "Poland", "id": 30, "Longitude": 18.64637, "label": "Gdansk"}, {"Internal": 1, "Latitude": 54.19438, "Country": "Poland", "id": 31, "Longitude": 16.17222, "label": "Koszalin"}, {"Internal": 1, "Latitude": 53.42894, "Country": "Poland", "id": 32, "Longitude": 14.55302, "label": "Szczecin"}, {"Internal": 1, "Latitude": 51.93548, "Country": "Poland", "id": 33, "Longitude": 15.50643, "label": "Zielona gora"}, {"Internal": 1, "Latitude": 52.41667, "Country": "Poland", "id": 34, "Longitude": 16.96667, "label": "Poznan"}, {"Internal": 1, "Latitude": 53.1235, "Country": "Poland", "id": 35, "Longitude": 18.00762, "label": "Bydgoszcz"}, {"Internal": 1, "Latitude": 53.01375, "Country": "Poland", "id": 36, "Longitude": 18.59814, "label": "Torun"}, {"Internal": 0, "id": 37, "label": "Russia"}], "links": [{"source": 0, "LinkLabel": "2x10Gb/s", "target": 1}, {"source": 0, "LinkLabel": "2x10Gb/s", "target": 1}, {"source": 0, "LinkLabel": "2x10Gb/s", "target": 1}, {"source": 0, "LinkLabel": "2x10Gb/s", "target": 34}, {"source": 0, "LinkLabel": "2x10Gb/s", "target": 3}, {"source": 0, "LinkLabel": "2x10Gb/s", "target": 3}, {"source": 0, "LinkLabel": "2x10Gb/s", "target": 6}, {"source": 1, "LinkLabel": "2x10Gb/s", "target": 9}, {"source": 1, "LinkLabel": "2x10Gb/s", "target": 9}, {"source": 1, "LinkLabel": "2x10Gb/s", "target": 7}, {"source": 1, "LinkLabel": "2x10Gb/s", "target": 7}, {"LinkSpeed": "10", "source": 2, "LinkLabel": "10Gb/s", "target": 3, "LinkSpeedUnits": "G", "LinkSpeedRaw": 10000000000.0}, {"source": 3, "LinkLabel": "2x10Gb/s", "target": 11}, {"source": 4, "LinkLabel": "2x10Gb/s", "target": 19}, {"source": 4, "LinkLabel": "2x10Gb/s", "target": 7}, {"source": 4, "LinkLabel": "2x10Gb/s", "target": 7}, {"LinkSpeed": "10", "source": 5, "LinkLabel": "10Gb/s", "target": 19, "LinkSpeedUnits": "G", "LinkSpeedRaw": 10000000000.0}, {"source": 6, "LinkLabel": "2x10Gb/s", "target": 20}, {"source": 6, "LinkLabel": "2x10Gb/s", "target": 34}, {"source": 6, "LinkLabel": "2x10Gb/s", "target": 12}, {"source": 8, "LinkLabel": "2x10Gb/s", "target": 19}, {"source": 8, "LinkLabel": "2x10Gb/s", "target": 23}, {"source": 9, "LinkLabel": "2x10Gb/s", "target": 23}, {"source": 9, "LinkLabel": "2x10Gb/s", "target": 23}, {"source": 10, "LinkLabel": "2x10Gb/s", "target": 28}, {"LinkSpeed": "10", "source": 10, "LinkLabel": "10Gb/s", "target": 37, "LinkSpeedUnits": "G", "LinkSpeedRaw": 10000000000.0}, {"source": 10, "LinkLabel": "2x10Gb/s", "target": 30}, {"source": 11, "LinkLabel": "2x10Gb/s", "target": 28}, {"LinkSpeed": "10", "source": 11, "LinkLabel": "10Gb/s", "target": 29, "LinkSpeedUnits": "G", "LinkSpeedRaw": 10000000000.0}, {"source": 12, "LinkLabel": "2x10Gb/s", "target": 34}, {"source": 13, "LinkLabel": "2x10Gb/s", "target": 32}, {"source": 13, "LinkLabel": "2x10Gb/s", "target": 34}, {"LinkSpeed": "10", "source": 13, "LinkLabel": "10Gb/s", "target": 15, "LinkSpeedUnits": "G", "LinkSpeedRaw": 10000000000.0}, {"source": 14, "LinkLabel": "4*10Gb/s", "target": 34}, {"LinkSpeed": "10", "source": 15, "LinkLabel": "10Gb/s", "target": 32, "LinkSpeedUnits": "G", "LinkSpeedRaw": 10000000000.0}, {"LinkSpeed": "10", "source": 15, "LinkLabel": "10Gb/s", "target": 33, "LinkSpeedUnits": "G", "LinkSpeedRaw": 10000000000.0}, {"source": 16, "LinkLabel": "10*10Gb/s", "target": 34}, {"LinkSpeed": "10", "source": 17, "LinkLabel": "10Gb/s", "target": 34, "LinkSpeedUnits": "G", "LinkSpeedRaw": 10000000000.0}, {"source": 18, "LinkLabel": "2x10Gb/s", "target": 27}, {"source": 18, "LinkLabel": "2x10Gb/s", "target": 21}, {"source": 18, "LinkLabel": "2x10Gb/s", "target": 22}, {"source": 18, "LinkLabel": "2x10Gb/s", "target": 23}, {"source": 20, "LinkLabel": "2x10Gb/s", "target": 27}, {"LinkSpeed": "10", "source": 24, "LinkLabel": "10Gb/s", "target": 34, "LinkSpeedUnits": "G", "LinkSpeedRaw": 10000000000.0}, {"source": 25, "LinkLabel": "2x10Gb/s", "target": 33}, {"source": 25, "LinkLabel": "2x10Gb/s", "target": 26}, {"source": 26, "LinkLabel": "2x10Gb/s", "target": 27}, {"source": 30, "LinkLabel": "2x10Gb/s", "target": 36}, {"source": 30, "LinkLabel": "2x10Gb/s", "target": 31}, {"source": 31, "LinkLabel": "2x10Gb/s", "target": 32}, {"source": 34, "LinkLabel": "2x10Gb/s", "target": 35}, {"source": 35, "LinkLabel": "2x10Gb/s", "target": 36}], "multigraph": true}