{"directed": false, "graph": [["DateObtained", "1/02/11"], ["GeoLocation", "France"], ["GeoExtent", "Country"], ["DateModifier", "="], ["Customer", 1], ["Network", "Renater"], ["IX", 0], ["Provenance", "Secondary"], ["Note", "Unclear how Paris is connected to NOC"], ["Source", "http://replay.waybackmachine.org/20050124060409/http://www.renater.fr/Reseau/Renater2/images_R2/CarteRenater2bis.jpg"], ["Version", "1.0"], ["DateMonth", "04"], ["DateYear", "2001"], ["DateType", "Historic"], ["LastAccess", "1/02/11"], ["Access", 0], ["Layer", "IP"], ["Creator", "Topology Zoo Toolset"], ["Type", "REN"], ["SourceGitVersion", "e278b1b"], ["Backbone", 1], ["Commercial", 0], ["NetworkDate", "2001_04"], ["label", "Renater2001"], ["LastProcessed", "2011_09_01"], ["Testbed", 0], ["Developed", 1], ["ToolsetVersion", "0.3.34dev-20120328"], ["Transit", 0]], "nodes": [{"Internal": 1, "Latitude": 44.83333, "Country": "France", "id": 0, "Longitude": -0.56667, "label": "Bordeaux"}, {"Internal": 1, "Latitude": 43.60426, "Country": "France", "id": 1, "Longitude": 1.44367, "label": "Toulouse"}, {"Internal": 1, "Latitude": 47.91667, "Country": "France", "id": 2, "Longitude": 1.9, "label": "Orleans"}, {"Internal": 1, "Latitude": 45.83153, "Country": "France", "id": 3, "Longitude": 1.2578, "label": "Limoges"}, {"Internal": 1, "Latitude": 47.31667, "Country": "France", "id": 4, "Longitude": 5.01667, "label": "Dijon"}, {"Internal": 1, "Latitude": 47.25, "Country": "France", "id": 5, "Longitude": 6.03333, "label": "Besancon"}, {"Internal": 1, "Latitude": 43.6, "Country": "France", "id": 6, "Longitude": 3.88333, "label": "Montpellier"}, {"Internal": 1, "Latitude": 45.78333, "Country": "France", "id": 7, "Longitude": 3.08333, "label": "Clermont-Ferrand"}, {"Internal": 1, "Latitude": 45.16667, "Country": "France", "id": 8, "Longitude": 5.71667, "label": "Grenoble"}, {"Internal": 1, "Latitude": 43.62235, "Country": "France", "id": 9, "Longitude": 7.04721, "label": "Sophia"}, {"Internal": 1, "Latitude": 45.75, "Country": "France", "id": 10, "Longitude": 4.85, "label": "Lyon"}, {"Internal": 1, "Latitude": 48.85341, "Country": "France", "id": 11, "Longitude": 2.3488, "label": "Paris"}, {"Internal": 1, "Latitude": 42.3, "Country": "France", "id": 12, "Longitude": 9.15, "label": "Corte"}, {"Internal": 1, "Latitude": 43.3, "Country": "France", "id": 13, "Longitude": 5.4, "label": "Marseille"}, {"Internal": 1, "Latitude": 47.21725, "Country": "France", "id": 14, "Longitude": -1.55336, "label": "Nantes"}, {"Internal": 1, "Latitude": 46.58333, "Country": "France", "id": 15, "Longitude": 0.33333, "label": "Poiters"}, {"Internal": 1, "Latitude": 48.58333, "Country": "France", "id": 16, "Longitude": 7.75, "label": "Strasbourg"}, {"Internal": 1, "Latitude": 48.68333, "Country": "France", "id": 17, "Longitude": 6.2, "label": "Nancy"}, {"Internal": 1, "Latitude": 49.25, "Country": "France", "id": 18, "Longitude": 4.03333, "label": "Reims"}, {"Internal": 1, "Latitude": 49.41794, "Country": "France", "id": 19, "Longitude": 2.82606, "label": "Compiegne"}, {"Internal": 1, "Latitude": 50.63333, "Country": "France", "id": 20, "Longitude": 3.06667, "label": "Lille"}, {"Internal": 1, "Latitude": 49.44313, "Country": "France", "id": 21, "Longitude": 1.09932, "label": "Rouen"}, {"Internal": 1, "Latitude": 49.18585, "Country": "France", "id": 22, "Longitude": -0.35912, "label": "Caen"}, {"Internal": 1, "Latitude": 48.08333, "Country": "France", "id": 23, "Longitude": -1.68333, "label": "Rennes"}], "links": [{"LinkSpeed": "34", "source": 0, "LinkLabel": "34 Mbit/s", "target": 1, "LinkNote": " it/s", "LinkSpeedUnits": "M", "LinkSpeedRaw": 34000000.0}, {"LinkSpeed": "155", "source": 0, "LinkLabel": "155 Mbit/s", "target": 15, "LinkNote": " it/s", "LinkSpeedUnits": "M", "LinkSpeedRaw": 155000000.0}, {"LinkSpeed": "155", "source": 1, "LinkLabel": "155 Mbit/s", "target": 10, "LinkNote": " it/s", "LinkSpeedUnits": "M", "LinkSpeedRaw": 155000000.0}, {"LinkSpeed": "155", "source": 1, "LinkLabel": "155 Mbit/s", "target": 6, "LinkNote": " it/s", "LinkSpeedUnits": "M", "LinkSpeedRaw": 155000000.0}, {"LinkSpeed": "155", "source": 2, "LinkLabel": "155 Mbit/s", "target": 11, "LinkNote": " it/s", "LinkSpeedUnits": "M", "LinkSpeedRaw": 155000000.0}, {"LinkSpeed": "34", "source": 3, "LinkLabel": "34 Mbit/s", "target": 15, "LinkNote": " it/s", "LinkSpeedUnits": "M", "LinkSpeedRaw": 34000000.0}, {"LinkSpeed": "34", "source": 4, "LinkLabel": "34 Mbit/s", "target": 5, "LinkNote": " it/s", "LinkSpeedUnits": "M", "LinkSpeedRaw": 34000000.0}, {"LinkSpeed": "155", "source": 5, "LinkLabel": "155 Mbit/s", "target": 16, "LinkNote": " it/s", "LinkSpeedUnits": "M", "LinkSpeedRaw": 155000000.0}, {"LinkSpeed": "155", "source": 5, "LinkLabel": "155 Mbit/s", "target": 10, "LinkNote": " it/s", "LinkSpeedUnits": "M", "LinkSpeedRaw": 155000000.0}, {"LinkSpeed": "155", "source": 6, "LinkLabel": "155 Mbit/s", "target": 13, "LinkNote": " it/s", "LinkSpeedUnits": "M", "LinkSpeedRaw": 155000000.0}, {"LinkSpeed": "34", "source": 7, "LinkLabel": "34 Mbit/s", "target": 10, "LinkNote": " it/s", "LinkSpeedUnits": "M", "LinkSpeedRaw": 34000000.0}, {"LinkSpeed": "622", "source": 8, "LinkLabel": "622 Mbit/s", "target": 10, "LinkNote": " it/s", "LinkSpeedUnits": "M", "LinkSpeedRaw": 622000000.0}, {"LinkSpeed": "8", "source": 9, "LinkLabel": "8 Mbit/s", "target": 12, "LinkNote": " it/s", "LinkSpeedUnits": "M", "LinkSpeedRaw": 8000000.0}, {"LinkSpeed": "155", "source": 9, "LinkLabel": "155 Mbit/s", "target": 13, "LinkNote": " it/s", "LinkSpeedUnits": "M", "LinkSpeedRaw": 155000000.0}, {"LinkSpeed": "2.4", "source": 10, "LinkLabel": "2.4 Gbit/s", "target": 11, "LinkNote": " it/s", "LinkSpeedUnits": "G", "LinkSpeedRaw": 2400000000.0}, {"LinkSpeed": "622", "source": 10, "LinkLabel": "622 Mbit/s", "target": 13, "LinkNote": " it/s", "LinkSpeedUnits": "M", "LinkSpeedRaw": 622000000.0}, {"LinkSpeed": "155", "source": 11, "LinkLabel": "155 Mbit/s", "target": 15, "LinkNote": " it/s", "LinkSpeedUnits": "M", "LinkSpeedRaw": 155000000.0}, {"LinkSpeed": "155", "source": 11, "LinkLabel": "155 Mbit/s", "target": 17, "LinkNote": " it/s", "LinkSpeedUnits": "M", "LinkSpeedRaw": 155000000.0}, {"LinkSpeed": "34", "source": 11, "LinkLabel": "34 Mbit/s", "target": 18, "LinkNote": " it/s", "LinkSpeedUnits": "M", "LinkSpeedRaw": 34000000.0}, {"LinkSpeed": "155", "source": 11, "LinkLabel": "155 Mbit/s", "target": 19, "LinkNote": " it/s", "LinkSpeedUnits": "M", "LinkSpeedRaw": 155000000.0}, {"LinkSpeed": "155", "source": 11, "LinkLabel": "155 Mbit/s", "target": 20, "LinkNote": " it/s", "LinkSpeedUnits": "M", "LinkSpeedRaw": 155000000.0}, {"LinkSpeed": "155", "source": 11, "LinkLabel": "155 Mbit/s", "target": 21, "LinkNote": " it/s", "LinkSpeedUnits": "M", "LinkSpeedRaw": 155000000.0}, {"LinkSpeed": "155", "source": 11, "LinkLabel": "155 Mbit/s", "target": 23, "LinkNote": " it/s", "LinkSpeedUnits": "M", "LinkSpeedRaw": 155000000.0}, {"LinkSpeed": "155", "source": 14, "LinkLabel": "155 Mbit/s", "target": 23, "LinkNote": " it/s", "LinkSpeedUnits": "M", "LinkSpeedRaw": 155000000.0}, {"LinkSpeed": "34", "source": 14, "LinkLabel": "34 Mbit/s", "target": 15, "LinkNote": " it/s", "LinkSpeedUnits": "M", "LinkSpeedRaw": 34000000.0}, {"LinkSpeed": "155", "source": 16, "LinkLabel": "155 Mbit/s", "target": 17, "LinkNote": " it/s", "LinkSpeedUnits": "M", "LinkSpeedRaw": 155000000.0}, {"LinkSpeed": "155", "source": 21, "LinkLabel": "155 Mbit/s", "target": 22, "LinkNote": " it/s", "LinkSpeedUnits": "M", "LinkSpeedRaw": 155000000.0}], "multigraph": true}