{"directed": false, "graph": [["DateObtained", "13/07/11"], ["GeoLocation", "Romania"], ["GeoExtent", "Country"], ["DateModifier", "="], ["Customer", 0], ["Network", "RoEduNet"], ["IX", 0], ["Provenance", "Primary"], ["Access", 0], ["Source", "http://niham.nipne.ro/events2006/sinaia/Prezentari_ziua5/Octavian_Rusu.pdf"], ["Version", "1.0"], ["DateMonth", 0], ["DateYear", "2006"], ["Type", "REN"], ["LastAccess", "13/07/11"], ["Layer", "IP"], ["Creator", "Topology Zoo Toolset"], ["DateType", "Historic"], ["SourceGitVersion", "e278b1b"], ["Backbone", 1], ["Commercial", 0], ["NetworkDate", "2006"], ["label", "Roedunet"], ["LastProcessed", "2011_09_01"], ["Testbed", 0], ["Developed", 0], ["ToolsetVersion", "0.3.34dev-20120328"], ["Transit", 0]], "nodes": [{"Internal": 1, "Latitude": 44.31667, "Country": "Romania", "type": "NOC", "id": 0, "Longitude": 23.8, "label": "Dolj"}, {"Internal": 1, "Latitude": 44.43333, "Country": "Romania", "type": "PoP", "id": 1, "Longitude": 24.36667, "label": "Olt"}, {"Internal": 1, "Latitude": 45.05, "Country": "Romania", "type": "PoP", "id": 2, "Longitude": 23.28333, "label": "Gorj"}, {"Internal": 1, "Latitude": 45.1, "Country": "Romania", "type": "PoP", "id": 3, "Longitude": 24.36667, "label": "Valcea"}, {"Internal": 1, "Latitude": 44.43225, "Country": "Romania", "type": "NOC", "id": 4, "Longitude": 26.10626, "label": "Bucaresti"}, {"Internal": 1, "Latitude": 44.71667, "Country": "Romania", "type": "PoP", "id": 5, "Longitude": 26.63333, "label": "Ialomita"}, {"Internal": 1, "Latitude": 43.98333, "Country": "Romania", "type": "PoP", "id": 6, "Longitude": 25.33333, "label": "Teleorman"}, {"Internal": 1, "Latitude": 43.88333, "Country": "Romania", "type": "PoP", "id": 7, "Longitude": 25.96667, "label": "Giurgiu"}, {"Country": "Romania", "Longitude": 27.33333, "label": "Calarasi", "Internal": 1, "geocode_id": "683022", "Latitude": 44.2, "type": "PoP", "id": 8}, {"Internal": 1, "Latitude": 44.18333, "Country": "Romania", "type": "PoP", "id": 9, "Longitude": 28.65, "label": "Constanta"}, {"Internal": 1, "Latitude": 45.85, "Country": "Romania", "type": "PoP", "id": 10, "Longitude": 26.18333, "label": "Covasna"}, {"Internal": 1, "Latitude": 45.8, "Country": "Romania", "type": "PoP", "id": 11, "Longitude": 24.15, "label": "Sibiu"}, {"Internal": 1, "Latitude": 46.06667, "Country": "Romania", "type": "PoP", "id": 12, "Longitude": 23.58333, "label": "Alba"}, {"Internal": 1, "Latitude": 44.85, "Country": "Romania", "type": "PoP", "id": 13, "Longitude": 24.86667, "label": "Arges"}, {"Internal": 1, "Latitude": 44.93333, "Country": "Romania", "type": "PoP", "id": 14, "Longitude": 25.45, "label": "Dambovita"}, {"Internal": 1, "Latitude": 44.95, "Country": "Romania", "type": "PoP", "id": 15, "Longitude": 26.01667, "label": "Prahova"}, {"Internal": 1, "Latitude": 45.15, "Country": "Romania", "type": "PoP", "id": 16, "Longitude": 26.83333, "label": "Buzau"}, {"Internal": 1, "Latitude": 45.7, "Country": "Romania", "type": "PoP", "id": 17, "Longitude": 27.18333, "label": "Vrancea"}, {"Internal": 1, "Latitude": 46.56667, "Country": "Romania", "type": "PoP", "id": 18, "Longitude": 26.9, "label": "Bacau"}, {"Internal": 1, "Latitude": 46.3, "Country": "Romania", "type": "PoP", "id": 19, "Longitude": 25.3, "label": "Harghita"}, {"Internal": 0, "id": 20, "label": "GEANT"}, {"Internal": 0, "id": 21, "label": "Chisinau RENAM"}, {"Internal": 1, "Latitude": 46.54245, "Country": "Romania", "type": "NOC", "id": 22, "Longitude": 24.55747, "label": "Mures"}, {"Internal": 1, "Latitude": 47.13316, "Country": "Romania", "type": "PoP", "id": 23, "Longitude": 24.50011, "label": "Bistrita-Nasaud"}, {"Internal": 1, "Latitude": 46.63333, "Country": "Romania", "type": "PoP", "id": 24, "Longitude": 27.73333, "label": "Vaslui"}, {"Internal": 1, "Latitude": 45.45, "Country": "Romania", "type": "NOC", "id": 25, "Longitude": 28.05, "label": "Galati"}, {"Internal": 1, "Latitude": 45.16667, "Country": "Romania", "type": "PoP", "id": 26, "Longitude": 28.8, "label": "Tulcea"}, {"Internal": 1, "Latitude": 45.26667, "Country": "Romania", "type": "PoP", "id": 27, "Longitude": 27.98333, "label": "Braila"}, {"Internal": 1, "Latitude": 46.91667, "Country": "Romania", "type": "PoP", "id": 28, "Longitude": 26.33333, "label": "Neamt"}, {"Internal": 1, "Latitude": 47.63333, "Country": "Romania", "type": "PoP", "id": 29, "Longitude": 26.25, "label": "Suceava"}, {"Internal": 1, "Latitude": 47.75, "Country": "Romania", "type": "PoP", "id": 30, "Longitude": 26.66667, "label": "Botosani"}, {"Internal": 1, "Latitude": 47.16667, "Country": "Romania", "type": "NOC", "id": 31, "Longitude": 27.6, "label": "Iasi"}, {"Internal": 1, "Latitude": 45.30083, "Country": "Romania", "type": "PoP", "id": 32, "Longitude": 21.88917, "label": "Caras-Severin"}, {"Internal": 1, "Latitude": 44.63194, "Country": "Romania", "type": "PoP", "id": 33, "Longitude": 22.65611, "label": "Mehedinti"}, {"Internal": 1, "Latitude": 47.8, "Country": "Romania", "type": "PoP", "id": 34, "Longitude": 22.88333, "label": "Satu Mare"}, {"Internal": 1, "Latitude": 47.65729, "Country": "Romania", "type": "PoP", "id": 35, "Longitude": 23.56808, "label": "Maramures"}, {"Internal": 1, "Latitude": 46.76667, "Country": "Romania", "type": "NOC", "id": 36, "Longitude": 23.6, "label": "Cluj"}, {"Internal": 1, "Latitude": 47.2, "Country": "Romania", "type": "PoP", "id": 37, "Longitude": 23.05, "label": "Salaj"}, {"Internal": 1, "Latitude": 47.06667, "Country": "Romania", "type": "PoP", "id": 38, "Longitude": 21.93333, "label": "Bihor"}, {"Internal": 1, "Latitude": 46.18333, "Country": "Romania", "type": "PoP", "id": 39, "Longitude": 21.31667, "label": "Arad"}, {"Internal": 1, "Latitude": 45.74944, "Country": "Romania", "type": "NOC", "id": 40, "Longitude": 21.22722, "label": "Timis"}, {"Internal": 1, "Latitude": 45.75, "Country": "Romania", "type": "PoP", "id": 41, "Longitude": 22.9, "label": "Hunedora"}], "links": [{"source": 0, "LinkLabel": "<= 10 Mbps", "target": 1}, {"source": 0, "LinkLabel": "<= 10 Mbps", "target": 2}, {"source": 0, "LinkLabel": "<= 10 Mbps", "target": 3}, {"LinkType": "E3", "source": 0, "LinkLabel": "E3", "target": 4}, {"LinkType": "E3", "source": 0, "LinkLabel": "E3", "target": 4}, {"source": 0, "LinkLabel": "<= 10 Mbps", "target": 33}, {"source": 0, "LinkLabel": "<= 10 Mbps backup", "target": 40}, {"LinkType": "STM-1", "source": 4, "LinkLabel": "STM-1", "target": 36}, {"source": 4, "LinkLabel": "<= 10 Mbps", "target": 5}, {"source": 4, "LinkLabel": "<= 10 Mbps", "target": 6}, {"source": 4, "LinkLabel": "<= 10 Mbps", "target": 7}, {"source": 4, "LinkLabel": "<= 10 Mbps", "target": 8}, {"source": 4, "LinkLabel": "<= 10 Mbps", "target": 9}, {"source": 4, "LinkLabel": "<= 10 Mbps", "target": 13}, {"source": 4, "LinkLabel": "<= 10 Mbps", "target": 14}, {"source": 4, "LinkLabel": "<= 10 Mbps", "target": 15}, {"source": 4, "LinkLabel": "<= 10 Mbps", "target": 16}, {"LinkType": "STM-1", "source": 4, "LinkLabel": "STM-1", "target": 40}, {"LinkType": "STM-4", "source": 4, "LinkLabel": "STM-4", "target": 20}, {"LinkType": "STM-4", "source": 4, "LinkLabel": "STM-4", "target": 20}, {"LinkType": "E3", "source": 4, "LinkLabel": "E3", "target": 22}, {"LinkType": "E3", "source": 4, "LinkLabel": "E3", "target": 22}, {"LinkType": "STM-1", "source": 4, "LinkLabel": "STM-1", "target": 25}, {"LinkType": "STM-1", "source": 4, "LinkLabel": "STM-1", "target": 31}, {"LinkType": "STM-1", "source": 4, "LinkLabel": "STM-1", "target": 31}, {"source": 10, "LinkLabel": "<= 10 Mbps", "target": 22}, {"source": 11, "LinkLabel": "<= 10 Mbps", "target": 22}, {"source": 12, "LinkLabel": "<= 10 Mbps", "target": 36}, {"source": 17, "LinkLabel": "<= 10 Mbps", "target": 25}, {"source": 18, "LinkLabel": "<= 10 Mbps", "target": 31}, {"source": 19, "LinkLabel": "<= 10 Mbps", "target": 22}, {"LinkType": "E3", "source": 21, "LinkLabel": "E3", "target": 31}, {"source": 22, "LinkLabel": "<= 10 Mbps backup", "target": 36}, {"source": 22, "LinkLabel": "<= 10 Mbps backup", "target": 31}, {"source": 23, "LinkLabel": "<= 10 Mbps", "target": 36}, {"source": 24, "LinkLabel": "<= 10 Mbps", "target": 31}, {"source": 25, "LinkLabel": "<= 10 Mbps", "target": 26}, {"source": 25, "LinkLabel": "<= 10 Mbps", "target": 27}, {"source": 25, "LinkLabel": "<= 10 Mbps backup", "target": 31}, {"source": 28, "LinkLabel": "<= 10 Mbps", "target": 31}, {"source": 29, "LinkLabel": "<= 10 Mbps", "target": 31}, {"source": 30, "LinkLabel": "<= 10 Mbps", "target": 31}, {"source": 32, "LinkLabel": "<= 10 Mbps", "target": 40}, {"source": 34, "LinkLabel": "<= 10 Mbps", "target": 36}, {"source": 35, "LinkLabel": "<= 10 Mbps", "target": 36}, {"source": 36, "LinkLabel": "<= 10 Mbps", "target": 37}, {"source": 36, "LinkLabel": "<= 10 Mbps backup", "target": 40}, {"source": 38, "LinkLabel": "<= 10 Mbps", "target": 40}, {"source": 39, "LinkLabel": "<= 10 Mbps", "target": 40}, {"source": 40, "LinkLabel": "<= 10 Mbps", "target": 41}], "multigraph": true}