{"directed": false, "graph": [["DateObtained", "22/10/10"], ["GeoLocation", "Slovakia"], ["GeoExtent", "Country"], ["DateModifier", "="], ["Customer", 1], ["Network", "SANET"], ["IX", 0], ["Provenance", "Primary"], ["Access", 0], ["Source", "http://www.sanet.sk/en/index.shtm"], ["Version", "1.0"], ["DateMonth", 0], ["DateYear", "2008"], ["DateType", "Historic"], ["LastAccess", "21/10/10"], ["Layer", "IP"], ["Creator", "Topology Zoo Toolset"], ["Type", "REN"], ["SourceGitVersion", "e278b1b"], ["Backbone", 1], ["Commercial", 0], ["NetworkDate", "2008"], ["label", "Sanet"], ["LastProcessed", "2011_09_01"], ["Testbed", 0], ["Developed", 1], ["ToolsetVersion", "0.3.34dev-20120328"], ["Transit", 0]], "nodes": [{"Internal": 1, "Latitude": 49.22315, "Country": "Slovakia", "type": "PoP", "id": 0, "Longitude": 18.73941, "label": "Zilina"}, {"Internal": 1, "Latitude": 48.76667, "Country": "Slovakia", "type": "PoP", "id": 1, "Longitude": 18.63333, "label": "Prievidza"}, {"Internal": 1, "Latitude": 48.89452, "Country": "Slovakia", "type": "PoP", "id": 2, "Longitude": 18.04436, "label": "Trencin"}, {"Internal": 1, "Latitude": 49.13333, "Country": "Slovakia", "type": "PoP", "id": 3, "Longitude": 18.33333, "label": "Puchov"}, {"Internal": 1, "Latitude": 49.06667, "Country": "Slovakia", "type": "PoP", "id": 4, "Longitude": 18.93333, "label": "Martin"}, {"Internal": 1, "Latitude": 49.08333, "Country": "Slovakia", "type": "PoP", "id": 5, "Longitude": 19.31667, "label": "Ruzomberok"}, {"Internal": 1, "Latitude": 48.58333, "Country": "Slovakia", "type": "PoP", "id": 6, "Longitude": 19.13333, "label": "Zvolen"}, {"Internal": 1, "Latitude": 48.73333, "Country": "Slovakia", "type": "PoP", "id": 7, "Longitude": 19.15, "label": "B. Bystrica"}, {"Internal": 1, "Latitude": 49.08061, "Country": "Slovakia", "type": "PoP", "id": 8, "Longitude": 19.62218, "label": "L.Mikulas"}, {"Internal": 1, "Latitude": 49.16616, "Country": "Slovakia", "type": "PoP", "id": 9, "Longitude": 20.28128, "label": "T.Lomnica"}, {"Internal": 0, "id": 10, "label": "ACOnet"}, {"Internal": 0, "id": 11, "label": "VIX"}, {"Internal": 1, "Latitude": 48.56667, "Country": "Slovakia", "type": "Repeater", "id": 12, "Longitude": 18.18333, "label": "Topolcany"}, {"Internal": 1, "Latitude": 48.21667, "Country": "Slovakia", "type": "Repeater", "id": 13, "Longitude": 18.6, "label": "Levice"}, {"Internal": 1, "Latitude": 47.98544, "Country": "Slovakia", "type": "Repeater", "id": 14, "Longitude": 18.16195, "label": "Nove Zamky"}, {"Internal": 1, "Latitude": 48.15, "Country": "Slovakia", "type": "Repeater", "id": 15, "Longitude": 17.88333, "label": "Sala"}, {"hyperedge": 1, "Internal": 1, "id": 16, "label": "None"}, {"Internal": 0, "id": 17, "label": "PIONIER"}, {"Internal": 0, "id": 18, "label": "NIX"}, {"Internal": 0, "id": 19, "label": "CESNET"}, {"Internal": 0, "id": 20, "label": "GEANT"}, {"Internal": 0, "id": 21, "label": "SIX"}, {"Internal": 0, "id": 22, "label": "GTS"}, {"Internal": 1, "Latitude": 48.33333, "Country": "Slovakia", "type": "Repeater", "id": 23, "Longitude": 19.66667, "label": "Lucenec"}, {"Internal": 1, "Latitude": 48.38333, "Country": "Slovakia", "type": "Repeater", "id": 24, "Longitude": 20.03333, "label": "R.Sobota"}, {"Internal": 1, "Latitude": 48.75, "Country": "Slovakia", "type": "PoP", "id": 25, "Longitude": 21.93333, "label": "Michalovca"}, {"Internal": 1, "Latitude": 48.93333, "Country": "Slovakia", "type": "PoP", "id": 26, "Longitude": 21.91667, "label": "Humenne"}, {"Internal": 1, "Latitude": 49.0, "Country": "Slovakia", "type": "PoP", "id": 27, "Longitude": 21.25, "label": "Presov"}, {"Internal": 1, "Latitude": 49.05, "Country": "Slovakia", "type": "PoP", "id": 28, "Longitude": 20.3, "label": "Poprad"}, {"Internal": 1, "Latitude": 48.95, "Country": "Slovakia", "type": "Repeater", "id": 29, "Longitude": 20.56667, "label": "Spisska Nova Ves"}, {"Internal": 1, "Latitude": 48.66667, "Country": "Slovakia", "type": "PoP", "id": 30, "Longitude": 20.53333, "label": "Roznava"}, {"Internal": 1, "Latitude": 48.71667, "Country": "Slovakia", "type": "PoP", "id": 31, "Longitude": 21.25, "label": "Kosice"}, {"Internal": 1, "Latitude": 48.63333, "Country": "Slovakia", "type": "PoP", "id": 32, "Longitude": 21.71667, "label": "Trebisov"}, {"Internal": 1, "Latitude": 48.6, "Country": "Slovakia", "type": "PoP", "id": 33, "Longitude": 17.83333, "label": "Piestany"}, {"Internal": 1, "Latitude": 48.75763, "Country": "Slovakia", "type": "PoP", "id": 34, "Longitude": 17.8309, "label": "Nove Mesto n. Vahom"}, {"Internal": 1, "Latitude": 49.81667, "Country": "Poland", "type": "PoP", "id": 35, "Longitude": 19.03333, "label": "Bielsko-Biala"}, {"Internal": 1, "Latitude": 49.19522, "Country": "Czech Republic", "type": "PoP", "id": 36, "Longitude": 16.60796, "label": "Brno"}, {"Internal": 1, "Latitude": 48.20849, "Country": "Austria", "type": "PoP", "id": 37, "Longitude": 16.37208, "label": "Vieden"}, {"Internal": 1, "Latitude": 48.14816, "Country": "Slovakia", "type": "PoP", "id": 38, "Longitude": 17.10674, "label": "Bratislava"}, {"Internal": 1, "Latitude": 48.36667, "Country": "Slovakia", "type": "PoP", "id": 39, "Longitude": 17.6, "label": "Trnava"}, {"Internal": 1, "Latitude": 47.76356, "Country": "Slovakia", "type": "PoP", "id": 40, "Longitude": 18.12263, "label": "Komarno"}, {"Internal": 1, "Latitude": 47.86984, "Country": "Slovakia", "type": "PoP", "id": 41, "Longitude": 18.19233, "label": "Hurbanovo"}, {"Internal": 1, "Latitude": 48.30763, "Country": "Slovakia", "type": "PoP", "id": 42, "Longitude": 18.08453, "label": "Nitra"}], "links": [{"LinkSpeed": "10", "source": 0, "LinkLabel": "10Gbps", "target": 16, "LinkSpeedUnits": "G", "LinkSpeedRaw": 10000000000.0}, {"LinkSpeed": "10", "source": 0, "LinkLabel": "10Gbps", "target": 3, "LinkSpeedUnits": "G", "LinkSpeedRaw": 10000000000.0}, {"LinkSpeed": "10", "source": 0, "LinkLabel": "10Gbps", "target": 4, "LinkSpeedUnits": "G", "LinkSpeedRaw": 10000000000.0}, {"LinkSpeed": "10", "source": 1, "LinkLabel": "10Gbps", "target": 12, "LinkSpeedUnits": "G", "LinkSpeedRaw": 10000000000.0}, {"LinkSpeed": "10", "source": 1, "LinkLabel": "10Gbps", "target": 6, "LinkSpeedUnits": "G", "LinkSpeedRaw": 10000000000.0}, {"LinkSpeed": "10", "source": 2, "LinkLabel": "10Gbps", "target": 34, "LinkSpeedUnits": "G", "LinkSpeedRaw": 10000000000.0}, {"LinkSpeed": "10", "source": 2, "LinkLabel": "10Gbps", "target": 3, "LinkSpeedUnits": "G", "LinkSpeedRaw": 10000000000.0}, {"LinkSpeed": "10", "source": 4, "LinkLabel": "10Gbps", "target": 5, "LinkSpeedUnits": "G", "LinkSpeedRaw": 10000000000.0}, {"LinkSpeed": "10", "source": 5, "LinkLabel": "10Gbps", "target": 8, "LinkSpeedUnits": "G", "LinkSpeedRaw": 10000000000.0}, {"LinkSpeed": "10", "source": 5, "LinkLabel": "10Gbps", "target": 7, "LinkSpeedUnits": "G", "LinkSpeedRaw": 10000000000.0}, {"LinkSpeed": "10", "source": 6, "LinkLabel": "10Gbps", "target": 7, "LinkSpeedUnits": "G", "LinkSpeedRaw": 10000000000.0}, {"LinkSpeed": "10", "source": 6, "LinkLabel": "10Gbps", "target": 13, "LinkSpeedUnits": "G", "LinkSpeedRaw": 10000000000.0}, {"LinkSpeed": "10", "source": 6, "LinkLabel": "10Gbps", "target": 23, "LinkSpeedUnits": "G", "LinkSpeedRaw": 10000000000.0}, {"LinkSpeed": "10", "source": 8, "LinkLabel": "10Gbps", "target": 28, "LinkSpeedUnits": "G", "LinkSpeedRaw": 10000000000.0}, {"LinkSpeed": "100", "source": 9, "LinkLabel": "100Mbps", "target": 28, "LinkSpeedUnits": "M", "LinkSpeedRaw": 100000000.0}, {"LinkSpeed": "10", "source": 10, "LinkLabel": "10Gbps", "target": 37, "LinkSpeedUnits": "G", "LinkSpeedRaw": 10000000000.0}, {"LinkSpeed": "10", "source": 11, "LinkLabel": "10Gbps", "target": 37, "LinkSpeedUnits": "G", "LinkSpeedRaw": 10000000000.0}, {"LinkSpeed": "10", "source": 12, "LinkLabel": "10Gbps", "target": 42, "LinkSpeedUnits": "G", "LinkSpeedRaw": 10000000000.0}, {"LinkSpeed": "10", "source": 13, "LinkLabel": "10Gbps", "target": 14, "LinkSpeedUnits": "G", "LinkSpeedRaw": 10000000000.0}, {"LinkSpeed": "10", "source": 14, "LinkLabel": "10Gbps", "target": 15, "LinkSpeedUnits": "G", "LinkSpeedRaw": 10000000000.0}, {"LinkSpeed": "10", "source": 15, "LinkLabel": "10Gbps", "target": 38, "LinkSpeedUnits": "G", "LinkSpeedRaw": 10000000000.0}, {"LinkSpeed": "10", "source": 16, "LinkLabel": "10Gbps", "target": 17, "LinkSpeedUnits": "G", "LinkSpeedRaw": 10000000000.0}, {"LinkSpeed": "10", "source": 16, "LinkLabel": "10Gbps", "target": 35, "LinkSpeedUnits": "G", "LinkSpeedRaw": 10000000000.0}, {"LinkSpeed": "10", "source": 18, "LinkLabel": "10Gbps", "target": 36, "LinkSpeedUnits": "G", "LinkSpeedRaw": 10000000000.0}, {"LinkSpeed": "10", "source": 19, "LinkLabel": "10Gbps", "target": 36, "LinkSpeedUnits": "G", "LinkSpeedRaw": 10000000000.0}, {"LinkSpeed": "1", "source": 20, "LinkLabel": "1Gbps", "target": 38, "LinkSpeedUnits": "G", "LinkSpeedRaw": 1000000000.0}, {"LinkSpeed": "10", "source": 21, "LinkLabel": "10Gbps", "target": 38, "LinkSpeedUnits": "G", "LinkSpeedRaw": 10000000000.0}, {"LinkSpeed": "10", "source": 22, "LinkLabel": "10Gbps", "target": 38, "LinkSpeedUnits": "G", "LinkSpeedRaw": 10000000000.0}, {"LinkSpeed": "10", "source": 23, "LinkLabel": "10Gbps", "target": 24, "LinkSpeedUnits": "G", "LinkSpeedRaw": 10000000000.0}, {"LinkSpeed": "10", "source": 24, "LinkLabel": "10Gbps", "target": 30, "LinkSpeedUnits": "G", "LinkSpeedRaw": 10000000000.0}, {"LinkSpeed": "10", "source": 25, "LinkLabel": "10Gbps", "target": 32, "LinkSpeedUnits": "G", "LinkSpeedRaw": 10000000000.0}, {"LinkSpeed": "10", "source": 25, "LinkLabel": "10Gbps", "target": 26, "LinkSpeedUnits": "G", "LinkSpeedRaw": 10000000000.0}, {"LinkSpeed": "10", "source": 27, "LinkLabel": "10Gbps", "target": 29, "LinkSpeedUnits": "G", "LinkSpeedRaw": 10000000000.0}, {"LinkSpeed": "10", "source": 27, "LinkLabel": "10Gbps", "target": 31, "LinkSpeedUnits": "G", "LinkSpeedRaw": 10000000000.0}, {"LinkSpeed": "10", "source": 28, "LinkLabel": "10Gbps", "target": 29, "LinkSpeedUnits": "G", "LinkSpeedRaw": 10000000000.0}, {"LinkSpeed": "10", "source": 30, "LinkLabel": "10Gbps", "target": 31, "LinkSpeedUnits": "G", "LinkSpeedRaw": 10000000000.0}, {"LinkSpeed": "10", "source": 31, "LinkLabel": "10Gbps", "target": 32, "LinkSpeedUnits": "G", "LinkSpeedRaw": 10000000000.0}, {"LinkSpeed": "10", "source": 33, "LinkLabel": "10Gbps", "target": 34, "LinkSpeedUnits": "G", "LinkSpeedRaw": 10000000000.0}, {"LinkSpeed": "10", "source": 33, "LinkLabel": "10Gbps", "target": 39, "LinkSpeedUnits": "G", "LinkSpeedRaw": 10000000000.0}, {"LinkSpeed": "10", "source": 36, "LinkLabel": "10Gbps", "target": 38, "LinkSpeedUnits": "G", "LinkSpeedRaw": 10000000000.0}, {"LinkSpeed": "10", "source": 37, "LinkLabel": "10Gbps", "target": 38, "LinkSpeedUnits": "G", "LinkSpeedRaw": 10000000000.0}, {"LinkSpeed": "10", "source": 38, "LinkLabel": "10Gbps", "target": 39, "LinkSpeedUnits": "G", "LinkSpeedRaw": 10000000000.0}, {"LinkSpeed": "10", "source": 39, "LinkLabel": "10Gbps", "target": 42, "LinkSpeedUnits": "G", "LinkSpeedRaw": 10000000000.0}, {"LinkSpeed": "10", "source": 40, "LinkLabel": "10Gbps", "target": 41, "LinkSpeedUnits": "G", "LinkSpeedRaw": 10000000000.0}, {"LinkSpeed": "10", "source": 41, "LinkLabel": "10Gbps", "target": 42, "LinkSpeedUnits": "G", "LinkSpeedRaw": 10000000000.0}], "multigraph": true}