{"directed": false, "graph": [["DateObtained", "18/10/10"], ["GeoLocation", "Wisconsin, USA"], ["GeoExtent", "Region"], ["DateModifier", "="], ["Customer", 0], ["Network", "SpiraLight"], ["IX", 0], ["Provenance", "Primary"], ["Access", 0], ["Source", "http://www.spiralightnetwork.com/maps.html"], ["Version", "1.0"], ["DateMonth", "08"], ["DateYear", "2010"], ["DateType", "Current"], ["LastAccess", "3/08/10"], ["Layer", "Fibre"], ["Creator", "Topology Zoo Toolset"], ["Type", "COM"], ["SourceGitVersion", "e278b1b"], ["Backbone", 1], ["Commercial", 0], ["NetworkDate", "2010_08"], ["label", "Spiralight"], ["LastProcessed", "2011_09_01"], ["Testbed", 0], ["Developed", 1], ["ToolsetVersion", "0.3.34dev-20120328"], ["Transit", 0]], "nodes": [{"Internal": 1, "Latitude": 43.0389, "Country": "United States", "id": 0, "Longitude": -87.90647, "label": "Milwaukee"}, {"Internal": 1, "Latitude": 42.27113, "Country": "United States", "id": 1, "Longitude": -89.094, "label": "Rockford"}, {"Internal": 1, "Latitude": 42.68279, "Country": "United States", "id": 2, "Longitude": -89.01872, "label": "Janesville"}, {"Internal": 1, "Latitude": 43.01168, "Country": "United States", "id": 3, "Longitude": -88.23148, "label": "Waukesha"}, {"Internal": 1, "Latitude": 42.58613, "Country": "United States", "id": 4, "Longitude": -87.8248, "label": "Chicago"}, {"Internal": 1, "Latitude": 43.07305, "Country": "United States", "id": 5, "Longitude": -89.40123, "label": "Madison"}, {"Internal": 1, "Latitude": 43.92247, "Country": "United States", "id": 6, "Longitude": -90.27152, "label": "Camp Douglas"}, {"Internal": 1, "Latitude": 44.97997, "Country": "United States", "id": 7, "Longitude": -93.26384, "label": "Minneaopolis"}, {"Internal": 1, "Latitude": 44.81135, "Country": "United States", "id": 8, "Longitude": -91.49849, "label": "Eau Claire"}, {"Internal": 1, "Latitude": 44.95914, "Country": "United States", "id": 9, "Longitude": -89.63012, "label": "Wausau"}, {"Internal": 1, "Latitude": 44.51916, "Country": "United States", "id": 10, "Longitude": -88.01983, "label": "Green Bay"}, {"Internal": 1, "Latitude": 44.26193, "Country": "United States", "id": 11, "Longitude": -88.41538, "label": "Appleton"}, {"Internal": 1, "Latitude": 44.02471, "Country": "United States", "id": 12, "Longitude": -88.54261, "label": "Oshkosh"}, {"Internal": 1, "Latitude": 43.775, "Country": "United States", "id": 13, "Longitude": -88.43883, "label": "Fon Du Lac"}, {"Internal": 1, "Latitude": 43.45777, "Country": "United States", "id": 14, "Longitude": -88.83733, "label": "Beaver Dam"}], "links": [{"source": 0, "id": "e13", "target": 3}, {"source": 0, "id": "e14", "target": 4}, {"source": 1, "id": "e12", "target": 2}, {"source": 1, "id": "e15", "target": 4}, {"source": 2, "id": "e10", "target": 5}, {"source": 3, "id": "e11", "target": 5}, {"source": 5, "id": "e8", "target": 14}, {"source": 5, "id": "e9", "target": 6}, {"source": 6, "id": "e2", "target": 8}, {"source": 7, "id": "e0", "target": 8}, {"source": 7, "id": "e1", "target": 9}, {"source": 9, "id": "e3", "target": 10}, {"source": 10, "id": "e4", "target": 11}, {"source": 11, "id": "e5", "target": 12}, {"source": 12, "id": "e6", "target": 13}, {"source": 13, "id": "e7", "target": 14}], "multigraph": true}