{"directed": false, "graph": [["DateObtained", "14/01/11"], ["GeoLocation", "USA"], ["GeoExtent", "Country"], ["DateModifier", "="], ["Customer", 1], ["Network", "Sprint"], ["IX", 0], ["Provenance", "Secondary"], ["Access", 1], ["Source", "http://www.nthelp.com/images/sprint.jpg"], ["Version", "1.0"], ["DateMonth", "01"], ["DateYear", "2011"], ["DateType", "Current"], ["LastAccess", "14/01/11"], ["Layer", "IP"], ["Creator", "Topology Zoo Toolset"], ["Type", "COM"], ["SourceGitVersion", "e278b1b"], ["Backbone", 1], ["Commercial", 0], ["NetworkDate", "2011_01"], ["label", "Sprint"], ["LastProcessed", "2011_09_01"], ["Testbed", 0], ["Developed", 1], ["ToolsetVersion", "0.3.34dev-20120328"], ["Transit", 0]], "nodes": [{"Internal": 1, "Latitude": 41.13998, "Country": "United States", "id": 0, "Longitude": -104.82025, "label": "Cheyenne"}, {"Internal": 1, "Latitude": 33.749, "Country": "United States", "id": 1, "Longitude": -84.38798, "label": "Atlanta"}, {"Internal": 1, "Latitude": 40.01499, "Country": "United States", "id": 2, "Longitude": -105.27055, "label": "Boulder"}, {"Internal": 1, "Latitude": 47.60621, "Country": "United States", "id": 3, "Longitude": -122.33207, "label": "Seattle"}, {"Internal": 1, "Latitude": 37.9577, "Country": "United States", "id": 4, "Longitude": -121.29078, "label": "Stockton"}, {"Internal": 1, "Latitude": 33.83529, "Country": "United States", "id": 5, "Longitude": -117.9145, "label": "Anaheim"}, {"Internal": 1, "Latitude": 32.72541, "Country": "United States", "id": 6, "Longitude": -97.32085, "label": "Fort Worth"}, {"Internal": 1, "Latitude": 39.11417, "Country": "United States", "id": 7, "Longitude": -94.62746, "label": "Kansas City"}, {"Internal": 1, "Latitude": 41.85003, "Country": "United States", "id": 8, "Longitude": -87.65005, "label": "Chicago"}, {"Internal": 1, "Latitude": 40.71427, "Country": "United States", "id": 9, "Longitude": -74.00597, "label": "New York (Pennsauken)"}, {"Internal": 1, "Latitude": 38.89511, "Country": "United States", "id": 10, "Longitude": -77.03637, "label": "Washington, DC"}], "links": [{"LinkType": "DS-3", "source": 0, "LinkLabel": "45 Mbps DS-3", "LinkNote": "45 Mbps ", "target": 2}, {"LinkType": "DS-3", "source": 0, "LinkLabel": "45 Mbps DS-3", "LinkNote": "45 Mbps ", "target": 4}, {"LinkType": "DS-3", "source": 0, "LinkLabel": "45 Mbps DS-3", "LinkNote": "45 Mbps ", "target": 7}, {"LinkType": "DS-3", "source": 1, "LinkLabel": "45 Mbps DS-3", "LinkNote": "45 Mbps ", "target": 10}, {"LinkType": "DS-3", "source": 1, "LinkLabel": "45 Mbps DS-3", "LinkNote": "45 Mbps ", "target": 6}, {"LinkType": "DS-3", "source": 3, "LinkLabel": "45 Mbps DS-3", "LinkNote": "45 Mbps ", "target": 8}, {"LinkType": "DS-3", "source": 3, "LinkLabel": "45 Mbps DS-3", "LinkNote": "45 Mbps ", "target": 4}, {"LinkType": "DS-3", "source": 4, "LinkLabel": "45 Mbps DS-3", "LinkNote": "45 Mbps ", "target": 5}, {"LinkType": "DS-3", "source": 4, "LinkLabel": "45 Mbps DS-3", "LinkNote": "45 Mbps ", "target": 8}, {"LinkType": "DS-3", "source": 4, "LinkLabel": "45 Mbps DS-3", "LinkNote": "45 Mbps ", "target": 9}, {"LinkType": "DS-3", "source": 4, "LinkLabel": "45 Mbps DS-3", "LinkNote": "45 Mbps ", "target": 10}, {"LinkType": "DS-3", "source": 5, "LinkLabel": "45 Mbps DS-3", "LinkNote": "45 Mbps ", "target": 6}, {"LinkType": "DS-3", "source": 6, "LinkLabel": "45 Mbps DS-3", "LinkNote": "45 Mbps ", "target": 10}, {"LinkType": "DS-3", "source": 6, "LinkLabel": "45 Mbps DS-3", "LinkNote": "45 Mbps ", "target": 7}, {"LinkType": "DS-3", "source": 7, "LinkLabel": "45 Mbps DS-3", "LinkNote": "45 Mbps ", "target": 8}, {"LinkType": "DS-3", "source": 7, "LinkLabel": "45 Mbps DS-3", "LinkNote": "45 Mbps ", "target": 10}, {"LinkType": "DS-3", "source": 8, "LinkLabel": "45 Mbps DS-3", "LinkNote": "45 Mbps ", "target": 9}, {"LinkType": "DS-3", "source": 9, "LinkLabel": "45 Mbps DS-3", "LinkNote": "45 Mbps ", "target": 10}], "multigraph": true}