{"directed": false, "graph": [["DateObtained", "19/10/10"], ["GeoLocation", "Idaho, USA"], ["GeoExtent", "Region"], ["DateModifier", "="], ["Customer", 1], ["Network", "Syringa Networks"], ["IX", 0], ["Provenance", "Primary"], ["Note", "Tipanuk location not found, approximated to Mountain Home."], ["Source", "http://www.syringanetworks.net/OurNetworks/NetworkMap.html"], ["Version", "1.0"], ["DateMonth", "08"], ["DateYear", "2010"], ["DateType", "Current"], ["LastAccess", "3/08/10"], ["Access", 0], ["Layer", "Fibre"], ["Creator", "Topology Zoo Toolset"], ["Type", "COM"], ["SourceGitVersion", "e278b1b"], ["Backbone", 1], ["Commercial", 0], ["NetworkDate", "2010_08"], ["label", "Syringa"], ["LastProcessed", "2011_09_01"], ["Testbed", 0], ["Developed", 1], ["ToolsetVersion", "0.3.34dev-20120328"], ["Transit", 0]], "nodes": [{"Internal": 1, "Latitude": 43.61211, "Country": "United States", "type": "Access POP", "id": 0, "Longitude": -116.39151, "label": "Meridian"}, {"Internal": 1, "Latitude": 43.8735, "Country": "United States", "type": "Access POP", "id": 1, "Longitude": -116.4993, "label": "Emmett"}, {"Internal": 1, "Latitude": 43.66294, "Country": "United States", "type": "Access POP", "id": 2, "Longitude": -116.68736, "label": "Caldwell"}, {"Internal": 1, "Latitude": 43.54072, "Country": "United States", "type": "Access POP", "id": 3, "Longitude": -116.56346, "label": "Nampa"}, {"Internal": 1, "Latitude": 43.13295, "Country": "United States", "type": "Access POP", "id": 4, "Longitude": -115.6912, "label": "Tipanuk"}, {"Internal": 1, "Latitude": 43.13295, "Country": "United States", "type": "Access POP", "id": 5, "Longitude": -115.6912, "label": "Mountain Home"}, {"Internal": 1, "Latitude": 43.68916, "Country": "United States", "type": "Access POP", "id": 6, "Longitude": -116.27071, "label": "Hidden Springs"}, {"Internal": 1, "Latitude": 43.6135, "Country": "United States", "type": "Central Office", "id": 7, "Longitude": -116.20345, "label": "Boise"}, {"Internal": 1, "Latitude": 42.57325, "Country": "United States", "type": "Access POP", "id": 8, "Longitude": -112.87721, "label": "Rockland"}, {"Internal": 1, "Latitude": 42.45575, "Country": "United States", "type": "Access POP", "id": 9, "Longitude": -112.56831, "label": "Arbon"}, {"Internal": 1, "Latitude": 43.34657, "Country": "United States", "type": "Access POP", "id": 10, "Longitude": -114.79173, "label": "Fairfield"}, {"Internal": 1, "Latitude": 43.30768, "Country": "United States", "type": "Access POP", "id": 11, "Longitude": -113.94475, "label": "Carey"}, {"Internal": 1, "Latitude": 42.41269, "Country": "United States", "type": "Access POP", "id": 12, "Longitude": -113.57806, "label": "Albion"}, {"Internal": 1, "Latitude": 42.3063, "Country": "United States", "type": "Access POP", "id": 13, "Longitude": -113.36917, "label": "Malta"}, {"Internal": 1, "Latitude": 42.61908, "Country": "United States", "type": "Access POP", "id": 14, "Longitude": -113.67723, "label": "Rupert"}, {"Internal": 1, "Latitude": 42.53574, "Country": "United States", "type": "Access POP", "id": 15, "Longitude": -113.79279, "label": "Burley"}, {"Internal": 1, "Latitude": 43.31242, "Country": "United States", "type": "Access POP", "id": 16, "Longitude": -111.79524, "label": "Bone"}, {"Internal": 1, "Latitude": 43.5263, "Country": "United States", "type": "Access POP", "id": 17, "Longitude": -111.93302, "label": "Iona"}, {"Internal": 1, "Latitude": 44.07158, "Country": "United States", "type": "Access POP", "id": 18, "Longitude": -111.44829, "label": "Ashton"}, {"Internal": 1, "Latitude": 43.81447, "Country": "United States", "type": "Access POP", "id": 19, "Longitude": -111.1602, "label": "Tetonia"}, {"Internal": 1, "Latitude": 43.72325, "Country": "United States", "type": "Access POP", "id": 20, "Longitude": -111.11133, "label": "Driggs"}, {"Internal": 1, "Latitude": 43.6027, "Country": "United States", "type": "Access POP", "id": 21, "Longitude": -111.11133, "label": "Victor"}, {"Internal": 1, "Latitude": 43.47993, "Country": "United States", "type": "Access POP", "id": 22, "Longitude": -110.76243, "label": "Jackson"}, {"Internal": 1, "Latitude": 42.9827, "Country": "United States", "type": "Access POP", "id": 23, "Longitude": -111.04382, "label": "Freedom"}, {"Internal": 1, "Latitude": 42.72493, "Country": "United States", "type": "Access POP", "id": 24, "Longitude": -110.93187, "label": "Afton"}, {"Internal": 1, "Latitude": 42.90686, "Country": "United States", "type": "Access POP", "id": 25, "Longitude": -111.53078, "label": "Henry"}, {"Internal": 1, "Latitude": 42.93879, "Country": "United States", "type": "Access POP", "id": 26, "Longitude": -114.71311, "label": "Gooding"}, {"Internal": 1, "Latitude": 43.51963, "Country": "United States", "type": "Central Office", "id": 27, "Longitude": -114.31532, "label": "Hailey"}, {"Internal": 0, "id": 28, "label": "Coeur D'Alene"}, {"Internal": 1, "Latitude": 42.8713, "Country": "United States", "type": "POP", "id": 29, "Longitude": -112.44553, "label": "Pocatello"}, {"Internal": 1, "Latitude": 43.19047, "Country": "United States", "type": "Access POP", "id": 30, "Longitude": -112.34498, "label": "Blackfoot"}, {"Internal": 1, "Latitude": 42.59713, "Country": "United States", "type": "Access POP", "id": 31, "Longitude": -113.23611, "label": "Raft River"}, {"hyperedge": 1, "Internal": 1, "id": 32, "label": "None"}, {"Internal": 1, "Latitude": 42.56297, "Country": "United States", "type": "POP", "id": 33, "Longitude": -114.46087, "label": "Twin Falls"}, {"Internal": 1, "Latitude": 42.65437, "Country": "United States", "type": "Access POP", "id": 34, "Longitude": -111.60467, "label": "Soda Springs"}, {"Internal": 1, "Latitude": 42.22715, "Country": "United States", "type": "Access POP", "id": 35, "Longitude": -111.40104, "label": "Paris"}, {"Internal": 1, "Latitude": 42.61936, "Country": "United States", "type": "Access POP", "id": 36, "Longitude": -112.01107, "label": "Lava Hot Springs"}, {"Internal": 1, "Latitude": 42.42853, "Country": "United States", "type": "Access POP", "id": 37, "Longitude": -112.12441, "label": "Downey"}, {"Internal": 1, "Latitude": 42.19159, "Country": "United States", "type": "Access POP", "id": 38, "Longitude": -112.2508, "label": "Malad City"}, {"Internal": 1, "Latitude": 42.65047, "Country": "United States", "type": "Access POP", "id": 39, "Longitude": -112.19302, "label": "McCammon"}, {"Internal": 1, "Latitude": 42.93879, "Country": "United States", "type": "Access POP", "id": 40, "Longitude": -114.71311, "label": "Gooding"}, {"Internal": 1, "Latitude": 43.46658, "Country": "United States", "type": "Central Office", "id": 41, "Longitude": -112.03414, "label": "Idaho Falls"}, {"Internal": 0, "id": 42, "label": "Cheyenne"}, {"Internal": 1, "Latitude": 42.9549, "Country": "United States", "type": "Access POP", "id": 43, "Longitude": -115.3009, "label": "Glenn's Ferry"}, {"Internal": 1, "Latitude": 41.98324, "Country": "United States", "type": "Access POP", "id": 44, "Longitude": -114.67476, "label": "Jack Pot"}, {"Internal": 0, "id": 45, "label": "Salt Lake City"}, {"Internal": 1, "Latitude": 42.24325, "Country": "United States", "type": "Access POP", "id": 46, "Longitude": -113.88196, "label": "Oakley"}, {"Internal": 1, "Latitude": 42.81212, "Country": "United States", "type": "Access POP", "id": 47, "Longitude": -114.89867, "label": "Hagerman"}, {"Internal": 1, "Latitude": 42.78602, "Country": "United States", "type": "POP", "id": 48, "Longitude": -112.85444, "label": "American Falls"}, {"Internal": 1, "Latitude": 43.9663, "Country": "United States", "type": "Access POP", "id": 49, "Longitude": -111.68218, "label": "St Anthony"}, {"Internal": 1, "Latitude": 44.1763, "Country": "United States", "type": "Access POP", "id": 50, "Longitude": -112.23082, "label": "Dubois"}, {"hyperedge": 1, "Internal": 1, "id": 51, "label": "None"}, {"Internal": 1, "Latitude": 44.50464, "Country": "United States", "type": "Access POP", "id": 52, "Longitude": -114.23173, "label": "Challis"}, {"Internal": 1, "Latitude": 44.21742, "Country": "United States", "type": "Access POP", "id": 53, "Longitude": -114.93858, "label": "Stanley"}, {"Internal": 1, "Latitude": 43.8713, "Country": "United States", "type": "Access POP", "id": 54, "Longitude": -114.65729, "label": "Galena"}, {"Internal": 0, "id": 55, "label": "Missoula"}, {"Internal": 1, "Latitude": 43.84157, "Country": "United States", "type": "Access POP", "id": 56, "Longitude": -112.43637, "label": "Terreton"}, {"Internal": 1, "Latitude": 43.78352, "Country": "United States", "type": "Access POP", "id": 57, "Longitude": -113.00472, "label": "Howe"}, {"Internal": 1, "Latitude": 43.63657, "Country": "United States", "type": "POP", "id": 58, "Longitude": -113.30028, "label": "Arco"}, {"Internal": 1, "Latitude": 43.91463, "Country": "United States", "type": "Access POP", "id": 59, "Longitude": -113.61336, "label": "Mackay"}, {"Internal": 0, "id": 60, "label": "Halfway"}, {"Internal": 1, "Latitude": 42.57019, "Country": "United States", "type": "Access POP", "id": 61, "Longitude": -114.60782, "label": "Filer"}, {"Internal": 0, "id": 62, "label": "Spokane"}, {"Internal": 1, "Latitude": 42.09631, "Country": "United States", "type": "Access POP", "id": 63, "Longitude": -111.87662, "label": "Preston"}, {"Internal": 1, "Latitude": 44.07822, "Country": "United States", "type": "Access POP", "id": 64, "Longitude": -116.93377, "label": "Payette"}, {"Internal": 1, "Latitude": 44.00766, "Country": "United States", "type": "Access POP", "id": 65, "Longitude": -116.91655, "label": "Fruitland"}, {"Internal": 1, "Latitude": 45.17575, "Country": "United States", "type": "Access POP", "id": 66, "Longitude": -113.8959, "label": "Salmon"}, {"Internal": 1, "Latitude": 44.72989, "Country": "United States", "type": "Access POP", "id": 67, "Longitude": -116.4382, "label": "Council"}, {"Internal": 1, "Latitude": 44.91101, "Country": "United States", "type": "Access POP", "id": 68, "Longitude": -116.09874, "label": "McCall"}, {"Internal": 1, "Latitude": 44.57266, "Country": "United States", "type": "Access POP", "id": 69, "Longitude": -116.67599, "label": "Cambridge"}, {"Internal": 1, "Latitude": 44.62878, "Country": "United States", "type": "Access POP", "id": 70, "Longitude": -116.4507, "label": "Mesa"}, {"Internal": 1, "Latitude": 44.55711, "Country": "United States", "type": "Access POP", "id": 71, "Longitude": -116.43403, "label": "Indian Valley"}, {"Internal": 1, "Latitude": 44.47127, "Country": "United States", "type": "Access POP", "id": 72, "Longitude": -116.73461, "label": "Midvale"}, {"Internal": 1, "Latitude": 44.251, "Country": "United States", "type": "Access POP", "id": 73, "Longitude": -116.96933, "label": "Weiser"}], "links": [{"source": 0, "id": "e13", "target": 3}, {"source": 0, "id": "e14", "target": 7}, {"source": 1, "id": "e15", "target": 6}, {"source": 1, "id": "e7", "target": 71}, {"source": 2, "id": "e11", "target": 65}, {"source": 2, "id": "e12", "target": 3}, {"source": 4, "id": "e23", "target": 10}, {"source": 4, "id": "e21", "target": 7}, {"source": 5, "id": "e24", "target": 43}, {"source": 5, "id": "e22", "target": 7}, {"source": 7, "id": "e19", "target": 42}, {"source": 7, "id": "e20", "target": 45}, {"source": 7, "id": "e16", "target": 55}, {"source": 7, "id": "e17", "target": 28}, {"source": 7, "id": "e18", "target": 62}, {"source": 8, "id": "e62", "target": 48}, {"source": 8, "id": "e63", "target": 9}, {"source": 9, "id": "e64", "target": 29}, {"source": 9, "id": "e65", "target": 38}, {"source": 10, "id": "e25", "target": 51}, {"source": 11, "id": "e26", "target": 51}, {"source": 12, "id": "e59", "target": 13}, {"source": 12, "id": "e58", "target": 14}, {"source": 13, "id": "e60", "target": 31}, {"source": 14, "id": "e57", "target": 15}, {"source": 15, "id": "e55", "target": 33}, {"source": 15, "id": "e54", "target": 46}, {"source": 16, "id": "e47", "target": 17}, {"source": 16, "id": "e46", "target": 25}, {"source": 17, "id": "e48", "target": 41}, {"source": 17, "id": "e41", "target": 21}, {"source": 18, "id": "e38", "target": 49}, {"source": 19, "id": "e39", "target": 20}, {"source": 20, "id": "e40", "target": 21}, {"source": 22, "id": "e42", "target": 23}, {"source": 23, "id": "e43", "target": 24}, {"source": 23, "id": "e44", "target": 25}, {"source": 25, "id": "e45", "target": 34}, {"source": 26, "id": "e56", "target": 33}, {"source": 27, "id": "e27", "target": 51}, {"source": 27, "id": "e28", "target": 54}, {"source": 29, "id": "e66", "target": 30}, {"source": 29, "id": "e67", "target": 39}, {"source": 31, "id": "e61", "target": 48}, {"source": 32, "id": "e71", "target": 36}, {"source": 32, "id": "e69", "target": 37}, {"source": 32, "id": "e73", "target": 63}, {"source": 33, "id": "e49", "target": 40}, {"source": 33, "id": "e52", "target": 61}, {"source": 34, "id": "e72", "target": 35}, {"source": 34, "id": "e70", "target": 36}, {"source": 36, "id": "e68", "target": 39}, {"source": 41, "id": "e37", "target": 49}, {"source": 43, "id": "e50", "target": 47}, {"source": 44, "id": "e51", "target": 61}, {"source": 47, "id": "e53", "target": 61}, {"source": 49, "id": "e36", "target": 50}, {"source": 50, "id": "e35", "target": 56}, {"source": 52, "id": "e0", "target": 66}, {"source": 52, "id": "e31", "target": 59}, {"source": 52, "id": "e30", "target": 53}, {"source": 53, "id": "e29", "target": 54}, {"source": 56, "id": "e34", "target": 57}, {"source": 57, "id": "e33", "target": 58}, {"source": 58, "id": "e32", "target": 59}, {"source": 60, "id": "e3", "target": 69}, {"source": 64, "id": "e10", "target": 65}, {"source": 64, "id": "e9", "target": 73}, {"source": 67, "id": "e1", "target": 68}, {"source": 67, "id": "e2", "target": 70}, {"source": 69, "id": "e5", "target": 72}, {"source": 69, "id": "e4", "target": 70}, {"source": 70, "id": "e6", "target": 71}, {"source": 72, "id": "e8", "target": 73}], "multigraph": true}