{"directed": false, "graph": [["DateObtained", "15/11/10"], ["GeoLocation", "USA"], ["GeoExtent", "Country"], ["DateModifier", "="], ["Customer", 1], ["Network", "TW Telecom"], ["IX", 0], ["Provenance", "Primary"], ["Note", "Can't find San Jose node "], ["Source", "http://www.twtelecom.com/about_us/networks.html"], ["Version", "1.0"], ["DateMonth", "08"], ["DateYear", "2010"], ["Type", "COM"], ["LastAccess", "3/08/10"], ["Access", 0], ["Layer", "IP"], ["Creator", "Topology Zoo Toolset"], ["DateType", "Current"], ["SourceGitVersion", "e278b1b"], ["Backbone", 1], ["Commercial", 0], ["NetworkDate", "2010_08"], ["label", "Tw"], ["LastProcessed", "2011_09_01"], ["Testbed", 0], ["Developed", 1], ["ToolsetVersion", "0.3.34dev-20120328"], ["Transit", 1]], "nodes": [{"Internal": 1, "Latitude": 32.71533, "Country": "United States", "id": 0, "Longitude": -117.15726, "label": "San Diego"}, {"Internal": 1, "Latitude": 33.78779, "Country": "United States", "id": 1, "Longitude": -117.85311, "label": "Orange County"}, {"Internal": 1, "Latitude": 31.75872, "Country": "United States", "id": 2, "Longitude": -106.48693, "label": "El Paso"}, {"Internal": 1, "Latitude": 21.30694, "Country": "United States", "id": 3, "Longitude": -157.85833, "label": "Honolulu"}, {"Internal": 1, "Latitude": 35.28275, "Country": "United States", "id": 4, "Longitude": -120.65962, "label": "San Louis Obispo"}, {"Internal": 1, "Latitude": 37.77493, "Country": "United States", "id": 5, "Longitude": -122.41942, "label": "San Francisco"}, {"Internal": 1, "Latitude": 34.05223, "Country": "United States", "id": 6, "Longitude": -118.24368, "label": "Los Angeles"}, {"Internal": 1, "Latitude": 34.42083, "Country": "United States", "id": 7, "Longitude": -119.69819, "label": "Santa Barbara"}, {"Internal": 1, "Latitude": 40.72816, "Country": "United States", "id": 8, "Longitude": -74.07764, "label": "New Jersey"}, {"Internal": 1, "Latitude": 39.29038, "Country": "United States", "id": 9, "Longitude": -76.61219, "label": "Baltimore"}, {"Internal": 1, "Latitude": 37.80437, "Country": "United States", "id": 10, "Longitude": -122.2708, "label": "Oakland"}, {"Internal": 1, "Latitude": 38.58157, "Country": "United States", "id": 11, "Longitude": -121.4944, "label": "Sacramento"}, {"Internal": 1, "Latitude": 43.15478, "Country": "United States", "id": 12, "Longitude": -77.61556, "label": "Rochester"}, {"Internal": 1, "Latitude": 42.09869, "Country": "United States", "id": 13, "Longitude": -75.91797, "label": "Binghamton"}, {"Internal": 1, "Latitude": 39.75895, "Country": "United States", "id": 14, "Longitude": -84.19161, "label": "Dayton"}, {"Internal": 1, "Latitude": 39.96118, "Country": "United States", "id": 15, "Longitude": -82.99879, "label": "Columbus"}, {"Internal": 1, "Latitude": 33.52066, "Country": "United States", "id": 16, "Longitude": -86.80249, "label": "Birmingham"}, {"Internal": 1, "Latitude": 35.14953, "Country": "United States", "id": 17, "Longitude": -90.04898, "label": "Memphis"}, {"Internal": 1, "Latitude": 30.22409, "Country": "United States", "id": 18, "Longitude": -92.01984, "label": "Lafayette"}, {"Internal": 1, "Latitude": 30.45075, "Country": "United States", "id": 19, "Longitude": -91.15455, "label": "Baton Rouge"}, {"Internal": 1, "Latitude": 29.95465, "Country": "United States", "id": 20, "Longitude": -90.07507, "label": "New Orleans"}, {"Internal": 1, "Latitude": 32.29876, "Country": "United States", "id": 21, "Longitude": -90.18481, "label": "Jackson"}, {"Internal": 1, "Latitude": 30.69436, "Country": "United States", "id": 22, "Longitude": -88.04305, "label": "Mobile"}, {"Internal": 1, "Latitude": 32.36681, "Country": "United States", "id": 23, "Longitude": -86.29997, "label": "Montgomery"}, {"Internal": 1, "Latitude": 39.96118, "Country": "United States", "id": 24, "Longitude": -82.99879, "label": "Columbus"}, {"Internal": 1, "Latitude": 33.749, "Country": "United States", "id": 25, "Longitude": -84.38798, "label": "Atlanta"}, {"Internal": 1, "Latitude": 27.94752, "Country": "United States", "id": 26, "Longitude": -82.45843, "label": "Tampa"}, {"Internal": 1, "Latitude": 38.89511, "Country": "United States", "id": 27, "Longitude": -77.03637, "label": "Washington DC"}, {"Internal": 1, "Latitude": 35.7721, "Country": "United States", "id": 28, "Longitude": -78.63861, "label": "Raleigh"}, {"Internal": 1, "Latitude": 38.62727, "Country": "United States", "id": 29, "Longitude": -90.19789, "label": "St Louis"}, {"Internal": 1, "Latitude": 32.52515, "Country": "United States", "id": 30, "Longitude": -93.75018, "label": "Shreveport"}, {"Internal": 1, "Latitude": 28.53834, "Country": "United States", "id": 31, "Longitude": -81.37924, "label": "Orlando"}, {"Internal": 1, "Latitude": 39.73915, "Country": "United States", "id": 32, "Longitude": -104.9847, "label": "Denver"}, {"Internal": 1, "Latitude": 35.05266, "Country": "United States", "id": 33, "Longitude": -78.87836, "label": "Fayatteville"}, {"Internal": 1, "Latitude": 42.65258, "Country": "United States", "id": 34, "Longitude": -73.75623, "label": "Albany"}, {"Internal": 1, "Latitude": 37.98869, "Country": "United States", "id": 35, "Longitude": -84.47772, "label": "Lexington"}, {"Internal": 1, "Latitude": 39.162, "Country": "United States", "id": 36, "Longitude": -84.45689, "label": "Cincinnati"}, {"Internal": 1, "Latitude": 34.00071, "Country": "United States", "id": 37, "Longitude": -81.03481, "label": "Columnia"}, {"Internal": 1, "Latitude": 36.16589, "Country": "United States", "id": 38, "Longitude": -86.78444, "label": "Nashville"}, {"Internal": 1, "Latitude": 35.04563, "Country": "United States", "id": 39, "Longitude": -85.30968, "label": "Chattanooga"}, {"Internal": 1, "Latitude": 34.85262, "Country": "United States", "id": 40, "Longitude": -82.39401, "label": "Greenville"}, {"Internal": 1, "Latitude": 35.22709, "Country": "United States", "id": 41, "Longitude": -80.84313, "label": "Charlotte"}, {"Internal": 1, "Latitude": 36.07264, "Country": "United States", "id": 42, "Longitude": -79.79198, "label": "Greensboro"}, {"Internal": 1, "Latitude": 39.11417, "Country": "United States", "id": 43, "Longitude": -94.62746, "label": "Kansas City"}, {"Internal": 1, "Latitude": 34.74648, "Country": "United States", "id": 44, "Longitude": -92.28959, "label": "Little Rock"}, {"Internal": 1, "Latitude": 44.97997, "Country": "United States", "id": 45, "Longitude": -93.26384, "label": "Minneapolis"}, {"Internal": 1, "Latitude": 36.15398, "Country": "United States", "id": 46, "Longitude": -95.99278, "label": "Tulsa"}, {"Internal": 1, "Latitude": 41.85003, "Country": "United States", "id": 47, "Longitude": -87.65005, "label": "Chicago"}, {"Internal": 1, "Latitude": 43.0389, "Country": "United States", "id": 48, "Longitude": -87.90647, "label": "Milwauke"}, {"Internal": 1, "Latitude": 38.25424, "Country": "United States", "id": 49, "Longitude": -85.75941, "label": "Louisville"}, {"Internal": 1, "Latitude": 38.34982, "Country": "United States", "id": 50, "Longitude": -81.63262, "label": "Charleston"}, {"Internal": 1, "Latitude": 30.21309, "Country": "United States", "id": 51, "Longitude": -93.2044, "label": "Lake Charles"}, {"Internal": 1, "Latitude": 27.80058, "Country": "United States", "id": 52, "Longitude": -97.39638, "label": "Corpus Christi"}, {"Internal": 1, "Latitude": 30.33218, "Country": "United States", "id": 53, "Longitude": -81.65565, "label": "Jacksonville"}, {"Internal": 1, "Latitude": 32.72541, "Country": "United States", "id": 54, "Longitude": -97.32085, "label": "Fort Worth"}, {"Internal": 1, "Latitude": 36.17497, "Country": "United States", "id": 55, "Longitude": -115.13722, "label": "Las Vegas"}, {"Internal": 1, "Latitude": 35.37329, "Country": "United States", "id": 56, "Longitude": -119.01871, "label": "Bakersfield"}, {"Internal": 1, "Latitude": 36.74773, "Country": "United States", "id": 57, "Longitude": -119.77237, "label": "Fresno"}, {"Internal": 1, "Latitude": 29.76328, "Country": "United States", "id": 58, "Longitude": -95.36327, "label": "Houston"}, {"Internal": 1, "Latitude": 29.42412, "Country": "United States", "id": 59, "Longitude": -98.49363, "label": "San Antonio"}, {"Internal": 1, "Latitude": 30.26715, "Country": "United States", "id": 60, "Longitude": -97.74306, "label": "Austin"}, {"Internal": 1, "Latitude": 32.78306, "Country": "United States", "id": 61, "Longitude": -96.80667, "label": "Dallas"}, {"Internal": 1, "Latitude": 25.77427, "Country": "United States", "id": 62, "Longitude": -80.19366, "label": "Miami"}, {"Internal": 1, "Latitude": 39.76838, "Country": "United States", "id": 63, "Longitude": -86.15804, "label": "Indianapolis"}, {"Internal": 1, "Latitude": 26.12231, "Country": "United States", "id": 64, "Longitude": -80.14338, "label": "Fort Lauderdale"}, {"Internal": 1, "Latitude": 34.94957, "Country": "United States", "id": 65, "Longitude": -81.93205, "label": "Spartanburg"}, {"Internal": 1, "Latitude": 33.44838, "Country": "United States", "id": 66, "Longitude": -112.07404, "label": "Phoenix"}, {"Internal": 1, "Latitude": 32.22174, "Country": "United States", "id": 67, "Longitude": -110.92648, "label": "Tucson"}, {"Internal": 1, "Latitude": 43.6135, "Country": "United States", "id": 68, "Longitude": -116.20345, "label": "Boise"}, {"Internal": 1, "Latitude": 47.65878, "Country": "United States", "id": 69, "Longitude": -117.42605, "label": "Spokane"}, {"Internal": 1, "Latitude": 47.60621, "Country": "United States", "id": 70, "Longitude": -122.33207, "label": "Seattle"}, {"Internal": 1, "Latitude": 45.52345, "Country": "United States", "id": 71, "Longitude": -122.67621, "label": "Portland"}, {"Internal": 1, "Latitude": 40.71427, "Country": "United States", "id": 72, "Longitude": -74.00597, "label": "New York"}, {"Internal": 1, "Latitude": 38.83388, "Country": "United States", "id": 73, "Longitude": -104.82136, "label": "Colorado Springs"}, {"Internal": 1, "Latitude": 35.222, "Country": "United States", "id": 74, "Longitude": -101.8313, "label": "Amarillo"}, {"Internal": 1, "Latitude": 35.08449, "Country": "United States", "id": 75, "Longitude": -106.65114, "label": "Albuquerque"}], "links": [{"source": 0, "id": "e24", "target": 1}, {"source": 0, "id": "e25", "target": 1}, {"source": 0, "id": "e20", "target": 67}, {"source": 1, "id": "e23", "target": 3}, {"source": 1, "id": "e26", "target": 6}, {"source": 2, "id": "e18", "target": 66}, {"source": 2, "id": "e21", "target": 54}, {"source": 3, "id": "e22", "target": 10}, {"source": 4, "id": "e33", "target": 5}, {"source": 5, "id": "e34", "target": 10}, {"source": 5, "id": "e32", "target": 7}, {"source": 6, "id": "e27", "target": 7}, {"source": 6, "id": "e28", "target": 10}, {"source": 6, "id": "e31", "target": 54}, {"source": 6, "id": "e30", "target": 55}, {"source": 6, "id": "e29", "target": 56}, {"source": 8, "id": "e102", "target": 9}, {"source": 9, "id": "e103", "target": 27}, {"source": 9, "id": "e104", "target": 27}, {"source": 10, "id": "e10", "target": 32}, {"source": 10, "id": "e6", "target": 70}, {"source": 10, "id": "e35", "target": 11}, {"source": 10, "id": "e36", "target": 57}, {"source": 11, "id": "e8", "target": 71}, {"source": 12, "id": "e99", "target": 72}, {"source": 12, "id": "e98", "target": 34}, {"source": 12, "id": "e97", "target": 13}, {"source": 12, "id": "e83", "target": 47}, {"source": 14, "id": "e93", "target": 36}, {"source": 14, "id": "e94", "target": 15}, {"source": 15, "id": "e96", "target": 72}, {"source": 15, "id": "e95", "target": 27}, {"source": 15, "id": "e89", "target": 63}, {"source": 16, "id": "e73", "target": 17}, {"source": 16, "id": "e67", "target": 25}, {"source": 17, "id": "e74", "target": 38}, {"source": 17, "id": "e75", "target": 44}, {"source": 17, "id": "e76", "target": 29}, {"source": 17, "id": "e68", "target": 25}, {"source": 17, "id": "e40", "target": 61}, {"source": 18, "id": "e55", "target": 51}, {"source": 18, "id": "e56", "target": 51}, {"source": 18, "id": "e58", "target": 20}, {"source": 19, "id": "e57", "target": 51}, {"source": 20, "id": "e61", "target": 25}, {"source": 20, "id": "e59", "target": 21}, {"source": 20, "id": "e60", "target": 22}, {"source": 22, "id": "e62", "target": 23}, {"source": 23, "id": "e63", "target": 24}, {"source": 24, "id": "e64", "target": 25}, {"source": 25, "id": "e65", "target": 37}, {"source": 25, "id": "e72", "target": 40}, {"source": 25, "id": "e71", "target": 41}, {"source": 25, "id": "e66", "target": 53}, {"source": 25, "id": "e70", "target": 31}, {"source": 25, "id": "e47", "target": 61}, {"source": 25, "id": "e69", "target": 63}, {"source": 26, "id": "e116", "target": 64}, {"source": 26, "id": "e51", "target": 58}, {"source": 26, "id": "e113", "target": 53}, {"source": 26, "id": "e115", "target": 31}, {"source": 27, "id": "e101", "target": 72}, {"source": 27, "id": "e85", "target": 47}, {"source": 27, "id": "e106", "target": 41}, {"source": 27, "id": "e105", "target": 28}, {"source": 28, "id": "e107", "target": 33}, {"source": 28, "id": "e108", "target": 42}, {"source": 29, "id": "e86", "target": 63}, {"source": 30, "id": "e54", "target": 51}, {"source": 31, "id": "e114", "target": 64}, {"source": 32, "id": "e12", "target": 47}, {"source": 32, "id": "e3", "target": 68}, {"source": 32, "id": "e11", "target": 45}, {"source": 32, "id": "e9", "target": 61}, {"source": 33, "id": "e111", "target": 41}, {"source": 34, "id": "e100", "target": 72}, {"source": 35, "id": "e91", "target": 49}, {"source": 35, "id": "e92", "target": 36}, {"source": 36, "id": "e88", "target": 63}, {"source": 37, "id": "e110", "target": 41}, {"source": 38, "id": "e90", "target": 49}, {"source": 40, "id": "e112", "target": 41}, {"source": 41, "id": "e109", "target": 42}, {"source": 41, "id": "e52", "target": 58}, {"source": 41, "id": "e46", "target": 61}, {"source": 43, "id": "e77", "target": 46}, {"source": 43, "id": "e78", "target": 47}, {"source": 44, "id": "e43", "target": 61}, {"source": 45, "id": "e79", "target": 48}, {"source": 45, "id": "e80", "target": 47}, {"source": 46, "id": "e41", "target": 61}, {"source": 47, "id": "e84", "target": 72}, {"source": 47, "id": "e81", "target": 48}, {"source": 47, "id": "e42", "target": 61}, {"source": 47, "id": "e82", "target": 63}, {"source": 49, "id": "e87", "target": 63}, {"source": 51, "id": "e53", "target": 58}, {"source": 54, "id": "e39", "target": 60}, {"source": 54, "id": "e38", "target": 61}, {"source": 55, "id": "e19", "target": 66}, {"source": 55, "id": "e4", "target": 68}, {"source": 56, "id": "e37", "target": 57}, {"source": 58, "id": "e50", "target": 59}, {"source": 58, "id": "e49", "target": 60}, {"source": 58, "id": "e45", "target": 61}, {"source": 59, "id": "e48", "target": 60}, {"source": 60, "id": "e44", "target": 61}, {"source": 61, "id": "e16", "target": 66}, {"source": 61, "id": "e13", "target": 73}, {"source": 62, "id": "e117", "target": 64}, {"source": 66, "id": "e17", "target": 67}, {"source": 66, "id": "e15", "target": 75}, {"source": 68, "id": "e2", "target": 71}, {"source": 68, "id": "e0", "target": 69}, {"source": 68, "id": "e1", "target": 70}, {"source": 69, "id": "e5", "target": 70}, {"source": 70, "id": "e7", "target": 71}, {"source": 73, "id": "e14", "target": 75}], "multigraph": true}