{"directed": false, "graph": [["DateObtained", "20/10/10"], ["GeoLocation", "Ukraine"], ["GeoExtent", "Country"], ["DateModifier", "="], ["Customer", 1], ["Network", "URAN"], ["IX", 0], ["Provenance", "Primary"], ["Access", 0], ["Source", "http://www.uran.net.ua/~eng/frames.htm"], ["Version", "1.0"], ["DateMonth", "10"], ["DateYear", "2010"], ["DateType", "Current"], ["LastAccess", "21/10/10"], ["Layer", "IP"], ["Creator", "Topology Zoo Toolset"], ["Type", "REN"], ["SourceGitVersion", "e278b1b"], ["Backbone", 1], ["Commercial", 0], ["NetworkDate", "2010_10"], ["label", "Uran"], ["LastProcessed", "2011_09_01"], ["Testbed", 0], ["Developed", 0], ["ToolsetVersion", "0.3.34dev-20120328"], ["Transit", 0]], "nodes": [{"Internal": 1, "Latitude": 46.63333, "Country": "Ukraine", "id": 0, "Longitude": 32.6, "label": "Kherson"}, {"Internal": 1, "Latitude": 46.96667, "Country": "Ukraine", "id": 1, "Longitude": 32.0, "label": "Mykolaiv"}, {"Internal": 1, "Latitude": 44.58883, "Country": "Ukraine", "id": 2, "Longitude": 33.5224, "label": "Sevastopol"}, {"Internal": 1, "Latitude": 44.95844, "Country": "Ukraine", "id": 3, "Longitude": 34.10558, "label": "Simferopol"}, {"Internal": 1, "Latitude": 49.23333, "Country": "Ukraine", "id": 4, "Longitude": 28.48333, "label": "Vinnitsa"}, {"Internal": 1, "Latitude": 49.41667, "Country": "Ukraine", "id": 5, "Longitude": 27.0, "label": "Khmelnitsky"}, {"Internal": 1, "Latitude": 46.47747, "Country": "Ukraine", "id": 6, "Longitude": 30.73262, "label": "Odessa"}, {"Internal": 1, "Latitude": 48.66667, "Country": "Ukraine", "id": 7, "Longitude": 26.56667, "label": "Kamianets-Podilsky"}, {"Internal": 0, "id": 8, "label": "Frankfurt (Internet)"}, {"Internal": 0, "id": 9, "label": "Poznan (GEANT & Internet)"}, {"Internal": 1, "Latitude": 49.43333, "Country": "Ukraine", "id": 10, "Longitude": 32.06667, "label": "Cherkassy"}, {"Internal": 0, "id": 11, "label": "Odessa-IX"}, {"Internal": 0, "id": 12, "label": "Kharkiv-IX"}, {"Internal": 0, "id": 13, "label": "UA-IX"}, {"Internal": 1, "Latitude": 47.81667, "Country": "Ukraine", "id": 14, "Longitude": 35.18333, "label": "Zaporizhia"}, {"Internal": 1, "Latitude": 48.45, "Country": "Ukraine", "id": 15, "Longitude": 34.98333, "label": "Dnipropetrovsk"}, {"Internal": 1, "Latitude": 49.83826, "Country": "Ukraine", "id": 16, "Longitude": 24.02324, "label": "Lviv"}, {"Internal": 1, "Latitude": 50.75, "Country": "Ukraine", "id": 17, "Longitude": 25.33333, "label": "Lutsk"}, {"Internal": 1, "Latitude": 50.25, "Country": "Ukraine", "id": 18, "Longitude": 28.66667, "label": "Zhitomir"}, {"Internal": 1, "Latitude": 50.45466, "Country": "Ukraine", "id": 19, "Longitude": 30.5238, "label": "Kiev"}, {"Internal": 1, "Latitude": 50.08333, "Country": "Ukraine", "id": 20, "Longitude": 31.46667, "label": "Pereyaslav"}, {"Internal": 1, "Latitude": 49.58333, "Country": "Ukraine", "id": 21, "Longitude": 34.56667, "label": "Poltava"}, {"Internal": 1, "Latitude": 50.0, "Country": "Ukraine", "id": 22, "Longitude": 36.25, "label": "Kharkiv"}, {"Internal": 1, "Latitude": 48.0, "Country": "Ukraine", "id": 23, "Longitude": 37.8, "label": "Donetsk"}], "links": [{"LinkSpeed": "1", "source": 0, "LinkLabel": "1Gbps", "target": 1, "LinkSpeedUnits": "G", "LinkSpeedRaw": 1000000000.0}, {"LinkSpeed": "100", "source": 0, "LinkLabel": "100Mbps", "target": 3, "LinkSpeedUnits": "M", "LinkSpeedRaw": 100000000.0}, {"LinkSpeed": "1", "source": 1, "LinkLabel": "1Gbps", "target": 10, "LinkSpeedUnits": "G", "LinkSpeedRaw": 1000000000.0}, {"LinkSpeed": "1", "source": 1, "LinkLabel": "1Gbps", "target": 6, "LinkSpeedUnits": "G", "LinkSpeedRaw": 1000000000.0}, {"LinkSpeed": "100", "source": 2, "LinkLabel": "100Mbps", "target": 3, "LinkSpeedUnits": "M", "LinkSpeedRaw": 100000000.0}, {"LinkSpeed": "100", "source": 4, "LinkLabel": "100Mbps", "target": 19, "LinkSpeedUnits": "M", "LinkSpeedRaw": 100000000.0}, {"LinkSpeed": "100", "source": 4, "LinkLabel": "100Mbps", "target": 5, "LinkSpeedUnits": "M", "LinkSpeedRaw": 100000000.0}, {"LinkSpeed": "100", "source": 5, "LinkLabel": "100Mbps", "target": 16, "LinkSpeedUnits": "M", "LinkSpeedRaw": 100000000.0}, {"LinkSpeed": "1", "source": 6, "LinkLabel": "1Gbps", "target": 11, "LinkSpeedUnits": "G", "LinkSpeedRaw": 1000000000.0}, {"LinkSpeed": "100", "source": 7, "LinkLabel": "100Mbps", "target": 19, "LinkSpeedUnits": "M", "LinkSpeedRaw": 100000000.0}, {"LinkSpeed": "10", "source": 8, "LinkLabel": "10Gbps", "target": 19, "LinkSpeedUnits": "G", "LinkSpeedRaw": 10000000000.0}, {"LinkSpeed": "10", "source": 9, "LinkLabel": "10Gbps", "target": 16, "LinkSpeedUnits": "G", "LinkSpeedRaw": 10000000000.0}, {"LinkSpeed": "1", "source": 10, "LinkLabel": "1Gbps", "target": 19, "LinkSpeedUnits": "G", "LinkSpeedRaw": 1000000000.0}, {"LinkSpeed": "1", "source": 12, "LinkLabel": "1Gbps", "target": 22, "LinkSpeedUnits": "G", "LinkSpeedRaw": 1000000000.0}, {"LinkSpeed": "10", "source": 13, "LinkLabel": "10Gbps", "target": 19, "LinkSpeedUnits": "G", "LinkSpeedRaw": 10000000000.0}, {"LinkSpeed": "100", "source": 14, "LinkLabel": "100Mbps", "target": 15, "LinkSpeedUnits": "M", "LinkSpeedRaw": 100000000.0}, {"LinkSpeed": "1", "source": 15, "LinkLabel": "1Gbps", "target": 21, "LinkSpeedUnits": "G", "LinkSpeedRaw": 1000000000.0}, {"LinkSpeed": "100", "source": 15, "LinkLabel": "100Mbps", "target": 23, "LinkSpeedUnits": "M", "LinkSpeedRaw": 100000000.0}, {"LinkSpeed": "1", "source": 16, "LinkLabel": "1Gbps", "target": 19, "LinkSpeedUnits": "G", "LinkSpeedRaw": 1000000000.0}, {"LinkSpeed": "100", "source": 17, "LinkLabel": "100Mbps", "target": 18, "LinkSpeedUnits": "M", "LinkSpeedRaw": 100000000.0}, {"LinkSpeed": "100", "source": 18, "LinkLabel": "100Mbps", "target": 19, "LinkSpeedUnits": "M", "LinkSpeedRaw": 100000000.0}, {"LinkSpeed": "100", "source": 19, "LinkLabel": "100Mbps", "target": 20, "LinkSpeedUnits": "M", "LinkSpeedRaw": 100000000.0}, {"LinkSpeed": "1", "source": 19, "LinkLabel": "1Gbps", "target": 21, "LinkSpeedUnits": "G", "LinkSpeedRaw": 1000000000.0}, {"LinkSpeed": "1", "source": 21, "LinkLabel": "1Gbps", "target": 22, "LinkSpeedUnits": "G", "LinkSpeedRaw": 1000000000.0}], "multigraph": true}