{"directed": false, "graph": [["DateObtained", "15/11/10"], ["GeoLocation", "Georgia, Alabama, Florida, USA"], ["GeoExtent", "Region"], ["DateModifier", "="], ["Customer", 1], ["Network", "US Carrier"], ["IX", 0], ["Provenance", "Primary"], ["Note", "Fiber provider"], ["Source", "http://www.uscarrier.com/NW_index.html"], ["Version", "1.0"], ["DateMonth", 0], ["DateYear", "2008"], ["DateType", "Historic"], ["LastAccess", "3/08/10"], ["Access", 0], ["Layer", "Fibre"], ["Creator", "Topology Zoo Toolset"], ["Type", "COM"], ["SourceGitVersion", "e278b1b"], ["Backbone", 1], ["Commercial", 0], ["NetworkDate", "2008"], ["label", "UsCarrier"], ["LastProcessed", "2011_09_01"], ["Testbed", 0], ["Developed", 1], ["ToolsetVersion", "0.3.34dev-20120328"], ["Transit", 0]], "nodes": [{"Internal": 1, "Latitude": 33.49182, "Country": "United States", "id": 0, "Longitude": -80.85565, "label": "Orangeburg"}, {"Internal": 1, "Latitude": 32.90517, "Country": "United States", "id": 1, "Longitude": -80.66677, "label": "Walterboro"}, {"Internal": 1, "Latitude": 31.37023, "Country": "United States", "id": 2, "Longitude": -81.43399, "label": "Darien"}, {"Internal": 1, "Latitude": 31.20439, "Country": "United States", "id": 3, "Longitude": -81.98123, "label": "Nahunta"}, {"Internal": 1, "Latitude": 31.21355, "Country": "United States", "id": 4, "Longitude": -82.35402, "label": "Waycross"}, {"Internal": 1, "Latitude": 30.33218, "Country": "United States", "id": 5, "Longitude": -81.65565, "label": "Jacksonville"}, {"Internal": 1, "Latitude": 30.18968, "Country": "United States", "id": 6, "Longitude": -82.63929, "label": "Lake City"}, {"Internal": 1, "Latitude": 34.00071, "Country": "United States", "id": 7, "Longitude": -81.03481, "label": "Columbia"}, {"Internal": 1, "Latitude": 33.56042, "Country": "United States", "id": 8, "Longitude": -81.71955, "label": "Aiken"}, {"Internal": 1, "Latitude": 33.5018, "Country": "United States", "id": 9, "Longitude": -81.96512, "label": "Augusta"}, {"Internal": 1, "Latitude": 35.7721, "Country": "United States", "id": 10, "Longitude": -78.63861, "label": "Raleigh"}, {"Internal": 1, "Latitude": 35.93821, "Country": "United States", "id": 11, "Longitude": -77.79053, "label": "Rocky Mount"}, {"Internal": 1, "Latitude": 36.09569, "Country": "United States", "id": 12, "Longitude": -79.4378, "label": "Burlington"}, {"Internal": 1, "Latitude": 35.99403, "Country": "United States", "id": 13, "Longitude": -78.89862, "label": "Durham"}, {"Internal": 1, "Latitude": 35.10849, "Country": "United States", "id": 14, "Longitude": -77.04411, "label": "New Bern"}, {"Internal": 1, "Latitude": 34.75405, "Country": "United States", "id": 15, "Longitude": -77.43024, "label": "Jacksonville"}, {"Internal": 1, "Latitude": 35.61266, "Country": "United States", "id": 16, "Longitude": -77.36635, "label": "Greenville"}, {"Internal": 1, "Latitude": 35.26266, "Country": "United States", "id": 17, "Longitude": -77.58164, "label": "Kinston"}, {"Internal": 1, "Latitude": 35.05266, "Country": "United States", "id": 18, "Longitude": -78.87836, "label": "Fayetteville"}, {"Internal": 1, "Latitude": 34.22573, "Country": "United States", "id": 19, "Longitude": -77.94471, "label": "Wilmington"}, {"Internal": 1, "Latitude": 33.96095, "Country": "United States", "id": 20, "Longitude": -83.37794, "label": "Athens"}, {"Internal": 1, "Latitude": 34.35288, "Country": "United States", "id": 21, "Longitude": -82.93209, "label": "Hartwell"}, {"Internal": 1, "Latitude": 36.59511, "Country": "United States", "id": 22, "Longitude": -82.18874, "label": "Bristol"}, {"Internal": 1, "Latitude": 36.54843, "Country": "United States", "id": 23, "Longitude": -82.56182, "label": "Kingsport"}, {"Internal": 1, "Latitude": 34.17817, "Country": "United States", "id": 24, "Longitude": -82.37901, "label": "Abbeville"}, {"Internal": 1, "Latitude": 34.50344, "Country": "United States", "id": 25, "Longitude": -82.65013, "label": "Anderson"}, {"Internal": 1, "Latitude": 34.52123, "Country": "United States", "id": 26, "Longitude": -82.18872, "label": "Hickory Tavern"}, {"Internal": 1, "Latitude": 34.1954, "Country": "United States", "id": 27, "Longitude": -82.16179, "label": "Greenwood"}, {"Internal": 1, "Latitude": 36.70983, "Country": "United States", "id": 28, "Longitude": -81.97735, "label": "Abingdon"}, {"Internal": 1, "Latitude": 36.31344, "Country": "United States", "id": 29, "Longitude": -82.35347, "label": "Johnson City"}, {"Internal": 1, "Latitude": 36.07264, "Country": "United States", "id": 30, "Longitude": -79.79198, "label": "Greensboro"}, {"Internal": 1, "Latitude": 36.11986, "Country": "United States", "id": 31, "Longitude": -80.07365, "label": "Kernersville"}, {"Internal": 1, "Latitude": 35.67097, "Country": "United States", "id": 32, "Longitude": -80.47423, "label": "Salisbury"}, {"Internal": 1, "Latitude": 35.82403, "Country": "United States", "id": 33, "Longitude": -80.25338, "label": "Lexington"}, {"Internal": 1, "Latitude": 35.95569, "Country": "United States", "id": 34, "Longitude": -80.00532, "label": "High Point"}, {"Internal": 1, "Latitude": 35.40875, "Country": "United States", "id": 35, "Longitude": -80.57951, "label": "Concord"}, {"Internal": 1, "Latitude": 36.2168, "Country": "United States", "id": 36, "Longitude": -81.67455, "label": "Boone"}, {"Internal": 1, "Latitude": 36.34763, "Country": "United States", "id": 37, "Longitude": -81.53288, "label": "Baldwin"}, {"Internal": 1, "Latitude": 35.88902, "Country": "United States", "id": 38, "Longitude": -79.80781, "label": "Level Cross"}, {"Internal": 1, "Latitude": 36.06014, "Country": "United States", "id": 39, "Longitude": -80.62062, "label": "Courtney"}, {"Internal": 1, "Latitude": 26.62168, "Country": "United States", "id": 40, "Longitude": -81.84059, "label": "Fort Myers"}, {"Internal": 1, "Latitude": 31.45046, "Country": "United States", "id": 41, "Longitude": -83.5085, "label": "Tifton"}, {"Internal": 1, "Latitude": 28.6, "Country": "United States", "id": 42, "Longitude": -81.33924, "label": "Winter Park"}, {"Internal": 1, "Latitude": 27.59587, "Country": "United States", "id": 43, "Longitude": -81.50619, "label": "Avon Park"}, {"Internal": 1, "Latitude": 31.13714, "Country": "United States", "id": 44, "Longitude": -83.42349, "label": "Adel"}, {"Internal": 1, "Latitude": 30.8327, "Country": "United States", "id": 45, "Longitude": -83.27849, "label": "Vadosta"}, {"Internal": 1, "Latitude": 31.34102, "Country": "United States", "id": 46, "Longitude": -83.5935, "label": "Omega"}, {"Internal": 1, "Latitude": 31.34076, "Country": "United States", "id": 47, "Longitude": -83.04598, "label": "Willacoochee"}, {"Internal": 1, "Latitude": 31.50881, "Country": "United States", "id": 48, "Longitude": -82.84987, "label": "Douglas"}, {"Internal": 1, "Latitude": 31.57851, "Country": "United States", "id": 49, "Longitude": -84.15574, "label": "Albany"}, {"Internal": 1, "Latitude": 37.27097, "Country": "United States", "id": 50, "Longitude": -79.94143, "label": "Roanoke"}, {"Internal": 1, "Latitude": 38.34982, "Country": "United States", "id": 51, "Longitude": -81.63262, "label": "Charleston"}, {"Internal": 1, "Latitude": 36.83484, "Country": "United States", "id": 52, "Longitude": -81.51484, "label": "Marion"}, {"Internal": 1, "Latitude": 36.94845, "Country": "United States", "id": 53, "Longitude": -81.08481, "label": "Wytheville"}, {"Internal": 1, "Latitude": 37.10206, "Country": "United States", "id": 54, "Longitude": -81.1162, "label": "Bland"}, {"Internal": 1, "Latitude": 37.26984, "Country": "United States", "id": 55, "Longitude": -81.22232, "label": "Bluefield"}, {"Internal": 1, "Latitude": 37.22957, "Country": "United States", "id": 56, "Longitude": -80.41394, "label": "Blacksburg"}, {"Internal": 1, "Latitude": 37.41819, "Country": "United States", "id": 57, "Longitude": -79.87476, "label": "Troutville"}, {"Internal": 1, "Latitude": 37.13179, "Country": "United States", "id": 58, "Longitude": -80.57645, "label": "Radford"}, {"Internal": 1, "Latitude": 37.12985, "Country": "United States", "id": 59, "Longitude": -80.40894, "label": "Christiansburg"}, {"Internal": 1, "Latitude": 30.76213, "Country": "United States", "id": 60, "Longitude": -86.57051, "label": "Crestview"}, {"Internal": 1, "Latitude": 31.22323, "Country": "United States", "id": 61, "Longitude": -85.39049, "label": "Dothan"}, {"Internal": 1, "Latitude": 38.82095, "Country": "United States", "id": 62, "Longitude": -78.56585, "label": "Edinburg"}, {"Internal": 1, "Latitude": 38.91817, "Country": "United States", "id": 63, "Longitude": -78.19444, "label": "Front Royal"}, {"Internal": 1, "Latitude": 38.71345, "Country": "United States", "id": 64, "Longitude": -77.79527, "label": "Warrenton"}, {"Internal": 1, "Latitude": 39.04372, "Country": "United States", "id": 65, "Longitude": -77.48749, "label": "Ashburn"}, {"Internal": 1, "Latitude": 35.60095, "Country": "United States", "id": 66, "Longitude": -82.55402, "label": "Asheville"}, {"Internal": 1, "Latitude": 34.73297, "Country": "United States", "id": 67, "Longitude": -78.7918, "label": "Tar Heel"}, {"Internal": 1, "Latitude": 34.23676, "Country": "United States", "id": 68, "Longitude": -84.49076, "label": "Canton"}, {"Internal": 1, "Latitude": 33.9526, "Country": "United States", "id": 69, "Longitude": -84.54993, "label": "Maretta"}, {"Internal": 1, "Latitude": 34.1651, "Country": "United States", "id": 70, "Longitude": -84.79994, "label": "Cartersville"}, {"Internal": 1, "Latitude": 34.50259, "Country": "United States", "id": 71, "Longitude": -84.95105, "label": "Calhoun"}, {"Internal": 1, "Latitude": 34.7698, "Country": "United States", "id": 72, "Longitude": -84.97022, "label": "Dalton"}, {"Internal": 1, "Latitude": 34.91591, "Country": "United States", "id": 73, "Longitude": -85.10912, "label": "Ringgold"}, {"Internal": 1, "Latitude": 35.04563, "Country": "United States", "id": 74, "Longitude": -85.30968, "label": "Chattanooga"}, {"Internal": 1, "Latitude": 34.98897, "Country": "United States", "id": 75, "Longitude": -84.37076, "label": "Copperhill"}, {"Internal": 1, "Latitude": 34.69481, "Country": "United States", "id": 76, "Longitude": -84.48215, "label": "Ellijay"}, {"Internal": 1, "Latitude": 33.749, "Country": "United States", "id": 77, "Longitude": -84.38798, "label": "Atlanta"}, {"hyperedge": 1, "Internal": 1, "id": 78, "label": "None"}, {"hyperedge": 1, "Internal": 1, "id": 79, "label": "None"}, {"Internal": 1, "Latitude": 32.21632, "Country": "United States", "id": 80, "Longitude": -80.75261, "label": "Hilton Head"}, {"Internal": 1, "Latitude": 32.43158, "Country": "United States", "id": 81, "Longitude": -80.66983, "label": "Beaufort"}, {"hyperedge": 1, "Internal": 1, "id": 82, "label": "None"}, {"Internal": 1, "Latitude": 36.50541, "Country": "United States", "id": 83, "Longitude": -81.12092, "label": "Sparta"}, {"hyperedge": 1, "Internal": 1, "id": 84, "label": "None"}, {"hyperedge": 1, "Internal": 1, "id": 85, "label": "None"}, {"hyperedge": 1, "Internal": 1, "id": 86, "label": "None"}, {"Internal": 1, "Latitude": 28.62778, "Country": "United States", "id": 87, "Longitude": -81.36312, "label": "Maitland"}, {"Internal": 1, "Latitude": 34.94926, "Country": "United States", "id": 88, "Longitude": -83.75739, "label": "Hiawassee"}, {"Internal": 1, "Latitude": 35.18232, "Country": "United States", "id": 89, "Longitude": -83.38154, "label": "Franklin"}, {"Internal": 1, "geocode_id": "4577263", "Latitude": 34.82984, "Country": "United States", "id": 90, "Longitude": -82.60152, "label": "Easley"}, {"Internal": 1, "Latitude": 34.85262, "Country": "United States", "id": 91, "Longitude": -82.39401, "label": "Greenville"}, {"Internal": 1, "Latitude": 34.86397, "Country": "United States", "id": 92, "Longitude": -84.32409, "label": "Blueridge"}, {"Internal": 1, "Latitude": 34.8762, "Country": "United States", "id": 93, "Longitude": -83.95824, "label": "Blairsville"}, {"Internal": 1, "Latitude": 34.93315, "Country": "United States", "id": 94, "Longitude": -83.84712, "label": "Young Harris"}, {"Internal": 1, "Latitude": 35.0462, "Country": "United States", "id": 95, "Longitude": -83.81795, "label": "Hayesville"}, {"Internal": 1, "Latitude": 39.11566, "Country": "United States", "id": 96, "Longitude": -77.5636, "label": "Leesburg"}, {"Internal": 1, "Latitude": 34.68344, "Country": "United States", "id": 97, "Longitude": -82.83737, "label": "Clemson"}, {"Internal": 1, "Latitude": 34.57732, "Country": "United States", "id": 98, "Longitude": -83.33239, "label": "Toccoa"}, {"Internal": 1, "Latitude": 39.08344, "Country": "United States", "id": 99, "Longitude": -78.21806, "label": "Stephens City"}, {"Internal": 1, "Latitude": 34.72043, "Country": "United States", "id": 100, "Longitude": -80.7709, "label": "Lancaster"}, {"Internal": 1, "Latitude": 34.55182, "Country": "United States", "id": 101, "Longitude": -80.58368, "label": "Kershaw"}, {"Internal": 1, "Latitude": 32.77657, "Country": "United States", "id": 102, "Longitude": -79.93092, "label": "Charleston"}, {"Internal": 1, "Latitude": 32.69018, "Country": "United States", "id": 103, "Longitude": -80.85066, "label": "Yemassee"}, {"Internal": 1, "Latitude": 33.37683, "Country": "United States", "id": 104, "Longitude": -79.2945, "label": "Georgetown"}, {"Internal": 1, "Latitude": 33.196, "Country": "United States", "id": 105, "Longitude": -80.01314, "label": "Monks Corner"}, {"Internal": 1, "Latitude": 34.19543, "Country": "United States", "id": 106, "Longitude": -79.76256, "label": "Florence"}, {"Internal": 1, "Latitude": 33.68906, "Country": "United States", "id": 107, "Longitude": -78.88669, "label": "Myrtle Beach"}, {"Internal": 1, "Latitude": 34.41488, "Country": "United States", "id": 108, "Longitude": -80.34868, "label": "Bethune"}, {"Internal": 1, "Latitude": 33.92044, "Country": "United States", "id": 109, "Longitude": -80.34147, "label": "Sumter"}, {"Internal": 1, "Latitude": 35.20175, "Country": "United States", "id": 110, "Longitude": -83.82407, "label": "Andrews"}, {"Internal": 1, "Latitude": 35.08758, "Country": "United States", "id": 111, "Longitude": -84.03463, "label": "Murphy"}, {"Internal": 1, "Latitude": 35.47427, "Country": "United States", "id": 112, "Longitude": -83.31487, "label": "Cherokee"}, {"Internal": 1, "Latitude": 35.43093, "Country": "United States", "id": 113, "Longitude": -83.44738, "label": "Bryson City"}, {"Internal": 1, "Latitude": 35.73319, "Country": "United States", "id": 114, "Longitude": -81.3412, "label": "Hickory"}, {"Internal": 1, "Latitude": 35.37371, "Country": "United States", "id": 115, "Longitude": -83.22598, "label": "Sylva"}, {"Internal": 1, "Latitude": 35.22709, "Country": "United States", "id": 116, "Longitude": -80.84313, "label": "Charlotte"}, {"Internal": 1, "Latitude": 34.94957, "Country": "United States", "id": 117, "Longitude": -81.93205, "label": "Spartanburg"}, {"Internal": 1, "Latitude": 34.92487, "Country": "United States", "id": 118, "Longitude": -81.02508, "label": "Rock Hill"}, {"Internal": 1, "Latitude": 34.70486, "Country": "United States", "id": 119, "Longitude": -81.21426, "label": "Chester"}, {"Internal": 1, "Latitude": 39.18566, "Country": "United States", "id": 120, "Longitude": -78.16333, "label": "Winchester"}, {"Internal": 1, "Latitude": 39.45621, "Country": "United States", "id": 121, "Longitude": -77.96389, "label": "Martinsburg"}, {"Internal": 1, "Latitude": 38.02931, "Country": "United States", "id": 122, "Longitude": -78.47668, "label": "Charlottesville"}, {"Internal": 1, "Latitude": 37.78402, "Country": "United States", "id": 123, "Longitude": -79.44282, "label": "Lexington"}, {"Internal": 1, "Latitude": 37.41375, "Country": "United States", "id": 124, "Longitude": -79.14225, "label": "Lynchburg"}, {"Internal": 1, "Latitude": 36.99764, "Country": "United States", "id": 125, "Longitude": -79.89198, "label": "Rocky Mount"}, {"Internal": 1, "Latitude": 38.96955, "Country": "United States", "id": 126, "Longitude": -77.3861, "label": "Herndon"}, {"Internal": 1, "Latitude": 38.44957, "Country": "United States", "id": 127, "Longitude": -78.86892, "label": "Harrisonburg"}, {"Internal": 1, "Latitude": 38.14958, "Country": "United States", "id": 128, "Longitude": -79.0717, "label": "Staunton"}, {"Internal": 1, "Latitude": 38.06847, "Country": "United States", "id": 129, "Longitude": -78.88947, "label": "Waynesboro"}, {"Internal": 1, "Latitude": 36.69153, "Country": "United States", "id": 130, "Longitude": -79.87254, "label": "Martinsville"}, {"Internal": 1, "Latitude": 36.58597, "Country": "United States", "id": 131, "Longitude": -79.39502, "label": "Danville"}, {"Internal": 1, "Latitude": 31.84688, "Country": "United States", "id": 132, "Longitude": -81.59595, "label": "Hinesville"}, {"Internal": 1, "Latitude": 32.08354, "Country": "United States", "id": 133, "Longitude": -81.09983, "label": "Savannah"}, {"Internal": 1, "Latitude": 32.28377, "Country": "United States", "id": 134, "Longitude": -83.47212, "label": "Hawkinsville"}, {"Internal": 1, "Latitude": 32.84069, "Country": "United States", "id": 135, "Longitude": -83.6324, "label": "Macon"}, {"Internal": 1, "Latitude": 31.95545, "Country": "United States", "id": 136, "Longitude": -84.08657, "label": "Leslie"}, {"Internal": 1, "Latitude": 31.83101, "Country": "United States", "id": 137, "Longitude": -83.91879, "label": "Warwick"}, {"Internal": 1, "Latitude": 32.19715, "Country": "United States", "id": 138, "Longitude": -81.43789, "label": "Blitchton"}, {"Internal": 1, "Latitude": 32.13603, "Country": "United States", "id": 139, "Longitude": -81.62206, "label": "Pembroke"}, {"Internal": 1, "Latitude": 32.39712, "Country": "United States", "id": 140, "Longitude": -82.06012, "label": "Metter"}, {"Internal": 1, "Latitude": 32.3835, "Country": "United States", "id": 141, "Longitude": -82.99126, "label": "Rentz"}, {"Internal": 1, "Latitude": 29.1872, "Country": "United States", "id": 142, "Longitude": -82.14009, "label": "Ocala"}, {"Internal": 1, "Latitude": 28.81082, "Country": "United States", "id": 143, "Longitude": -81.87786, "label": "Leesburg"}, {"Internal": 1, "Latitude": 39.64176, "Country": "United States", "id": 144, "Longitude": -77.71999, "label": "Hagerstown"}, {"Internal": 1, "Latitude": 39.93759, "Country": "United States", "id": 145, "Longitude": -77.6611, "label": "Chamersburg"}, {"Internal": 1, "Latitude": 39.83093, "Country": "United States", "id": 146, "Longitude": -77.2311, "label": "Gettysburg"}, {"Internal": 1, "Latitude": 40.20148, "Country": "United States", "id": 147, "Longitude": -77.18887, "label": "Carlisle"}, {"Internal": 1, "Latitude": 38.47841, "Country": "United States", "id": 148, "Longitude": -82.63794, "label": "Ashland"}, {"Internal": 1, "Latitude": 38.41925, "Country": "United States", "id": 149, "Longitude": -82.44515, "label": "Huntington"}, {"Internal": 1, "Latitude": 32.36681, "Country": "United States", "id": 150, "Longitude": -86.29997, "label": "Montgomery"}, {"Internal": 1, "Latitude": 33.52066, "Country": "United States", "id": 151, "Longitude": -86.80249, "label": "Birmingham"}, {"Internal": 1, "Latitude": 32.46098, "Country": "United States", "id": 152, "Longitude": -84.98771, "label": "Columbus"}, {"Internal": 1, "Latitude": 30.42131, "Country": "United States", "id": 153, "Longitude": -87.21691, "label": "Pensacola"}, {"Internal": 1, "Latitude": 30.69436, "Country": "United States", "id": 154, "Longitude": -88.04305, "label": "Mobile"}, {"Internal": 1, "Latitude": 30.15946, "Country": "United States", "id": 155, "Longitude": -85.65983, "label": "Panama City"}, {"Internal": 1, "Latitude": 30.44353, "Country": "United States", "id": 156, "Longitude": -85.0452, "label": "Blountstown"}, {"Internal": 1, "Latitude": 30.43826, "Country": "United States", "id": 157, "Longitude": -84.28073, "label": "Tallahassee"}], "links": [{"source": 0, "id": "e54", "target": 85}, {"source": 1, "id": "e56", "target": 85}, {"source": 1, "id": "e55", "target": 103}, {"source": 2, "id": "e42", "target": 3}, {"source": 2, "id": "e41", "target": 132}, {"source": 3, "id": "e43", "target": 4}, {"source": 3, "id": "e44", "target": 5}, {"source": 4, "id": "e27", "target": 48}, {"source": 5, "id": "e45", "target": 6}, {"source": 6, "id": "e13", "target": 157}, {"source": 7, "id": "e48", "target": 8}, {"source": 7, "id": "e49", "target": 9}, {"source": 7, "id": "e50", "target": 109}, {"source": 7, "id": "e46", "target": 85}, {"source": 7, "id": "e47", "target": 119}, {"source": 8, "id": "e51", "target": 9}, {"source": 9, "id": "e52", "target": 21}, {"source": 9, "id": "e53", "target": 86}, {"source": 10, "id": "e172", "target": 18}, {"source": 10, "id": "e173", "target": 11}, {"source": 10, "id": "e171", "target": 13}, {"source": 11, "id": "e175", "target": 16}, {"source": 11, "id": "e174", "target": 18}, {"source": 12, "id": "e170", "target": 13}, {"source": 12, "id": "e168", "target": 30}, {"source": 14, "id": "e177", "target": 17}, {"source": 14, "id": "e178", "target": 15}, {"source": 15, "id": "e179", "target": 18}, {"source": 16, "id": "e176", "target": 17}, {"source": 18, "id": "e180", "target": 19}, {"source": 18, "id": "e181", "target": 67}, {"source": 19, "id": "e63", "target": 107}, {"source": 20, "id": "e113", "target": 21}, {"source": 20, "id": "e97", "target": 77}, {"source": 22, "id": "e117", "target": 28}, {"source": 22, "id": "e116", "target": 29}, {"source": 22, "id": "e115", "target": 23}, {"source": 23, "id": "e114", "target": 29}, {"source": 24, "id": "e111", "target": 26}, {"source": 24, "id": "e112", "target": 27}, {"source": 24, "id": "e74", "target": 119}, {"source": 25, "id": "e108", "target": 97}, {"source": 26, "id": "e109", "target": 97}, {"source": 28, "id": "e118", "target": 52}, {"source": 30, "id": "e169", "target": 84}, {"source": 30, "id": "e155", "target": 131}, {"source": 31, "id": "e165", "target": 34}, {"source": 31, "id": "e167", "target": 84}, {"source": 32, "id": "e162", "target": 33}, {"source": 32, "id": "e164", "target": 35}, {"source": 33, "id": "e163", "target": 34}, {"source": 33, "id": "e158", "target": 36}, {"source": 33, "id": "e160", "target": 39}, {"source": 34, "id": "e166", "target": 84}, {"source": 35, "id": "e76", "target": 116}, {"source": 36, "id": "e156", "target": 37}, {"source": 37, "id": "e157", "target": 83}, {"source": 38, "id": "e161", "target": 83}, {"source": 38, "id": "e159", "target": 39}, {"source": 40, "id": "e19", "target": 43}, {"source": 41, "id": "e20", "target": 44}, {"source": 41, "id": "e21", "target": 46}, {"source": 42, "id": "e18", "target": 43}, {"source": 42, "id": "e17", "target": 87}, {"source": 44, "id": "e26", "target": 45}, {"source": 45, "id": "e22", "target": 46}, {"source": 46, "id": "e24", "target": 47}, {"source": 46, "id": "e23", "target": 137}, {"source": 47, "id": "e25", "target": 48}, {"source": 49, "id": "e14", "target": 157}, {"source": 49, "id": "e28", "target": 135}, {"source": 50, "id": "e128", "target": 57}, {"source": 50, "id": "e130", "target": 51}, {"source": 50, "id": "e131", "target": 124}, {"source": 50, "id": "e132", "target": 125}, {"source": 51, "id": "e133", "target": 149}, {"source": 52, "id": "e121", "target": 53}, {"source": 53, "id": "e123", "target": 58}, {"source": 53, "id": "e122", "target": 83}, {"source": 53, "id": "e120", "target": 54}, {"source": 54, "id": "e119", "target": 55}, {"source": 56, "id": "e126", "target": 57}, {"source": 56, "id": "e125", "target": 59}, {"source": 57, "id": "e127", "target": 128}, {"source": 57, "id": "e129", "target": 123}, {"source": 58, "id": "e124", "target": 59}, {"source": 60, "id": "e7", "target": 153}, {"source": 60, "id": "e9", "target": 155}, {"source": 61, "id": "e10", "target": 155}, {"source": 61, "id": "e3", "target": 150}, {"source": 62, "id": "e186", "target": 78}, {"source": 62, "id": "e184", "target": 79}, {"source": 63, "id": "e187", "target": 64}, {"source": 63, "id": "e185", "target": 79}, {"source": 64, "id": "e188", "target": 65}, {"source": 65, "id": "e144", "target": 126}, {"source": 66, "id": "e79", "target": 114}, {"source": 66, "id": "e106", "target": 91}, {"source": 67, "id": "e65", "target": 106}, {"source": 68, "id": "e96", "target": 76}, {"source": 68, "id": "e95", "target": 77}, {"source": 69, "id": "e94", "target": 77}, {"source": 69, "id": "e93", "target": 70}, {"source": 70, "id": "e92", "target": 71}, {"source": 72, "id": "e90", "target": 73}, {"source": 72, "id": "e89", "target": 74}, {"source": 72, "id": "e91", "target": 76}, {"source": 73, "id": "e88", "target": 74}, {"source": 75, "id": "e87", "target": 92}, {"source": 75, "id": "e86", "target": 111}, {"source": 76, "id": "e98", "target": 92}, {"source": 77, "id": "e32", "target": 135}, {"source": 77, "id": "e4", "target": 151}, {"source": 77, "id": "e5", "target": 152}, {"source": 78, "id": "e141", "target": 120}, {"source": 78, "id": "e147", "target": 127}, {"source": 79, "id": "e142", "target": 99}, {"source": 80, "id": "e182", "target": 81}, {"source": 80, "id": "e183", "target": 86}, {"source": 81, "id": "e58", "target": 103}, {"source": 82, "id": "e62", "target": 104}, {"source": 82, "id": "e60", "target": 105}, {"source": 82, "id": "e68", "target": 109}, {"source": 86, "id": "e39", "target": 133}, {"source": 87, "id": "e16", "target": 143}, {"source": 88, "id": "e103", "target": 89}, {"source": 88, "id": "e102", "target": 94}, {"source": 89, "id": "e81", "target": 115}, {"source": 90, "id": "e105", "target": 98}, {"source": 90, "id": "e104", "target": 91}, {"source": 91, "id": "e107", "target": 97}, {"source": 91, "id": "e77", "target": 117}, {"source": 92, "id": "e99", "target": 93}, {"source": 93, "id": "e100", "target": 94}, {"source": 94, "id": "e101", "target": 95}, {"source": 95, "id": "e85", "target": 110}, {"source": 96, "id": "e140", "target": 120}, {"source": 96, "id": "e143", "target": 126}, {"source": 97, "id": "e110", "target": 98}, {"source": 99, "id": "e139", "target": 121}, {"source": 100, "id": "e70", "target": 101}, {"source": 100, "id": "e71", "target": 118}, {"source": 101, "id": "e69", "target": 108}, {"source": 102, "id": "e59", "target": 105}, {"source": 102, "id": "e57", "target": 103}, {"source": 103, "id": "e38", "target": 133}, {"source": 104, "id": "e61", "target": 107}, {"source": 106, "id": "e64", "target": 107}, {"source": 106, "id": "e67", "target": 108}, {"source": 106, "id": "e66", "target": 109}, {"source": 110, "id": "e83", "target": 113}, {"source": 110, "id": "e84", "target": 111}, {"source": 112, "id": "e82", "target": 113}, {"source": 112, "id": "e80", "target": 115}, {"source": 114, "id": "e78", "target": 117}, {"source": 116, "id": "e75", "target": 117}, {"source": 116, "id": "e73", "target": 118}, {"source": 118, "id": "e72", "target": 119}, {"source": 121, "id": "e138", "target": 144}, {"source": 122, "id": "e149", "target": 129}, {"source": 122, "id": "e151", "target": 124}, {"source": 123, "id": "e150", "target": 129}, {"source": 124, "id": "e152", "target": 131}, {"source": 125, "id": "e153", "target": 130}, {"source": 127, "id": "e145", "target": 128}, {"source": 127, "id": "e146", "target": 129}, {"source": 128, "id": "e148", "target": 129}, {"source": 130, "id": "e154", "target": 131}, {"source": 132, "id": "e40", "target": 133}, {"source": 133, "id": "e37", "target": 138}, {"source": 134, "id": "e31", "target": 136}, {"source": 134, "id": "e29", "target": 137}, {"source": 134, "id": "e33", "target": 141}, {"source": 135, "id": "e30", "target": 136}, {"source": 138, "id": "e36", "target": 139}, {"source": 139, "id": "e35", "target": 140}, {"source": 140, "id": "e34", "target": 141}, {"source": 142, "id": "e12", "target": 157}, {"source": 142, "id": "e15", "target": 143}, {"source": 144, "id": "e137", "target": 145}, {"source": 145, "id": "e136", "target": 146}, {"source": 146, "id": "e135", "target": 147}, {"source": 148, "id": "e134", "target": 149}, {"source": 150, "id": "e1", "target": 152}, {"source": 150, "id": "e2", "target": 154}, {"source": 150, "id": "e0", "target": 151}, {"source": 153, "id": "e6", "target": 154}, {"source": 155, "id": "e8", "target": 156}, {"source": 156, "id": "e11", "target": 157}], "multigraph": true}