{"directed": false, "graph": [["DateObtained", "22/10/10"], ["GeoLocation", "USA"], ["GeoExtent", "Country"], ["DateModifier", "="], ["Customer", 0], ["Network", "US Signal"], ["IX", 0], ["Provenance", "Primary"], ["Note", "Fiber provider"], ["Source", "http://www.ussignalcom.com/network"], ["Version", "1.0"], ["DateMonth", "08"], ["DateYear", "2010"], ["Type", "COM"], ["LastAccess", "3/08/10"], ["Access", 0], ["Layer", "Fibre"], ["Creator", "Topology Zoo Toolset"], ["DateType", "Current"], ["SourceGitVersion", "e278b1b"], ["Backbone", 1], ["Commercial", 0], ["NetworkDate", "2010_08"], ["label", "UsSignal"], ["LastProcessed", "2011_09_01"], ["Testbed", 0], ["Developed", 1], ["ToolsetVersion", "0.3.34dev-20120328"], ["Transit", 0]], "nodes": [{"Internal": 1, "Latitude": 39.76838, "Country": "United States", "id": 0, "Longitude": -86.15804, "label": "Indianapolis "}, {"Internal": 1, "Latitude": 39.16532, "Country": "United States", "id": 1, "Longitude": -86.52639, "label": "Bloomington"}, {"Internal": 1, "Latitude": 39.52144, "Country": "United States", "id": 2, "Longitude": -85.77692, "label": "Shelbyville"}, {"Internal": 1, "Latitude": 39.61366, "Country": "United States", "id": 3, "Longitude": -86.10665, "label": "Greenwood"}, {"Internal": 1, "Latitude": 37.97476, "Country": "United States", "id": 4, "Longitude": -87.55585, "label": "Evansville"}, {"Internal": 1, "Latitude": 38.52505, "Country": "United States", "id": 5, "Longitude": -89.1334, "label": "Centralia "}, {"Internal": 1, "Latitude": 39.20144, "Country": "United States", "id": 6, "Longitude": -85.92138, "label": "Columbus"}, {"Internal": 1, "Latitude": 38.25424, "Country": "United States", "id": 7, "Longitude": -85.75941, "label": "Louisville"}, {"Internal": 1, "Latitude": 42.73254, "Country": "United States", "id": 8, "Longitude": -84.55553, "label": "Lansing"}, {"Internal": 1, "Latitude": 42.24587, "Country": "United States", "id": 9, "Longitude": -84.40135, "label": "Jackson"}, {"Internal": 1, "Latitude": 38.62727, "Country": "United States", "id": 10, "Longitude": -90.19789, "label": "St Loius"}, {"Internal": 1, "Latitude": 40.4167, "Country": "United States", "id": 11, "Longitude": -86.87529, "label": "Lafayette"}, {"Internal": 1, "Latitude": 42.96336, "Country": "United States", "id": 12, "Longitude": -85.66809, "label": "Grand Rapids"}, {"Internal": 1, "Latitude": 43.23418, "Country": "United States", "id": 13, "Longitude": -86.24839, "label": "Muskegon"}, {"Internal": 1, "Latitude": 41.59337, "Country": "United States", "id": 14, "Longitude": -87.34643, "label": "Gary"}, {"Internal": 1, "Latitude": 42.32115, "Country": "United States", "id": 15, "Longitude": -85.17971, "label": "Battle Creek"}, {"Internal": 1, "Latitude": 42.27113, "Country": "United States", "id": 16, "Longitude": -89.094, "label": "Rockford "}, {"Internal": 1, "Latitude": 43.07305, "Country": "United States", "id": 17, "Longitude": -89.40123, "label": "Madison "}, {"Internal": 1, "Latitude": 40.19338, "Country": "United States", "id": 18, "Longitude": -85.38636, "label": "Muncie"}, {"Internal": 1, "Latitude": 40.10532, "Country": "United States", "id": 19, "Longitude": -85.68025, "label": "Anderson"}, {"Internal": 1, "Latitude": 39.48309, "Country": "United States", "id": 20, "Longitude": -88.37283, "label": "Mattoon "}, {"Internal": 1, "Latitude": 39.4667, "Country": "United States", "id": 21, "Longitude": -87.41391, "label": "Terre Haute "}, {"Internal": 1, "Latitude": 40.11642, "Country": "United States", "id": 22, "Longitude": -88.24338, "label": "Champaign "}, {"Internal": 1, "Latitude": 40.4842, "Country": "United States", "id": 23, "Longitude": -88.99369, "label": "Bloomington"}, {"Internal": 1, "Latitude": 40.69365, "Country": "United States", "id": 24, "Longitude": -89.58899, "label": "Peoria "}, {"Internal": 1, "Latitude": 39.80172, "Country": "United States", "id": 25, "Longitude": -89.64371, "label": "Springfield "}, {"Internal": 1, "Latitude": 42.27756, "Country": "United States", "id": 26, "Longitude": -83.74088, "label": "Ann Arbor"}, {"Internal": 1, "Latitude": 44.76306, "Country": "United States", "id": 27, "Longitude": -85.62063, "label": "Traverse City"}, {"Internal": 1, "Latitude": 43.59781, "Country": "United States", "id": 28, "Longitude": -84.76751, "label": "Mt Pleasant"}, {"Internal": 1, "Latitude": 41.57587, "Country": "United States", "id": 29, "Longitude": -87.17615, "label": "Portage"}, {"Internal": 1, "Latitude": 41.85003, "Country": "United States", "id": 30, "Longitude": -87.65005, "label": "Chicago "}, {"Internal": 1, "Latitude": 43.61558, "Country": "United States", "id": 31, "Longitude": -84.24721, "label": "Midland"}, {"hyperedge": 1, "Internal": 1, "id": 32, "label": "None"}, {"Internal": 1, "Latitude": 43.41947, "Country": "United States", "id": 33, "Longitude": -83.95081, "label": "Saginaw"}, {"hyperedge": 1, "Internal": 1, "id": 34, "label": "None"}, {"Internal": 1, "Latitude": 44.26193, "Country": "United States", "id": 35, "Longitude": -88.41538, "label": "Appleton "}, {"Internal": 1, "Latitude": 44.02471, "Country": "United States", "id": 36, "Longitude": -88.54261, "label": "Oshkosh "}, {"Internal": 1, "Latitude": 43.0389, "Country": "United States", "id": 37, "Longitude": -87.90647, "label": "Milwaukee "}, {"Internal": 1, "Latitude": 44.51916, "Country": "United States", "id": 38, "Longitude": -88.01983, "label": "Green Bay "}, {"Internal": 1, "Latitude": 42.03336, "Country": "United States", "id": 39, "Longitude": -87.8834, "label": "Des Plaines "}, {"Internal": 1, "Latitude": 42.12753, "Country": "United States", "id": 40, "Longitude": -87.82895, "label": "Northbrook "}, {"Internal": 1, "Latitude": 41.80503, "Country": "United States", "id": 41, "Longitude": -87.86923, "label": "La Grange"}, {"Internal": 1, "Latitude": 41.83281, "Country": "United States", "id": 42, "Longitude": -87.92895, "label": "Oak Brook "}, {"Internal": 1, "Latitude": 40.74255, "Country": "United States", "id": 43, "Longitude": -84.10523, "label": "Lima"}, {"Internal": 1, "Latitude": 41.1306, "Country": "United States", "id": 44, "Longitude": -85.12886, "label": "Fort Wayne"}, {"Internal": 1, "Latitude": 41.68338, "Country": "United States", "id": 45, "Longitude": -86.25001, "label": "South Bend"}, {"Internal": 1, "Latitude": 41.2381, "Country": "United States", "id": 46, "Longitude": -85.85305, "label": "Warsaw"}, {"Internal": 1, "Longitude": -85.6597, "Latitude": 40.54969, "Country": "United States", "id": 47, "geocode_id": "7317018", "label": "Marion"}, {"Internal": 1, "Latitude": 40.48643, "Country": "United States", "id": 48, "Longitude": -86.1336, "label": "Kokomo"}, {"Internal": 1, "Latitude": 41.68199, "Country": "United States", "id": 49, "Longitude": -85.97667, "label": "Elkhart"}, {"Internal": 1, "Latitude": 41.94394, "Country": "United States", "id": 50, "Longitude": -85.63249, "label": "Three Rivers"}, {"Internal": 1, "Latitude": 42.29171, "Country": "United States", "id": 51, "Longitude": -85.58723, "label": "Kalamazoo"}, {"Internal": 1, "Latitude": 41.82977, "Country": "United States", "id": 52, "Longitude": -86.25418, "label": "Niles"}, {"Internal": 1, "Latitude": 39.75895, "Country": "United States", "id": 53, "Longitude": -84.19161, "label": "Dayton "}, {"Internal": 1, "Latitude": 39.162, "Country": "United States", "id": 54, "Longitude": -84.45689, "label": "Cincinnati "}, {"Internal": 1, "Latitude": 43.41947, "Country": "United States", "id": 55, "Longitude": -83.95081, "label": "Saginaw"}, {"Internal": 1, "Latitude": 43.01253, "Country": "United States", "id": 56, "Longitude": -83.68746, "label": "Flint"}, {"Internal": 1, "Latitude": 42.63892, "Country": "United States", "id": 57, "Longitude": -83.29105, "label": "Pontiac"}, {"Internal": 1, "Latitude": 42.4762, "Country": "United States", "id": 58, "Longitude": -83.2428, "label": "Southfield/Detroit"}, {"Internal": 1, "Latitude": 41.66394, "Country": "United States", "id": 59, "Longitude": -83.55521, "label": "Toledo"}, {"Internal": 1, "Latitude": 41.4995, "Country": "United States", "id": 60, "Longitude": -81.69541, "label": "Cleveland"}, {"Internal": 1, "Latitude": 41.08144, "Country": "United States", "id": 61, "Longitude": -81.51901, "label": "Akron"}, {"Internal": 1, "Latitude": 39.96118, "Country": "United States", "id": 62, "Longitude": -82.99879, "label": "Columbus "}], "links": [{"source": 0, "id": "e16", "target": 3}, {"source": 0, "id": "e18", "target": 11}, {"source": 0, "id": "e14", "target": 2}, {"source": 0, "id": "e20", "target": 19}, {"source": 0, "id": "e19", "target": 21}, {"source": 1, "id": "e17", "target": 3}, {"source": 1, "id": "e21", "target": 6}, {"source": 2, "id": "e13", "target": 54}, {"source": 2, "id": "e15", "target": 6}, {"source": 5, "id": "e24", "target": 10}, {"source": 5, "id": "e23", "target": 20}, {"source": 6, "id": "e22", "target": 7}, {"source": 8, "id": "e2", "target": 56}, {"source": 8, "id": "e76", "target": 9}, {"source": 8, "id": "e73", "target": 28}, {"source": 8, "id": "e69", "target": 12}, {"source": 9, "id": "e77", "target": 26}, {"source": 9, "id": "e68", "target": 15}, {"source": 10, "id": "e25", "target": 25}, {"source": 11, "id": "e26", "target": 48}, {"source": 11, "id": "e27", "target": 14}, {"source": 12, "id": "e39", "target": 51}, {"source": 12, "id": "e70", "target": 13}, {"source": 13, "id": "e72", "target": 28}, {"source": 13, "id": "e71", "target": 27}, {"source": 14, "id": "e65", "target": 41}, {"source": 15, "id": "e38", "target": 51}, {"source": 16, "id": "e53", "target": 17}, {"source": 16, "id": "e52", "target": 42}, {"source": 17, "id": "e54", "target": 36}, {"source": 17, "id": "e55", "target": 37}, {"source": 18, "id": "e44", "target": 19}, {"source": 18, "id": "e30", "target": 47}, {"source": 20, "id": "e45", "target": 22}, {"source": 20, "id": "e46", "target": 21}, {"source": 22, "id": "e47", "target": 32}, {"source": 23, "id": "e49", "target": 32}, {"source": 23, "id": "e48", "target": 24}, {"source": 24, "id": "e50", "target": 25}, {"source": 25, "id": "e51", "target": 32}, {"source": 26, "id": "e6", "target": 58}, {"source": 27, "id": "e78", "target": 33}, {"source": 28, "id": "e74", "target": 31}, {"source": 29, "id": "e34", "target": 45}, {"source": 29, "id": "e66", "target": 30}, {"source": 30, "id": "e67", "target": 32}, {"source": 30, "id": "e62", "target": 42}, {"source": 31, "id": "e75", "target": 33}, {"source": 33, "id": "e1", "target": 55}, {"source": 34, "id": "e43", "target": 43}, {"source": 34, "id": "e9", "target": 60}, {"source": 34, "id": "e11", "target": 62}, {"source": 35, "id": "e56", "target": 36}, {"source": 35, "id": "e57", "target": 38}, {"source": 37, "id": "e59", "target": 40}, {"source": 37, "id": "e58", "target": 38}, {"source": 39, "id": "e60", "target": 40}, {"source": 39, "id": "e61", "target": 42}, {"source": 41, "id": "e63", "target": 42}, {"source": 41, "id": "e64", "target": 42}, {"source": 43, "id": "e42", "target": 44}, {"source": 44, "id": "e41", "target": 49}, {"source": 44, "id": "e29", "target": 47}, {"source": 45, "id": "e35", "target": 49}, {"source": 45, "id": "e33", "target": 52}, {"source": 45, "id": "e32", "target": 46}, {"source": 46, "id": "e31", "target": 47}, {"source": 47, "id": "e28", "target": 48}, {"source": 49, "id": "e40", "target": 50}, {"source": 49, "id": "e7", "target": 59}, {"source": 50, "id": "e37", "target": 51}, {"source": 51, "id": "e36", "target": 52}, {"source": 53, "id": "e12", "target": 54}, {"source": 53, "id": "e10", "target": 62}, {"source": 55, "id": "e0", "target": 56}, {"source": 56, "id": "e3", "target": 57}, {"source": 57, "id": "e4", "target": 58}, {"source": 58, "id": "e5", "target": 59}, {"source": 59, "id": "e8", "target": 60}], "multigraph": true}