{"directed": false, "graph": [["DateObtained", "20/10/10"], ["GeoLocation", "Vietnam"], ["GeoExtent", "Country"], ["DateModifier", "="], ["Customer", 0], ["Network", "VinaREN"], ["IX", 0], ["Provenance", "Secondary"], ["Access", 0], ["Source", "http://www.apan.net/meetings/newzealand2008/presentations/medical/VinaREN-Updates-APAN26-nt.ppt"], ["Version", "1.0"], ["DateMonth", 0], ["DateYear", "2009"], ["DateType", "Historic"], ["LastAccess", "21/10/10"], ["Layer", "IP"], ["Creator", "Topology Zoo Toolset"], ["Type", "REN"], ["SourceGitVersion", "e278b1b"], ["Backbone", 1], ["Commercial", 0], ["NetworkDate", "2009"], ["label", "Vinaren"], ["LastProcessed", "2011_09_01"], ["Testbed", 0], ["Developed", 0], ["ToolsetVersion", "0.3.34dev-20120328"], ["Transit", 0]], "nodes": [{"Internal": 1, "Latitude": 16.46667, "Country": "Vietnam", "type": "VinaREN NOC", "id": 0, "Longitude": 107.6, "label": "Hue"}, {"Internal": 1, "Latitude": 21.0245, "Country": "Vietnam", "type": "VinaREN NOC", "id": 1, "Longitude": 105.84117, "label": "VN HN"}, {"Internal": 1, "Latitude": 10.75, "Country": "Vietnam", "type": "VinaREN NOC", "id": 2, "Longitude": 106.66667, "label": "HCM"}, {"Internal": 1, "Latitude": 16.06778, "Country": "Vietnam", "type": "VinaREN NOC", "id": 3, "Longitude": 108.22083, "label": "DN"}, {"geocode_country": "Korea", "Country": "South Korea", "Longitude": 127.5, "label": "KR", "Internal": 1, "Latitude": 37.0, "type": "TEIN 2 NREN NOC", "id": 4}, {"geocode_country": "Japan", "Country": "Japan", "Longitude": 139.75309, "label": "JP", "Internal": 1, "Latitude": 35.68536, "type": "TEIN 2 NREN NOC", "id": 5}, {"geocode_country": "Hong Kong", "Country": "Hong Kong", "Longitude": 114.16667, "label": "HK", "Internal": 1, "Latitude": 22.25, "type": "TEIN 2 NOC", "id": 6}, {"geocode_country": "China", "Country": "China", "Longitude": 105.0, "label": "CN", "Internal": 1, "Latitude": 35.0, "type": "TEIN 2 NOC", "id": 7}, {"geocode_country": "Philippines", "Country": "Philippines", "Longitude": 122.0, "label": "PH", "Internal": 1, "Latitude": 13.0, "type": "TEIN 2 NREN NOC", "id": 8}, {"Internal": 1, "Latitude": 12.25, "Country": "Vietnam", "type": "Member Network", "id": 9, "Longitude": 109.18333, "label": "Nha Trang"}, {"Internal": 1, "Latitude": 10.25, "Country": "Vietnam", "type": "Member Network", "id": 10, "Longitude": 105.96667, "label": "Vinh"}, {"Internal": 1, "Latitude": 21.59278, "Country": "Vietnam", "type": "Member Network", "id": 11, "Longitude": 105.84417, "label": "Thai Nguyen"}, {"Internal": 1, "Latitude": 10.38333, "Country": "Vietnam", "type": "Member Network", "id": 12, "Longitude": 105.41667, "label": "An Giang"}, {"Internal": 1, "Latitude": 11.94646, "Country": "Vietnam", "type": "Member Network", "id": 13, "Longitude": 108.44193, "label": "Da Lat"}, {"Internal": 1, "Latitude": 20.85611, "Country": "Vietnam", "type": "Member Network", "id": 14, "Longitude": 106.68222, "label": "Hai Phong"}, {"geocode_country": "Australia", "Country": "Australia", "Longitude": 135.0, "label": "AU", "Internal": 1, "Latitude": -25.0, "type": "TEIN 2 NREN NOC", "id": 15}, {"Internal": 1, "Latitude": 10.03333, "Country": "Vietnam", "type": "VinaREN NOC", "id": 16, "Longitude": 105.78333, "label": "CT"}, {"geocode_country": "Thailand", "Country": "Thailand", "Longitude": 100.0, "label": "TH", "Internal": 1, "Latitude": 15.0, "type": "TEIN 2 NREN NOC", "id": 17}, {"geocode_country": "Malaysia", "Country": "Malaysia", "Longitude": 112.5, "label": "MY", "Internal": 1, "Latitude": 2.5, "type": "TEIN 2 NREN NOC", "id": 18}, {"geocode_country": "Indonesia", "Country": "Indonesia", "Longitude": 120.0, "label": "ID", "Internal": 1, "Latitude": -5.0, "type": "TEIN 2 NREN NOC", "id": 19}, {"Internal": 0, "id": 20, "label": "Abilene Internet2 USA"}, {"Internal": 0, "id": 21, "label": "Internet"}, {"Internal": 0, "id": 22, "label": "EU"}, {"Internal": 0, "id": 23, "label": "EU"}, {"geocode_country": "Singapore", "Country": "Singapore", "Longitude": 103.8, "label": "SG", "Internal": 1, "Latitude": 1.36667, "type": "TEIN 2 NOC", "id": 24}], "links": [{"source": 0, "id": "e17", "target": 3}, {"source": 1, "LinkLabel": "155Mbs/1Gbps", "target": 2}, {"LinkSpeed": "45", "source": 1, "LinkLabel": "45Mbps", "target": 3, "LinkSpeedUnits": "M", "LinkSpeedRaw": 45000000.0}, {"LinkSpeed": "155", "source": 1, "LinkLabel": "45/155 Mbps", "target": 6, "LinkNote": "45/ ", "LinkSpeedUnits": "M", "LinkSpeedRaw": 155000000.0}, {"LinkSpeed": "20", "source": 1, "LinkLabel": "20Mbps", "target": 10, "LinkSpeedUnits": "M", "LinkSpeedRaw": 20000000.0}, {"LinkSpeed": "20", "source": 1, "LinkLabel": "20Mbps", "target": 11, "LinkSpeedUnits": "M", "LinkSpeedRaw": 20000000.0}, {"source": 1, "id": "e22", "target": 14}, {"LinkSpeed": "40", "source": 1, "LinkLabel": "40Mpbs", "target": 21, "LinkNote": "bs", "LinkSpeedUnits": "M", "LinkSpeedRaw": 40000000.0}, {"source": 2, "id": "e11", "target": 16}, {"LinkSpeed": "45", "source": 2, "LinkLabel": "45 Mbps", "target": 3, "LinkSpeedUnits": "M", "LinkSpeedRaw": 45000000.0}, {"LinkSpeed": "20", "source": 2, "LinkLabel": "20Mbps", "target": 13, "LinkSpeedUnits": "M", "LinkSpeedRaw": 20000000.0}, {"LinkSpeed": "20", "source": 3, "LinkLabel": "20Mbps", "target": 9, "LinkSpeedUnits": "M", "LinkSpeedRaw": 20000000.0}, {"LinkSpeed": "622", "source": 4, "LinkLabel": "622Mbps", "target": 24, "LinkSpeedUnits": "M", "LinkSpeedRaw": 622000000.0}, {"LinkSpeed": "155", "source": 5, "LinkLabel": "155 Mbps", "target": 8, "LinkSpeedUnits": "M", "LinkSpeedRaw": 155000000.0}, {"LinkSpeed": "622", "source": 5, "LinkLabel": "622 Mbps", "target": 24, "LinkSpeedUnits": "M", "LinkSpeedRaw": 622000000.0}, {"source": 5, "id": "e3", "target": 20}, {"LinkSpeed": "622", "source": 5, "LinkLabel": "622Mbps", "target": 6, "LinkSpeedUnits": "M", "LinkSpeedRaw": 622000000.0}, {"LinkSpeed": "622", "source": 6, "LinkLabel": "622Mbps", "target": 24, "LinkSpeedUnits": "M", "LinkSpeedRaw": 622000000.0}, {"LinkSpeed": "622", "source": 6, "LinkLabel": "622 Mbps", "target": 7, "LinkSpeedUnits": "M", "LinkSpeedRaw": 622000000.0}, {"LinkSpeed": "2.5", "source": 7, "LinkLabel": "2.5Gbps", "target": 22, "LinkSpeedUnits": "G", "LinkSpeedRaw": 2500000000.0}, {"LinkSpeed": "20", "source": 12, "LinkLabel": "20Mbps", "target": 16, "LinkSpeedUnits": "M", "LinkSpeedRaw": 20000000.0}, {"source": 15, "LinkLabel": "4x155Mbps", "target": 24}, {"LinkSpeed": "155", "source": 17, "LinkLabel": "155 Mbps", "target": 24, "LinkSpeedUnits": "M", "LinkSpeedRaw": 155000000.0}, {"LinkSpeed": "45", "source": 18, "LinkLabel": "45 Mbps", "target": 24, "LinkSpeedUnits": "M", "LinkSpeedRaw": 45000000.0}, {"LinkSpeed": "45", "source": 19, "LinkLabel": "45Mbps", "target": 24, "LinkSpeedUnits": "M", "LinkSpeedRaw": 45000000.0}, {"source": 23, "LinkLabel": "3 x 622Mbps", "target": 24}], "multigraph": true}