{"directed": false, "graph": [["DateObtained", "19/10/10"], ["GeoLocation", "Europe"], ["GeoExtent", "Continent"], ["DateModifier", "="], ["Customer", 1], ["Network", "Viatel"], ["IX", 0], ["Provenance", "Primary"], ["Note", "Some town names found using maps (St Christophe, St Martin, Linz, Kappela, Fos, Snow Hill). Unsure about Snow Hill, closest approximate match used.  Pichegu from http://www.brl.fr/extension-du-reseau-ethernet-de-la-station-de-pichegu-vers-baisse-redonne-et-la-prise-au-rhone-27-34-401-d-27.html"], ["Source", "http://www.vtlwavenet.com/assets/INT_Networkmap.pdf"], ["Version", "1.0"], ["DateMonth", 0], ["DateYear", "2008"], ["DateType", "Historic"], ["LastAccess", "3/08/10"], ["Access", 0], ["Layer", "Fibre"], ["Creator", "Topology Zoo Toolset"], ["Type", "COM"], ["SourceGitVersion", "e278b1b"], ["Backbone", 1], ["Commercial", 0], ["NetworkDate", "2008"], ["label", "VtlWavenet2008"], ["LastProcessed", "2011_09_01"], ["Testbed", 0], ["Developed", 0], ["ToolsetVersion", "0.3.34dev-20120328"], ["Transit", 1]], "nodes": [{"Internal": 1, "Latitude": 46.75368, "Country": "Switzerland", "type": "Transmission Site", "id": 0, "Longitude": 7.14609, "label": "Ependes"}, {"Internal": 1, "Latitude": 47.34999, "Country": "Switzerland", "type": "Transmission Site", "id": 1, "Longitude": 7.90329, "label": "Olten"}, {"Internal": 1, "Latitude": 48.18333, "Country": "France", "type": "Transmission Site", "id": 2, "Longitude": 2.73333, "label": "Souppes"}, {"Internal": 1, "Latitude": 47.63343, "Country": "France", "type": "Transmission Site", "id": 3, "Longitude": 2.7438, "label": "Briare"}, {"Internal": 1, "Latitude": 46.98956, "Country": "France", "type": "Transmission Site", "id": 4, "Longitude": 3.159, "label": "Nevers"}, {"Internal": 1, "Latitude": 46.62214, "Country": "France", "type": "Transmission Site", "id": 5, "Longitude": 3.76953, "label": "Bourbon"}, {"Internal": 1, "Latitude": 46.43333, "Country": "France", "type": "Transmission Site", "id": 6, "Longitude": 4.28333, "label": "Charolles"}, {"Internal": 1, "Latitude": 46.1, "Country": "France", "type": "Transmission Site", "id": 7, "Longitude": 4.75, "label": "Belleville"}, {"Internal": 1, "Latitude": 45.85, "Country": "France", "type": "Transmission Site", "id": 8, "Longitude": 5.41667, "label": "Sault Brenaz"}, {"Internal": 1, "Latitude": 45.8, "Country": "France", "type": "Transmission Site", "id": 9, "Longitude": 5.76667, "label": "Lavours"}, {"Internal": 1, "Latitude": 45.75, "Country": "France", "type": "Point of Presence", "id": 10, "Longitude": 4.85, "label": "Lyon"}, {"hyperedge": 1, "Internal": 1, "id": 11, "label": "None"}, {"geocode_append": "Arrondissement de Nimes", "Country": "France", "Longitude": 4.75, "label": "Montfaucon", "Internal": 1, "Latitude": 44.08333, "type": "Transmission Site", "id": 12}, {"Internal": 1, "Latitude": 51.21667, "Country": "Belgium", "type": "Point of Presence", "id": 13, "Longitude": 4.41667, "label": "Antwerp (NMBS)"}, {"Internal": 1, "Latitude": 43.60426, "Country": "France", "type": "Point of Presence", "id": 14, "Longitude": 1.44367, "label": "Toulouse"}, {"Internal": 1, "Latitude": 50.85045, "Country": "Belgium", "type": "Point of Presence", "id": 15, "Longitude": 4.34878, "label": "Brussels MIDI (NMBS)"}, {"Internal": 1, "Latitude": 43.29695, "Country": "France", "type": "Point of Presence", "id": 16, "Longitude": 5.38107, "label": "Marseille"}, {"Internal": 1, "Latitude": 44.83333, "Country": "France", "type": "Point of Presence", "id": 17, "Longitude": -0.56667, "label": "Bordeaux"}, {"Internal": 1, "Latitude": 49.00202, "Country": "France", "type": "Transmission Site", "id": 18, "Longitude": 3.36786, "label": "Azy-sur-Marne"}, {"Internal": 1, "Latitude": 48.95, "Country": "France", "type": "Transmission Site", "id": 19, "Longitude": 2.86667, "label": "Meaux"}, {"Internal": 1, "Latitude": 48.83333, "Country": "France", "type": "Transmission Site", "id": 20, "Longitude": 4.98333, "label": "Revigny"}, {"Internal": 1, "Latitude": 49.05, "Country": "France", "type": "Transmission Site", "id": 21, "Longitude": 4.18333, "label": "Conde-sur-Marne"}, {"Internal": 1, "Latitude": 50.68333, "Country": "France", "type": "Transmission Site", "id": 22, "Longitude": 3.25, "label": "Leers-Nord Estampuis"}, {"Internal": 1, "Latitude": 50.56765, "Country": "Belgium", "type": "Transmission Site", "id": 23, "Longitude": 3.4492, "label": "Antoing (NMBS)"}, {"Internal": 1, "Latitude": 49.47591, "Country": "France", "type": "Transmission Site", "id": 24, "Longitude": 2.8821, "label": "Thourotte"}, {"Internal": 1, "Latitude": 50.45, "Country": "France", "type": "Transmission Site", "id": 25, "Longitude": 2.93333, "label": "Courrieres"}, {"Internal": 1, "Latitude": 51.05, "Country": "Belgium", "type": "Transmission Site", "id": 26, "Longitude": 3.71667, "label": "Gent"}, {"Internal": 1, "Latitude": 51.21667, "Country": "Belgium", "type": "Transmission Site", "id": 27, "Longitude": 4.41667, "label": "Antwerp"}, {"Internal": 1, "Latitude": 46.94809, "Country": "Switzerland", "type": "Point of Presence", "id": 28, "Longitude": 7.44744, "label": "Bern"}, {"Internal": 1, "Latitude": 47.36667, "Country": "Switzerland", "type": "Point of Presence", "id": 29, "Longitude": 8.55, "label": "Zurich"}, {"Internal": 1, "Latitude": 47.56667, "Country": "Switzerland", "type": "Point of Presence", "id": 30, "Longitude": 7.6, "label": "Basel"}, {"Internal": 1, "Latitude": 48.68333, "Country": "France", "type": "Point of Presence", "id": 31, "Longitude": 6.2, "label": "Nancy"}, {"Internal": 1, "Latitude": 48.58333, "Country": "France", "type": "Point of Presence", "id": 32, "Longitude": 7.75, "label": "Strasbourg"}, {"Internal": 1, "Latitude": 49.48833, "Country": "Germany", "type": "Point of Presence", "id": 33, "Longitude": 8.46472, "label": "Mannheim"}, {"Internal": 1, "Latitude": 50.11667, "Country": "Germany", "type": "Point of Presence", "id": 34, "Longitude": 8.68333, "label": "Frankfurt"}, {"Internal": 1, "Latitude": 50.11667, "Country": "Germany", "type": "Point of Presence", "id": 35, "Longitude": 8.68333, "label": "Internexion"}, {"Internal": 1, "Latitude": 48.85341, "Country": "France", "type": "Point of Presence", "id": 36, "Longitude": 2.3488, "label": "Paris La Defense"}, {"Internal": 1, "Latitude": 46.20222, "Country": "Switzerland", "type": "Point of Presence", "id": 37, "Longitude": 6.14569, "label": "Geneva"}, {"Internal": 1, "Latitude": 51.41667, "Country": "United Kingdom", "type": "Point of Presence", "id": 38, "Longitude": -0.56667, "label": "Egham"}, {"Internal": 1, "Latitude": 51.50853, "Country": "United Kingdom", "type": "Point of Presence", "id": 39, "Longitude": -0.12574, "label": "London Telehouse North"}, {"Internal": 1, "Latitude": 52.48333, "Country": "United Kingdom", "type": "Point of Presence", "id": 40, "Longitude": 1.75, "label": "Lowestoft"}, {"Internal": 1, "Latitude": 52.37403, "Country": "Netherlands", "type": "Point of Presence", "id": 41, "Longitude": 4.88969, "label": "Amsterdam (Schipluidlaan/Deflandlaan)"}, {"Internal": 1, "Latitude": 48.85341, "Country": "France", "type": "Point of Presence", "id": 42, "Longitude": 2.3488, "label": "Paris (35Rdj)"}, {"Internal": 1, "Latitude": 49.91667, "Country": "France", "type": "Point of Presence", "id": 43, "Longitude": 2.91667, "label": "Biaches"}, {"Internal": 1, "Latitude": 49.9, "Country": "France", "type": "Point of Presence", "id": 44, "Longitude": 2.3, "label": "Amiens"}, {"Internal": 1, "Latitude": 51.11303, "Country": "United Kingdom", "type": "Point of Presence", "id": 45, "Longitude": -0.18312, "label": "Crawley"}, {"Internal": 1, "Latitude": 51.9225, "Country": "Netherlands", "type": "Point of Presence", "id": 46, "Longitude": 4.47917, "label": "Rotterdam"}, {"Internal": 1, "Latitude": 50.85045, "Country": "Belgium", "type": "Point of Presence", "id": 47, "Longitude": 4.34878, "label": "Brussels Tollaan"}, {"Internal": 1, "Latitude": 43.8292, "Country": "France", "type": "Transmission Site", "id": 48, "Longitude": 1.29673, "label": "Grisolles"}, {"Internal": 1, "Latitude": 44.18333, "Country": "France", "type": "Transmission Site", "id": 49, "Longitude": 0.68333, "label": "Bon-Encontre"}, {"Internal": 1, "Latitude": 47.58333, "Country": "France", "type": "Transmission Site", "id": 50, "Longitude": 1.33333, "label": "Blois"}, {"Internal": 1, "Latitude": 47.91667, "Country": "France", "type": "Transmission Site", "id": 51, "Longitude": 7.55, "label": "Nambsheim"}, {"Internal": 1, "Latitude": 46.58333, "Country": "France", "type": "Transmission Site", "id": 52, "Longitude": 0.33333, "label": "Availles (Poiters)"}, {"Internal": 1, "Latitude": 47.38333, "Country": "France", "type": "Transmission Site", "id": 53, "Longitude": 0.68333, "label": "Veretz (Tours)"}, {"Internal": 1, "Latitude": 45.63333, "Country": "France", "type": "Transmission Site", "id": 54, "Longitude": 0.05, "label": "Nersac"}, {"Internal": 1, "Latitude": 46.05, "Country": "France", "type": "Transmission Site", "id": 55, "Longitude": -0.43333, "label": "Blanzay"}, {"Internal": 1, "Latitude": 44.51667, "Country": "France", "type": "Transmission Site", "id": 56, "Longitude": 0.03333, "label": "Meilhan"}, {"Internal": 1, "Latitude": 44.88333, "Country": "France", "type": "Transmission Site", "id": 57, "Longitude": -0.1, "label": "St-Christophe"}, {"Internal": 1, "Latitude": 45.23333, "Country": "France", "type": "Transmission Site", "id": 58, "Longitude": 4.8, "label": "Andancette"}, {"Internal": 1, "Latitude": 51.22172, "Country": "Germany", "type": "Point of Presence", "id": 59, "Longitude": 6.77616, "label": "Dusseldorf"}, {"Internal": 1, "Latitude": 43.69084, "Country": "France", "type": "Transmission Site", "id": 60, "Longitude": 5.20709, "label": "Cazan"}, {"Internal": 1, "Latitude": 44.56667, "Country": "France", "type": "Transmission Site", "id": 61, "Longitude": 4.75, "label": "Montelimar"}, {"Internal": 1, "Latitude": 43.75, "Country": "France", "type": "Transmission Site", "id": 62, "Longitude": 4.51667, "label": "Pichegu"}, {"Internal": 1, "Latitude": 43.43774, "Country": "France", "type": "Transmission Site", "id": 63, "Longitude": 4.94457, "label": "Fos"}, {"Internal": 1, "Latitude": 43.31667, "Country": "France", "type": "Transmission Site", "id": 64, "Longitude": 3.08333, "label": "Poilhes"}, {"Internal": 1, "Latitude": 43.6, "Country": "France", "type": "Transmission Site", "id": 65, "Longitude": 3.88333, "label": "Sete (Montpellier)"}, {"Internal": 1, "Latitude": 43.36667, "Country": "France", "type": "Transmission Site", "id": 66, "Longitude": 1.8, "label": "Avignonet"}, {"Internal": 1, "Latitude": 43.2, "Country": "France", "type": "Transmission Site", "id": 67, "Longitude": 2.55, "label": "Marseillette"}, {"Internal": 1, "Latitude": 47.91667, "Country": "France", "type": "Transmission Site", "id": 68, "Longitude": 1.9, "label": "Artenay (Orleans)"}, {"geocode_append": "Saint-Martin-en-Biere", "Country": "France", "Longitude": 2.56667, "label": "St-Martin", "Internal": 1, "Latitude": 48.43333, "type": "Transmission Site", "id": 69}, {"Internal": 1, "Latitude": 52.07861, "Country": "United Kingdom", "type": "Transmission Site", "id": 70, "Longitude": 0.58167, "label": "Snow Hill"}, {"Internal": 1, "Latitude": 52.27051, "Country": "United Kingdom", "type": "Transmission Site", "id": 71, "Longitude": 0.82103, "label": "Pakenham"}, {"Internal": 1, "Latitude": 52.37487, "Country": "Netherlands", "type": "Transmission Site", "id": 72, "Longitude": 4.53409, "label": "Zandvoort"}, {"geocode_append": "Belgium", "Country": "Belgium", "Longitude": 4.45393, "label": "Essen", "Internal": 1, "Latitude": 51.46272, "type": "Transmission Site", "id": 73}, {"Internal": 1, "Latitude": 48.6, "Country": "France", "type": "Transmission Site", "id": 74, "Longitude": 2.48333, "label": "Corbeil"}, {"Internal": 1, "Latitude": 49.10744, "Country": "France", "type": "Transmission Site", "id": 75, "Longitude": 2.22818, "label": "L'Isle Adam"}, {"Internal": 1, "Latitude": 50.182, "Country": "France", "type": "Transmission Site", "id": 76, "Longitude": 1.494, "label": "Cayeux-sur-Mer"}, {"Internal": 1, "Latitude": 50.8, "Country": "United Kingdom", "type": "Transmission Site", "id": 77, "Longitude": 0.23333, "label": "Polegate"}, {"Internal": 1, "Latitude": 48.7, "Country": "France", "type": "Transmission Site", "id": 78, "Longitude": 7.0, "label": "Xouxange"}, {"Internal": 1, "Latitude": 48.7, "Country": "France", "type": "Transmission Site", "id": 79, "Longitude": 5.7, "label": "Troussey"}, {"Internal": 1, "Latitude": 51.86667, "Country": "Germany", "type": "Transmission Site", "id": 80, "Longitude": 6.15, "label": "Elten"}, {"Internal": 1, "Latitude": 52.01167, "Country": "Netherlands", "type": "Transmission Site", "id": 81, "Longitude": 5.42778, "label": "Leersum/Doorn??"}, {"Internal": 1, "Latitude": 51.56667, "Country": "Germany", "type": "Transmission Site", "id": 82, "Longitude": 6.36667, "label": "Kapella"}, {"Internal": 1, "Latitude": 50.88333, "Country": "Germany", "type": "Transmission Site", "id": 83, "Longitude": 7.05, "label": "Porz"}, {"Internal": 1, "Latitude": 50.56667, "Country": "Germany", "type": "Transmission Site", "id": 84, "Longitude": 7.28333, "label": "Linz"}, {"Internal": 1, "Latitude": 50.55, "Country": "Germany", "type": "Transmission Site", "id": 85, "Longitude": 7.6, "label": "Dernbach"}, {"Internal": 1, "Latitude": 50.13333, "Country": "Germany", "type": "Transmission Site", "id": 86, "Longitude": 8.3, "label": "Naurod"}, {"Internal": 1, "Latitude": 48.9, "Country": "France", "type": "Transmission Site", "id": 87, "Longitude": 7.16667, "label": "Berg"}], "links": [{"source": 0, "id": "e54", "target": 28}, {"source": 0, "id": "e55", "target": 37}, {"source": 1, "id": "e57", "target": 28}, {"source": 1, "id": "e56", "target": 29}, {"source": 2, "id": "e40", "target": 74}, {"source": 2, "id": "e45", "target": 3}, {"source": 3, "id": "e46", "target": 4}, {"source": 4, "id": "e47", "target": 5}, {"source": 5, "id": "e48", "target": 6}, {"source": 6, "id": "e49", "target": 7}, {"source": 7, "id": "e50", "target": 11}, {"source": 8, "id": "e52", "target": 9}, {"source": 8, "id": "e51", "target": 11}, {"source": 9, "id": "e53", "target": 37}, {"source": 10, "id": "e81", "target": 58}, {"source": 10, "id": "e91", "target": 11}, {"source": 12, "id": "e77", "target": 60}, {"source": 12, "id": "e79", "target": 61}, {"source": 13, "id": "e30", "target": 73}, {"source": 13, "id": "e27", "target": 27}, {"source": 14, "id": "e69", "target": 48}, {"source": 14, "id": "e70", "target": 66}, {"source": 15, "id": "e90", "target": 47}, {"source": 15, "id": "e25", "target": 23}, {"source": 16, "id": "e78", "target": 60}, {"source": 16, "id": "e76", "target": 63}, {"source": 17, "id": "e67", "target": 56}, {"source": 17, "id": "e65", "target": 57}, {"source": 18, "id": "e17", "target": 19}, {"source": 18, "id": "e16", "target": 21}, {"source": 19, "id": "e18", "target": 42}, {"source": 20, "id": "e15", "target": 21}, {"source": 20, "id": "e14", "target": 79}, {"source": 22, "id": "e21", "target": 25}, {"source": 22, "id": "e24", "target": 26}, {"source": 22, "id": "e23", "target": 23}, {"source": 24, "id": "e20", "target": 43}, {"source": 24, "id": "e19", "target": 75}, {"source": 25, "id": "e22", "target": 43}, {"source": 26, "id": "e26", "target": 47}, {"source": 27, "id": "e28", "target": 47}, {"source": 29, "id": "e84", "target": 30}, {"source": 30, "id": "e58", "target": 51}, {"source": 31, "id": "e11", "target": 78}, {"source": 31, "id": "e13", "target": 79}, {"source": 32, "id": "e59", "target": 51}, {"source": 32, "id": "e12", "target": 78}, {"source": 32, "id": "e10", "target": 87}, {"source": 33, "id": "e83", "target": 35}, {"source": 33, "id": "e9", "target": 87}, {"source": 34, "id": "e82", "target": 35}, {"source": 34, "id": "e8", "target": 86}, {"source": 36, "id": "e85", "target": 42}, {"source": 36, "id": "e39", "target": 75}, {"source": 38, "id": "e87", "target": 45}, {"source": 38, "id": "e88", "target": 39}, {"source": 39, "id": "e35", "target": 70}, {"source": 40, "id": "e31", "target": 72}, {"source": 40, "id": "e33", "target": 71}, {"source": 41, "id": "e32", "target": 72}, {"source": 41, "id": "e2", "target": 81}, {"source": 41, "id": "e89", "target": 46}, {"source": 42, "id": "e41", "target": 74}, {"source": 42, "id": "e43", "target": 69}, {"source": 43, "id": "e86", "target": 44}, {"source": 44, "id": "e38", "target": 76}, {"source": 45, "id": "e36", "target": 77}, {"source": 46, "id": "e29", "target": 73}, {"source": 48, "id": "e68", "target": 49}, {"source": 49, "id": "e66", "target": 56}, {"source": 50, "id": "e44", "target": 68}, {"source": 50, "id": "e60", "target": 53}, {"source": 52, "id": "e61", "target": 53}, {"source": 52, "id": "e62", "target": 55}, {"source": 54, "id": "e64", "target": 57}, {"source": 54, "id": "e63", "target": 55}, {"source": 58, "id": "e80", "target": 61}, {"source": 59, "id": "e3", "target": 82}, {"source": 59, "id": "e4", "target": 83}, {"source": 62, "id": "e74", "target": 65}, {"source": 62, "id": "e75", "target": 63}, {"source": 64, "id": "e73", "target": 65}, {"source": 64, "id": "e72", "target": 67}, {"source": 66, "id": "e71", "target": 67}, {"source": 68, "id": "e42", "target": 69}, {"source": 70, "id": "e34", "target": 71}, {"source": 76, "id": "e37", "target": 77}, {"source": 80, "id": "e0", "target": 81}, {"source": 80, "id": "e1", "target": 82}, {"source": 83, "id": "e5", "target": 84}, {"source": 84, "id": "e6", "target": 85}, {"source": 85, "id": "e7", "target": 86}], "multigraph": true}