{"directed": false, "graph": [["DateObtained", "20/10/10"], ["GeoLocation", "Japan"], ["GeoExtent", "Country"], ["DateModifier", "="], ["Customer", 0], ["Network", "WIDE"], ["IX", 0], ["Provenance", "Primary"], ["Access", 0], ["Source", "http://two.wide.ad.jp/"], ["Version", "1.0"], ["DateMonth", 0], ["DateYear", "2007"], ["DateType", "Historic"], ["LastAccess", "21/10/10"], ["Layer", "IP"], ["Creator", "Topology Zoo Toolset"], ["Type", "REN"], ["SourceGitVersion", "e278b1b"], ["Backbone", 1], ["Commercial", 0], ["NetworkDate", "2007"], ["label", "WideJpn"], ["LastProcessed", "2011_09_01"], ["Testbed", 1], ["Developed", 1], ["ToolsetVersion", "0.3.34dev-20120328"], ["Transit", 1]], "nodes": [{"Internal": 1, "Latitude": 35.68333, "Country": "Japan", "id": 0, "Longitude": 139.76667, "label": "KDDI Otemachi"}, {"Internal": 1, "Latitude": 35.71732, "Country": "Japan", "id": 1, "Longitude": 139.76575, "label": "Nezu"}, {"Internal": 1, "Latitude": 32.76667, "Country": "Japan", "id": 2, "Longitude": 129.95, "label": "Yagami"}, {"Internal": 1, "Latitude": 35.55159, "Country": "Japan", "id": 3, "Longitude": 139.6716, "label": "ShinKawasaki"}, {"Internal": 1, "Latitude": 35.65583, "Country": "Japan", "id": 4, "Longitude": 139.32389, "label": "Hachioji"}, {"Internal": 1, "Latitude": 13.75, "Country": "Thailand", "id": 5, "Longitude": 100.51667, "label": "Bangkok"}, {"Internal": 1, "Latitude": 35.68333, "Country": "Japan", "id": 6, "Longitude": 139.76667, "label": "NTT Otemachi"}, {"Internal": 1, "Latitude": 36.2, "Country": "Japan", "id": 7, "Longitude": 140.1, "label": "Tsukuba"}, {"Internal": 0, "id": 8, "label": "NSPIXP-3"}, {"Internal": 0, "id": 9, "label": "JGN2Plus"}, {"Internal": 1, "Latitude": 34.68333, "Country": "Japan", "id": 10, "Longitude": 135.48333, "label": "Dojima"}, {"Internal": 0, "id": 11, "label": "PAIX"}, {"Internal": 0, "id": 12, "label": "TITECH"}, {"Internal": 0, "id": 13, "label": "T-Lex"}, {"Internal": 0, "id": 14, "label": "JGN2Plus"}, {"Internal": 0, "id": 15, "label": "AI3"}, {"Internal": 0, "id": 16, "label": "LAIIX"}, {"Internal": 0, "id": 17, "label": "DIX-IE"}, {"Internal": 0, "id": 18, "label": "KDDI"}, {"Internal": 0, "id": 19, "label": "APAN"}, {"Internal": 1, "Latitude": 34.05223, "Country": "United States", "id": 20, "Longitude": -118.24368, "label": "Los Angeles"}, {"Internal": 1, "Latitude": 35.34194, "Country": "Japan", "id": 21, "Longitude": 139.47, "label": "Fujisawa"}, {"Internal": 1, "Latitude": 34.68505, "Country": "Japan", "id": 22, "Longitude": 135.80485, "label": "Nara"}, {"Internal": 1, "Latitude": 33.60639, "Country": "Japan", "id": 23, "Longitude": 130.41806, "label": "Fukuoka"}, {"Internal": 1, "Latitude": 34.39627, "Country": "Japan", "id": 24, "Longitude": 132.45937, "label": "Hiroshima"}, {"Internal": 1, "Latitude": 34.58333, "Country": "Japan", "id": 25, "Longitude": 133.76667, "label": "Kurashiki"}, {"Internal": 1, "Latitude": 33.78333, "Country": "Japan", "id": 26, "Longitude": 129.8, "label": "Sakyo"}, {"Internal": 1, "Latitude": 36.40263, "Country": "Japan", "id": 27, "Longitude": 136.45088, "label": "Komatsu"}, {"Internal": 1, "Latitude": 38.26889, "Country": "Japan", "id": 28, "Longitude": 140.87194, "label": "Sendai"}, {"Internal": 1, "Latitude": 37.77493, "Country": "United States", "id": 29, "Longitude": -122.41942, "label": "San Francisco"}], "links": [{"LinkSpeed": "10", "source": 0, "LinkLabel": "10Gbps", "target": 1, "LinkSpeedUnits": "G", "LinkSpeedRaw": 10000000000.0}, {"LinkSpeed": "1", "source": 0, "LinkLabel": "1Gbps", "target": 4, "LinkSpeedUnits": "G", "LinkSpeedRaw": 1000000000.0}, {"LinkSpeed": "10", "source": 0, "LinkLabel": "10Gbps", "target": 6, "LinkSpeedUnits": "G", "LinkSpeedRaw": 10000000000.0}, {"LinkSpeed": "10", "source": 0, "LinkLabel": "10Gbps", "target": 12, "LinkSpeedUnits": "G", "LinkSpeedRaw": 10000000000.0}, {"LinkSpeed": "10", "source": 0, "LinkLabel": "10Gbps", "target": 17, "LinkSpeedUnits": "G", "LinkSpeedRaw": 10000000000.0}, {"LinkSpeed": "1", "source": 0, "LinkLabel": "1Gbps", "target": 18, "LinkSpeedUnits": "G", "LinkSpeedRaw": 1000000000.0}, {"LinkSpeed": "1", "source": 0, "LinkLabel": "1Gbps", "target": 19, "LinkSpeedUnits": "G", "LinkSpeedRaw": 1000000000.0}, {"LinkSpeed": "1", "source": 0, "LinkLabel": "1Gbps", "target": 20, "LinkSpeedUnits": "G", "LinkSpeedRaw": 1000000000.0}, {"LinkSpeed": "10", "source": 1, "LinkLabel": "10Gbps", "target": 2, "LinkSpeedUnits": "G", "LinkSpeedRaw": 10000000000.0}, {"LinkSpeed": "1", "source": 1, "LinkLabel": "1Gbps", "target": 28, "LinkSpeedUnits": "G", "LinkSpeedRaw": 1000000000.0}, {"LinkSpeed": "10", "source": 2, "LinkLabel": "10Gbps", "target": 3, "LinkSpeedUnits": "G", "LinkSpeedRaw": 10000000000.0}, {"LinkSpeed": "10", "source": 2, "LinkLabel": "10Gbps", "target": 21, "LinkSpeedUnits": "G", "LinkSpeedRaw": 10000000000.0}, {"LinkSpeed": "1", "source": 5, "LinkLabel": "1Gbps", "target": 6, "LinkSpeedUnits": "G", "LinkSpeedRaw": 1000000000.0}, {"LinkSpeed": "1", "source": 6, "LinkLabel": "1Gbps", "target": 7, "LinkSpeedUnits": "G", "LinkSpeedRaw": 1000000000.0}, {"LinkSpeed": "10", "source": 6, "LinkLabel": "10Gbps", "target": 10, "LinkSpeedUnits": "G", "LinkSpeedRaw": 10000000000.0}, {"LinkSpeed": "10", "source": 6, "LinkLabel": "10Gbps", "target": 13, "LinkSpeedUnits": "G", "LinkSpeedRaw": 10000000000.0}, {"LinkSpeed": "10", "source": 6, "LinkLabel": "10Gbps", "target": 14, "LinkSpeedUnits": "G", "LinkSpeedRaw": 10000000000.0}, {"LinkSpeed": "10", "source": 6, "LinkLabel": "10Gbps", "target": 27, "LinkSpeedUnits": "G", "LinkSpeedRaw": 10000000000.0}, {"LinkSpeed": "1", "source": 8, "LinkLabel": "1Gbps", "target": 10, "LinkSpeedUnits": "G", "LinkSpeedRaw": 1000000000.0}, {"LinkSpeed": "10", "source": 9, "LinkLabel": "10Gbps", "target": 10, "LinkSpeedUnits": "G", "LinkSpeedRaw": 10000000000.0}, {"LinkSpeed": "10", "source": 10, "LinkLabel": "10Gbps", "target": 22, "LinkSpeedUnits": "G", "LinkSpeedRaw": 10000000000.0}, {"LinkSpeed": "10", "source": 10, "LinkLabel": "10Gbps", "target": 23, "LinkSpeedUnits": "G", "LinkSpeedRaw": 10000000000.0}, {"LinkSpeed": "1", "source": 10, "LinkLabel": "1Gbps", "target": 24, "LinkSpeedUnits": "G", "LinkSpeedRaw": 1000000000.0}, {"LinkSpeed": "10", "source": 10, "LinkLabel": "10Gbps", "target": 25, "LinkSpeedUnits": "G", "LinkSpeedRaw": 10000000000.0}, {"source": 10, "id": "e8", "target": 26}, {"LinkSpeed": "1", "source": 11, "LinkLabel": "1Gbps", "target": 29, "LinkSpeedUnits": "G", "LinkSpeedRaw": 1000000000.0}, {"LinkSpeed": "1", "source": 15, "LinkLabel": "1Gbps", "target": 21, "LinkSpeedUnits": "G", "LinkSpeedRaw": 1000000000.0}, {"LinkSpeed": "1", "source": 16, "LinkLabel": "1Gbps", "target": 20, "LinkSpeedUnits": "G", "LinkSpeedRaw": 1000000000.0}, {"LinkSpeed": "1", "source": 20, "LinkLabel": "1Gbps", "target": 29, "LinkSpeedUnits": "G", "LinkSpeedRaw": 1000000000.0}, {"LinkSpeed": "1", "source": 21, "LinkLabel": "1Gbps", "target": 22, "LinkSpeedUnits": "G", "LinkSpeedRaw": 1000000000.0}, {"source": 22, "id": "e1", "target": 26}, {"source": 23, "LinkLabel": "10-100Mbps", "target": 24}, {"LinkSpeed": "10", "source": 23, "LinkLabel": "10Gbps", "target": 25, "LinkSpeedUnits": "G", "LinkSpeedRaw": 10000000000.0}], "multigraph": true}